header: 
  seq: 25587
  stamp: 
    secs: 1626106766
    nsecs: 515887300
  frame_id: ''
state: 
  voltage_input: 11.5
  temperature_pcb: 0.0
  current_motor: 0.0
  current_input: 0.0
  current_q: 0.0
  speed: 0.0
  duty_cycle: 0.0
  charge_drawn: 14.0
  charge_regen: 0.0
  energy_drawn: 0.0
  energy_regen: 0.0
  displacement: 1233.0
  distance_traveled: 1723.0
  fault_code: 0
---
header: 
  seq: 25588
  stamp: 
    secs: 1626106766
    nsecs: 535860368
  frame_id: ''
state: 
  voltage_input: 11.6
  temperature_pcb: 0.0
  current_motor: 0.0
  current_input: 0.0
  current_q: 0.0
  speed: -1.0
  duty_cycle: 0.0
  charge_drawn: 14.0
  charge_regen: 0.0
  energy_drawn: 0.0
  energy_regen: 0.0
  displacement: 1233.0
  distance_traveled: 1723.0
  fault_code: 0
---
header: 
  seq: 25589
  stamp: 
    secs: 1626106766
    nsecs: 556241836
  frame_id: ''
state: 
  voltage_input: 11.5
  temperature_pcb: 0.0
  current_motor: 0.0
  current_input: 0.0
  current_q: 0.0
  speed: 0.0
  duty_cycle: 0.0
  charge_drawn: 14.0
  charge_regen: 0.0
  energy_drawn: 0.0
  energy_regen: 0.0
  displacement: 1233.0
  distance_traveled: 1723.0
  fault_code: 0
---
header: 
  seq: 25590
  stamp: 
    secs: 1626106766
    nsecs: 578479877
  frame_id: ''
state: 
  voltage_input: 11.5
  temperature_pcb: 0.0
  current_motor: 0.0
  current_input: 0.0
  current_q: 0.0
  speed: 1.0
  duty_cycle: 0.0
  charge_drawn: 14.0
  charge_regen: 0.0
  energy_drawn: 0.0
  energy_regen: 0.0
  displacement: 1233.0
  distance_traveled: 1723.0
  fault_code: 0
---
header: 
  seq: 25591
  stamp: 
    secs: 1626106766
    nsecs: 595975310
  frame_id: ''
state: 
  voltage_input: 11.5
  temperature_pcb: 0.0
  current_motor: 0.0
  current_input: 0.0
  current_q: 0.0
  speed: 0.0
  duty_cycle: 0.0
  charge_drawn: 14.0
  charge_regen: 0.0
  energy_drawn: 0.0
  energy_regen: 0.0
  displacement: 1233.0
  distance_traveled: 1723.0
  fault_code: 0
---
header: 
  seq: 25592
  stamp: 
    secs: 1626106766
    nsecs: 616004786
  frame_id: ''
state: 
  voltage_input: 11.5
  temperature_pcb: 0.0
  current_motor: 0.0
  current_input: 0.0
  current_q: 0.0
  speed: 0.0
  duty_cycle: 0.0
  charge_drawn: 14.0
  charge_regen: 0.0
  energy_drawn: 0.0
  energy_regen: 0.0
  displacement: 1233.0
  distance_traveled: 1723.0
  fault_code: 0
---
header: 
  seq: 25593
  stamp: 
    secs: 1626106766
    nsecs: 635911186
  frame_id: ''
state: 
  voltage_input: 11.6
  temperature_pcb: 0.0
  current_motor: 0.0
  current_input: 0.0
  current_q: 0.0
  speed: 0.0
  duty_cycle: 0.0
  charge_drawn: 14.0
  charge_regen: 0.0
  energy_drawn: 0.0
  energy_regen: 0.0
  displacement: 1233.0
  distance_traveled: 1723.0
  fault_code: 0
---
header: 
  seq: 25594
  stamp: 
    secs: 1626106766
    nsecs: 655935193
  frame_id: ''
state: 
  voltage_input: 11.5
  temperature_pcb: 0.0
  current_motor: 0.0
  current_input: 0.0
  current_q: 0.0
  speed: 2.0
  duty_cycle: 0.0
  charge_drawn: 14.0
  charge_regen: 0.0
  energy_drawn: 0.0
  energy_regen: 0.0
  displacement: 1233.0
  distance_traveled: 1723.0
  fault_code: 0
---
header: 
  seq: 25595
  stamp: 
    secs: 1626106766
    nsecs: 675876177
  frame_id: ''
state: 
  voltage_input: 11.5
  temperature_pcb: 0.0
  current_motor: 0.0
  current_input: 0.0
  current_q: 0.0
  speed: 0.0
  duty_cycle: 0.0
  charge_drawn: 14.0
  charge_regen: 0.0
  energy_drawn: 0.0
  energy_regen: 0.0
  displacement: 1233.0
  distance_traveled: 1723.0
  fault_code: 0
---
header: 
  seq: 25596
  stamp: 
    secs: 1626106766
    nsecs: 695885133
  frame_id: ''
state: 
  voltage_input: 11.5
  temperature_pcb: 0.0
  current_motor: 0.0
  current_input: 0.0
  current_q: 0.0
  speed: 0.0
  duty_cycle: 0.0
  charge_drawn: 14.0
  charge_regen: 0.0
  energy_drawn: 0.0
  energy_regen: 0.0
  displacement: 1233.0
  distance_traveled: 1723.0
  fault_code: 0
---
header: 
  seq: 25597
  stamp: 
    secs: 1626106766
    nsecs: 715973830
  frame_id: ''
state: 
  voltage_input: 11.5
  temperature_pcb: 0.0
  current_motor: 0.0
  current_input: 0.0
  current_q: 0.0
  speed: 0.0
  duty_cycle: 0.0
  charge_drawn: 14.0
  charge_regen: 0.0
  energy_drawn: 0.0
  energy_regen: 0.0
  displacement: 1233.0
  distance_traveled: 1723.0
  fault_code: 0
---
header: 
  seq: 25598
  stamp: 
    secs: 1626106766
    nsecs: 735962576
  frame_id: ''
state: 
  voltage_input: 11.5
  temperature_pcb: 0.0
  current_motor: 0.0
  current_input: 0.0
  current_q: 0.0
  speed: -1.0
  duty_cycle: 0.0
  charge_drawn: 14.0
  charge_regen: 0.0
  energy_drawn: 0.0
  energy_regen: 0.0
  displacement: 1233.0
  distance_traveled: 1723.0
  fault_code: 0
---
header: 
  seq: 25599
  stamp: 
    secs: 1626106766
    nsecs: 756012887
  frame_id: ''
state: 
  voltage_input: 11.5
  temperature_pcb: 0.0
  current_motor: 0.0
  current_input: 0.0
  current_q: 0.0
  speed: -1.0
  duty_cycle: 0.0
  charge_drawn: 14.0
  charge_regen: 0.0
  energy_drawn: 0.0
  energy_regen: 0.0
  displacement: 1233.0
  distance_traveled: 1723.0
  fault_code: 0
---
header: 
  seq: 25600
  stamp: 
    secs: 1626106766
    nsecs: 775874389
  frame_id: ''
state: 
  voltage_input: 11.6
  temperature_pcb: 0.0
  current_motor: 0.0
  current_input: 0.0
  current_q: 0.0
  speed: 0.0
  duty_cycle: 0.0
  charge_drawn: 14.0
  charge_regen: 0.0
  energy_drawn: 0.0
  energy_regen: 0.0
  displacement: 1233.0
  distance_traveled: 1723.0
  fault_code: 0
---
header: 
  seq: 25601
  stamp: 
    secs: 1626106766
    nsecs: 795903709
  frame_id: ''
state: 
  voltage_input: 11.5
  temperature_pcb: 0.0
  current_motor: 0.0
  current_input: 0.0
  current_q: 0.0
  speed: 0.0
  duty_cycle: 0.0
  charge_drawn: 14.0
  charge_regen: 0.0
  energy_drawn: 0.0
  energy_regen: 0.0
  displacement: 1233.0
  distance_traveled: 1723.0
  fault_code: 0
---
header: 
  seq: 25602
  stamp: 
    secs: 1626106766
    nsecs: 815877038
  frame_id: ''
state: 
  voltage_input: 11.5
  temperature_pcb: 0.0
  current_motor: 0.0
  current_input: 0.0
  current_q: 0.0
  speed: 0.0
  duty_cycle: 0.0
  charge_drawn: 14.0
  charge_regen: 0.0
  energy_drawn: 0.0
  energy_regen: 0.0
  displacement: 1233.0
  distance_traveled: 1723.0
  fault_code: 0
---
header: 
  seq: 25603
  stamp: 
    secs: 1626106766
    nsecs: 835889639
  frame_id: ''
state: 
  voltage_input: 11.5
  temperature_pcb: 0.0
  current_motor: 0.0
  current_input: 0.0
  current_q: 0.0
  speed: 0.0
  duty_cycle: 0.0
  charge_drawn: 14.0
  charge_regen: 0.0
  energy_drawn: 0.0
  energy_regen: 0.0
  displacement: 1233.0
  distance_traveled: 1723.0
  fault_code: 0
---
header: 
  seq: 25604
  stamp: 
    secs: 1626106766
    nsecs: 855883854
  frame_id: ''
state: 
  voltage_input: 11.5
  temperature_pcb: 0.0
  current_motor: 0.0
  current_input: 0.0
  current_q: 0.0
  speed: -1.0
  duty_cycle: 0.0
  charge_drawn: 14.0
  charge_regen: 0.0
  energy_drawn: 0.0
  energy_regen: 0.0
  displacement: 1233.0
  distance_traveled: 1723.0
  fault_code: 0
---
header: 
  seq: 25605
  stamp: 
    secs: 1626106766
    nsecs: 875930154
  frame_id: ''
state: 
  voltage_input: 11.6
  temperature_pcb: 0.0
  current_motor: 0.0
  current_input: 0.0
  current_q: 0.0
  speed: -1.0
  duty_cycle: 0.0
  charge_drawn: 14.0
  charge_regen: 0.0
  energy_drawn: 0.0
  energy_regen: 0.0
  displacement: 1233.0
  distance_traveled: 1723.0
  fault_code: 0
---
header: 
  seq: 25606
  stamp: 
    secs: 1626106766
    nsecs: 896033540
  frame_id: ''
state: 
  voltage_input: 11.6
  temperature_pcb: 0.0
  current_motor: 0.0
  current_input: 0.0
  current_q: 0.0
  speed: -1.0
  duty_cycle: 0.0
  charge_drawn: 14.0
  charge_regen: 0.0
  energy_drawn: 0.0
  energy_regen: 0.0
  displacement: 1233.0
  distance_traveled: 1723.0
  fault_code: 0
---
header: 
  seq: 25607
  stamp: 
    secs: 1626106766
    nsecs: 915929418
  frame_id: ''
state: 
  voltage_input: 11.5
  temperature_pcb: 0.0
  current_motor: 0.0
  current_input: 0.0
  current_q: 0.0
  speed: -1.0
  duty_cycle: 0.0
  charge_drawn: 14.0
  charge_regen: 0.0
  energy_drawn: 0.0
  energy_regen: 0.0
  displacement: 1233.0
  distance_traveled: 1723.0
  fault_code: 0
---
header: 
  seq: 25608
  stamp: 
    secs: 1626106766
    nsecs: 935856131
  frame_id: ''
state: 
  voltage_input: 11.5
  temperature_pcb: 0.0
  current_motor: 0.0
  current_input: 0.0
  current_q: 0.0
  speed: -1.0
  duty_cycle: -0.001
  charge_drawn: 14.0
  charge_regen: 0.0
  energy_drawn: 0.0
  energy_regen: 0.0
  displacement: 1233.0
  distance_traveled: 1723.0
  fault_code: 0
---
header: 
  seq: 25609
  stamp: 
    secs: 1626106766
    nsecs: 955928421
  frame_id: ''
state: 
  voltage_input: 11.5
  temperature_pcb: 0.0
  current_motor: 0.0
  current_input: 0.0
  current_q: 0.0
  speed: -1.0
  duty_cycle: 0.0
  charge_drawn: 14.0
  charge_regen: 0.0
  energy_drawn: 0.0
  energy_regen: 0.0
  displacement: 1233.0
  distance_traveled: 1723.0
  fault_code: 0
---
header: 
  seq: 25610
  stamp: 
    secs: 1626106766
    nsecs: 976175041
  frame_id: ''
state: 
  voltage_input: 11.5
  temperature_pcb: 0.0
  current_motor: 0.0
  current_input: 0.0
  current_q: 0.0
  speed: -1.0
  duty_cycle: 0.0
  charge_drawn: 14.0
  charge_regen: 0.0
  energy_drawn: 0.0
  energy_regen: 0.0
  displacement: 1233.0
  distance_traveled: 1723.0
  fault_code: 0
---
header: 
  seq: 25611
  stamp: 
    secs: 1626106766
    nsecs: 995915810
  frame_id: ''
state: 
  voltage_input: 11.6
  temperature_pcb: 0.0
  current_motor: 0.0
  current_input: 0.0
  current_q: 0.0
  speed: 0.0
  duty_cycle: 0.0
  charge_drawn: 14.0
  charge_regen: 0.0
  energy_drawn: 0.0
  energy_regen: 0.0
  displacement: 1233.0
  distance_traveled: 1723.0
  fault_code: 0
---
header: 
  seq: 25612
  stamp: 
    secs: 1626106767
    nsecs:  15898306
  frame_id: ''
state: 
  voltage_input: 11.5
  temperature_pcb: 0.0
  current_motor: 0.0
  current_input: 0.0
  current_q: 0.0
  speed: 0.0
  duty_cycle: -0.001
  charge_drawn: 14.0
  charge_regen: 0.0
  energy_drawn: 0.0
  energy_regen: 0.0
  displacement: 1233.0
  distance_traveled: 1723.0
  fault_code: 0
---
header: 
  seq: 25613
  stamp: 
    secs: 1626106767
    nsecs:  37314860
  frame_id: ''
state: 
  voltage_input: 11.6
  temperature_pcb: 0.0
  current_motor: 0.0
  current_input: 0.0
  current_q: 0.0
  speed: 0.0
  duty_cycle: 0.0
  charge_drawn: 14.0
  charge_regen: 0.0
  energy_drawn: 0.0
  energy_regen: 0.0
  displacement: 1233.0
  distance_traveled: 1723.0
  fault_code: 0
---
header: 
  seq: 25614
  stamp: 
    secs: 1626106767
    nsecs:  55941164
  frame_id: ''
state: 
  voltage_input: 11.5
  temperature_pcb: 0.0
  current_motor: 0.0
  current_input: 0.0
  current_q: 0.0
  speed: 1.0
  duty_cycle: 0.0
  charge_drawn: 14.0
  charge_regen: 0.0
  energy_drawn: 0.0
  energy_regen: 0.0
  displacement: 1233.0
  distance_traveled: 1723.0
  fault_code: 0
---
header: 
  seq: 25615
  stamp: 
    secs: 1626106767
    nsecs:  75890430
  frame_id: ''
state: 
  voltage_input: 11.5
  temperature_pcb: 0.0
  current_motor: 0.0
  current_input: 0.0
  current_q: 0.0
  speed: 2.0
  duty_cycle: 0.0
  charge_drawn: 14.0
  charge_regen: 0.0
  energy_drawn: 0.0
  energy_regen: 0.0
  displacement: 1233.0
  distance_traveled: 1723.0
  fault_code: 0
---
header: 
  seq: 25616
  stamp: 
    secs: 1626106767
    nsecs:  95865269
  frame_id: ''
state: 
  voltage_input: 11.5
  temperature_pcb: 0.0
  current_motor: 0.0
  current_input: 0.0
  current_q: 0.0
  speed: 1.0
  duty_cycle: 0.0
  charge_drawn: 14.0
  charge_regen: 0.0
  energy_drawn: 0.0
  energy_regen: 0.0
  displacement: 1233.0
  distance_traveled: 1723.0
  fault_code: 0
---
header: 
  seq: 25617
  stamp: 
    secs: 1626106767
    nsecs: 115855109
  frame_id: ''
state: 
  voltage_input: 11.5
  temperature_pcb: 0.0
  current_motor: 0.0
  current_input: 0.0
  current_q: 0.0
  speed: 1.0
  duty_cycle: 0.0
  charge_drawn: 14.0
  charge_regen: 0.0
  energy_drawn: 0.0
  energy_regen: 0.0
  displacement: 1233.0
  distance_traveled: 1723.0
  fault_code: 0
---
header: 
  seq: 25618
  stamp: 
    secs: 1626106767
    nsecs: 135861096
  frame_id: ''
state: 
  voltage_input: 11.6
  temperature_pcb: 0.0
  current_motor: 0.0
  current_input: 0.0
  current_q: 0.0
  speed: 0.0
  duty_cycle: 0.0
  charge_drawn: 14.0
  charge_regen: 0.0
  energy_drawn: 0.0
  energy_regen: 0.0
  displacement: 1233.0
  distance_traveled: 1723.0
  fault_code: 0
---
header: 
  seq: 25619
  stamp: 
    secs: 1626106767
    nsecs: 155821195
  frame_id: ''
state: 
  voltage_input: 11.5
  temperature_pcb: 0.0
  current_motor: 0.0
  current_input: 0.0
  current_q: 0.0
  speed: 0.0
  duty_cycle: 0.0
  charge_drawn: 14.0
  charge_regen: 0.0
  energy_drawn: 0.0
  energy_regen: 0.0
  displacement: 1233.0
  distance_traveled: 1723.0
  fault_code: 0
---
header: 
  seq: 25620
  stamp: 
    secs: 1626106767
    nsecs: 176630073
  frame_id: ''
state: 
  voltage_input: 11.5
  temperature_pcb: 0.0
  current_motor: 0.0
  current_input: 0.0
  current_q: 0.0
  speed: 0.0
  duty_cycle: 0.0
  charge_drawn: 14.0
  charge_regen: 0.0
  energy_drawn: 0.0
  energy_regen: 0.0
  displacement: 1233.0
  distance_traveled: 1723.0
  fault_code: 0
---
header: 
  seq: 25621
  stamp: 
    secs: 1626106767
    nsecs: 195977808
  frame_id: ''
state: 
  voltage_input: 11.5
  temperature_pcb: 0.0
  current_motor: 0.0
  current_input: 0.0
  current_q: 0.0
  speed: 0.0
  duty_cycle: 0.0
  charge_drawn: 14.0
  charge_regen: 0.0
  energy_drawn: 0.0
  energy_regen: 0.0
  displacement: 1233.0
  distance_traveled: 1723.0
  fault_code: 0
---
header: 
  seq: 25622
  stamp: 
    secs: 1626106767
    nsecs: 215877905
  frame_id: ''
state: 
  voltage_input: 11.6
  temperature_pcb: 0.0
  current_motor: 0.0
  current_input: 0.0
  current_q: 0.0
  speed: 0.0
  duty_cycle: 0.0
  charge_drawn: 14.0
  charge_regen: 0.0
  energy_drawn: 0.0
  energy_regen: 0.0
  displacement: 1233.0
  distance_traveled: 1723.0
  fault_code: 0
---
header: 
  seq: 25623
  stamp: 
    secs: 1626106767
    nsecs: 235877381
  frame_id: ''
state: 
  voltage_input: 11.6
  temperature_pcb: 0.0
  current_motor: 0.0
  current_input: 0.0
  current_q: 0.0
  speed: 1.0
  duty_cycle: 0.0
  charge_drawn: 14.0
  charge_regen: 0.0
  energy_drawn: 0.0
  energy_regen: 0.0
  displacement: 1233.0
  distance_traveled: 1723.0
  fault_code: 0
---
header: 
  seq: 25624
  stamp: 
    secs: 1626106767
    nsecs: 255836074
  frame_id: ''
state: 
  voltage_input: 11.5
  temperature_pcb: 0.0
  current_motor: 0.0
  current_input: 0.0
  current_q: 0.0
  speed: 2.0
  duty_cycle: 0.0
  charge_drawn: 14.0
  charge_regen: 0.0
  energy_drawn: 0.0
  energy_regen: 0.0
  displacement: 1233.0
  distance_traveled: 1723.0
  fault_code: 0
---
header: 
  seq: 25625
  stamp: 
    secs: 1626106767
    nsecs: 276294158
  frame_id: ''
state: 
  voltage_input: 11.5
  temperature_pcb: 0.0
  current_motor: 0.0
  current_input: 0.0
  current_q: 0.0
  speed: 2.0
  duty_cycle: 0.0
  charge_drawn: 14.0
  charge_regen: 0.0
  energy_drawn: 0.0
  energy_regen: 0.0
  displacement: 1233.0
  distance_traveled: 1723.0
  fault_code: 0
---
header: 
  seq: 25626
  stamp: 
    secs: 1626106767
    nsecs: 295860703
  frame_id: ''
state: 
  voltage_input: 11.6
  temperature_pcb: 0.0
  current_motor: 0.0
  current_input: 0.0
  current_q: 0.0
  speed: 1.0
  duty_cycle: 0.0
  charge_drawn: 14.0
  charge_regen: 0.0
  energy_drawn: 0.0
  energy_regen: 0.0
  displacement: 1233.0
  distance_traveled: 1723.0
  fault_code: 0
---
header: 
  seq: 25627
  stamp: 
    secs: 1626106767
    nsecs: 315943306
  frame_id: ''
state: 
  voltage_input: 11.5
  temperature_pcb: 0.0
  current_motor: 0.0
  current_input: 0.0
  current_q: 0.0
  speed: 1.0
  duty_cycle: 0.0
  charge_drawn: 14.0
  charge_regen: 0.0
  energy_drawn: 0.0
  energy_regen: 0.0
  displacement: 1233.0
  distance_traveled: 1723.0
  fault_code: 0
---
header: 
  seq: 25628
  stamp: 
    secs: 1626106767
    nsecs: 335904707
  frame_id: ''
state: 
  voltage_input: 11.5
  temperature_pcb: 0.0
  current_motor: 0.0
  current_input: 0.0
  current_q: 0.0
  speed: 0.0
  duty_cycle: 0.0
  charge_drawn: 14.0
  charge_regen: 0.0
  energy_drawn: 0.0
  energy_regen: 0.0
  displacement: 1233.0
  distance_traveled: 1723.0
  fault_code: 0
---
header: 
  seq: 25629
  stamp: 
    secs: 1626106767
    nsecs: 356020229
  frame_id: ''
state: 
  voltage_input: 11.6
  temperature_pcb: 0.0
  current_motor: 0.0
  current_input: 0.0
  current_q: 0.0
  speed: 1.0
  duty_cycle: 0.0
  charge_drawn: 14.0
  charge_regen: 0.0
  energy_drawn: 0.0
  energy_regen: 0.0
  displacement: 1233.0
  distance_traveled: 1723.0
  fault_code: 0
---
header: 
  seq: 25630
  stamp: 
    secs: 1626106767
    nsecs: 376179658
  frame_id: ''
state: 
  voltage_input: 11.6
  temperature_pcb: 0.0
  current_motor: 0.0
  current_input: 0.0
  current_q: 0.0
  speed: 0.0
  duty_cycle: 0.0
  charge_drawn: 14.0
  charge_regen: 0.0
  energy_drawn: 0.0
  energy_regen: 0.0
  displacement: 1233.0
  distance_traveled: 1723.0
  fault_code: 0
---
header: 
  seq: 25631
  stamp: 
    secs: 1626106767
    nsecs: 395944282
  frame_id: ''
state: 
  voltage_input: 11.5
  temperature_pcb: 0.0
  current_motor: 0.0
  current_input: 0.0
  current_q: 0.0
  speed: 1.0
  duty_cycle: 0.0
  charge_drawn: 14.0
  charge_regen: 0.0
  energy_drawn: 0.0
  energy_regen: 0.0
  displacement: 1233.0
  distance_traveled: 1723.0
  fault_code: 0
---
header: 
  seq: 25632
  stamp: 
    secs: 1626106767
    nsecs: 415815367
  frame_id: ''
state: 
  voltage_input: 11.5
  temperature_pcb: 0.0
  current_motor: 0.0
  current_input: 0.0
  current_q: 0.0
  speed: 1.0
  duty_cycle: 0.0
  charge_drawn: 14.0
  charge_regen: 0.0
  energy_drawn: 0.0
  energy_regen: 0.0
  displacement: 1233.0
  distance_traveled: 1723.0
  fault_code: 0
---
header: 
  seq: 25633
  stamp: 
    secs: 1626106767
    nsecs: 435857397
  frame_id: ''
state: 
  voltage_input: 11.5
  temperature_pcb: 0.0
  current_motor: 0.0
  current_input: 0.0
  current_q: 0.0
  speed: 0.0
  duty_cycle: 0.0
  charge_drawn: 14.0
  charge_regen: 0.0
  energy_drawn: 0.0
  energy_regen: 0.0
  displacement: 1233.0
  distance_traveled: 1723.0
  fault_code: 0
---
header: 
  seq: 25634
  stamp: 
    secs: 1626106767
    nsecs: 456016617
  frame_id: ''
state: 
  voltage_input: 11.5
  temperature_pcb: 0.0
  current_motor: 0.0
  current_input: 0.0
  current_q: 0.0
  speed: -1.0
  duty_cycle: 0.0
  charge_drawn: 14.0
  charge_regen: 0.0
  energy_drawn: 0.0
  energy_regen: 0.0
  displacement: 1233.0
  distance_traveled: 1723.0
  fault_code: 0
---
header: 
  seq: 25635
  stamp: 
    secs: 1626106767
    nsecs: 475960362
  frame_id: ''
state: 
  voltage_input: 11.4
  temperature_pcb: 0.0
  current_motor: 0.0
  current_input: 0.0
  current_q: 0.0
  speed: -1.0
  duty_cycle: 0.0
  charge_drawn: 14.0
  charge_regen: 0.0
  energy_drawn: 0.0
  energy_regen: 0.0
  displacement: 1233.0
  distance_traveled: 1723.0
  fault_code: 0
---
header: 
  seq: 25636
  stamp: 
    secs: 1626106767
    nsecs: 496215731
  frame_id: ''
state: 
  voltage_input: 11.5
  temperature_pcb: 0.0
  current_motor: 0.0
  current_input: 0.0
  current_q: 0.0
  speed: -2.0
  duty_cycle: 0.0
  charge_drawn: 14.0
  charge_regen: 0.0
  energy_drawn: 0.0
  energy_regen: 0.0
  displacement: 1233.0
  distance_traveled: 1723.0
  fault_code: 0
---
header: 
  seq: 25637
  stamp: 
    secs: 1626106767
    nsecs: 516804289
  frame_id: ''
state: 
  voltage_input: 11.6
  temperature_pcb: 0.0
  current_motor: 0.0
  current_input: 0.0
  current_q: 0.0
  speed: -1.0
  duty_cycle: 0.0
  charge_drawn: 14.0
  charge_regen: 0.0
  energy_drawn: 0.0
  energy_regen: 0.0
  displacement: 1233.0
  distance_traveled: 1723.0
  fault_code: 0
---
header: 
  seq: 25638
  stamp: 
    secs: 1626106767
    nsecs: 536660531
  frame_id: ''
state: 
  voltage_input: 11.5
  temperature_pcb: 0.0
  current_motor: 0.0
  current_input: 0.0
  current_q: 0.0
  speed: -1.0
  duty_cycle: 0.0
  charge_drawn: 14.0
  charge_regen: 0.0
  energy_drawn: 0.0
  energy_regen: 0.0
  displacement: 1233.0
  distance_traveled: 1723.0
  fault_code: 0
---
header: 
  seq: 25639
  stamp: 
    secs: 1626106767
    nsecs: 556146968
  frame_id: ''
state: 
  voltage_input: 11.5
  temperature_pcb: 0.0
  current_motor: 0.0
  current_input: 0.0
  current_q: 0.0
  speed: 0.0
  duty_cycle: 0.0
  charge_drawn: 14.0
  charge_regen: 0.0
  energy_drawn: 0.0
  energy_regen: 0.0
  displacement: 1233.0
  distance_traveled: 1723.0
  fault_code: 0
---
header: 
  seq: 25640
  stamp: 
    secs: 1626106767
    nsecs: 576641409
  frame_id: ''
state: 
  voltage_input: 11.5
  temperature_pcb: 0.0
  current_motor: 0.0
  current_input: 0.0
  current_q: 0.0
  speed: -1.0
  duty_cycle: 0.0
  charge_drawn: 14.0
  charge_regen: 0.0
  energy_drawn: 0.0
  energy_regen: 0.0
  displacement: 1233.0
  distance_traveled: 1723.0
  fault_code: 0
---
header: 
  seq: 25641
  stamp: 
    secs: 1626106767
    nsecs: 596151024
  frame_id: ''
state: 
  voltage_input: 11.6
  temperature_pcb: 0.0
  current_motor: 0.0
  current_input: 0.0
  current_q: 0.0
  speed: -1.0
  duty_cycle: 0.0
  charge_drawn: 14.0
  charge_regen: 0.0
  energy_drawn: 0.0
  energy_regen: 0.0
  displacement: 1233.0
  distance_traveled: 1723.0
  fault_code: 0
---
header: 
  seq: 25642
  stamp: 
    secs: 1626106767
    nsecs: 616152948
  frame_id: ''
state: 
  voltage_input: 11.6
  temperature_pcb: 0.0
  current_motor: 0.0
  current_input: 0.0
  current_q: 0.0
  speed: -1.0
  duty_cycle: 0.0
  charge_drawn: 14.0
  charge_regen: 0.0
  energy_drawn: 0.0
  energy_regen: 0.0
  displacement: 1233.0
  distance_traveled: 1723.0
  fault_code: 0
---
header: 
  seq: 25643
  stamp: 
    secs: 1626106767
    nsecs: 636135548
  frame_id: ''
state: 
  voltage_input: 11.5
  temperature_pcb: 0.0
  current_motor: 0.0
  current_input: 0.0
  current_q: 0.0
  speed: 0.0
  duty_cycle: 0.0
  charge_drawn: 14.0
  charge_regen: 0.0
  energy_drawn: 0.0
  energy_regen: 0.0
  displacement: 1233.0
  distance_traveled: 1723.0
  fault_code: 0
---
header: 
  seq: 25644
  stamp: 
    secs: 1626106767
    nsecs: 656112210
  frame_id: ''
state: 
  voltage_input: 11.5
  temperature_pcb: 0.0
  current_motor: 0.0
  current_input: 0.0
  current_q: 0.0
  speed: 0.0
  duty_cycle: 0.0
  charge_drawn: 14.0
  charge_regen: 0.0
  energy_drawn: 0.0
  energy_regen: 0.0
  displacement: 1233.0
  distance_traveled: 1723.0
  fault_code: 0
---
header: 
  seq: 25645
  stamp: 
    secs: 1626106767
    nsecs: 676452582
  frame_id: ''
state: 
  voltage_input: 11.5
  temperature_pcb: 0.0
  current_motor: 0.0
  current_input: 0.0
  current_q: 0.0
  speed: -1.0
  duty_cycle: 0.0
  charge_drawn: 14.0
  charge_regen: 0.0
  energy_drawn: 0.0
  energy_regen: 0.0
  displacement: 1233.0
  distance_traveled: 1723.0
  fault_code: 0
---
header: 
  seq: 25646
  stamp: 
    secs: 1626106767
    nsecs: 696915720
  frame_id: ''
state: 
  voltage_input: 11.5
  temperature_pcb: 0.0
  current_motor: 0.0
  current_input: 0.0
  current_q: 0.0
  speed: -1.0
  duty_cycle: 0.0
  charge_drawn: 14.0
  charge_regen: 0.0
  energy_drawn: 0.0
  energy_regen: 0.0
  displacement: 1233.0
  distance_traveled: 1723.0
  fault_code: 0
---
header: 
  seq: 25647
  stamp: 
    secs: 1626106767
    nsecs: 716138138
  frame_id: ''
state: 
  voltage_input: 11.5
  temperature_pcb: 0.0
  current_motor: 0.0
  current_input: 0.0
  current_q: 0.0
  speed: -1.0
  duty_cycle: 0.0
  charge_drawn: 14.0
  charge_regen: 0.0
  energy_drawn: 0.0
  energy_regen: 0.0
  displacement: 1233.0
  distance_traveled: 1723.0
  fault_code: 0
---
header: 
  seq: 25648
  stamp: 
    secs: 1626106767
    nsecs: 737194472
  frame_id: ''
state: 
  voltage_input: 11.5
  temperature_pcb: 0.0
  current_motor: 0.0
  current_input: 0.0
  current_q: 0.0
  speed: 0.0
  duty_cycle: 0.0
  charge_drawn: 14.0
  charge_regen: 0.0
  energy_drawn: 0.0
  energy_regen: 0.0
  displacement: 1233.0
  distance_traveled: 1723.0
  fault_code: 0
---
header: 
  seq: 25649
  stamp: 
    secs: 1626106767
    nsecs: 756717108
  frame_id: ''
state: 
  voltage_input: 11.5
  temperature_pcb: 0.0
  current_motor: 0.0
  current_input: 0.0
  current_q: 0.0
  speed: 0.0
  duty_cycle: 0.0
  charge_drawn: 14.0
  charge_regen: 0.0
  energy_drawn: 0.0
  energy_regen: 0.0
  displacement: 1233.0
  distance_traveled: 1723.0
  fault_code: 0
---
header: 
  seq: 25650
  stamp: 
    secs: 1626106767
    nsecs: 776657259
  frame_id: ''
state: 
  voltage_input: 11.5
  temperature_pcb: 0.0
  current_motor: 0.0
  current_input: 0.0
  current_q: 0.0
  speed: 0.0
  duty_cycle: 0.0
  charge_drawn: 14.0
  charge_regen: 0.0
  energy_drawn: 0.0
  energy_regen: 0.0
  displacement: 1233.0
  distance_traveled: 1723.0
  fault_code: 0
---
header: 
  seq: 25651
  stamp: 
    secs: 1626106767
    nsecs: 798049959
  frame_id: ''
state: 
  voltage_input: 11.5
  temperature_pcb: 0.0
  current_motor: 0.0
  current_input: 0.0
  current_q: 0.0
  speed: -1.0
  duty_cycle: 0.0
  charge_drawn: 14.0
  charge_regen: 0.0
  energy_drawn: 0.0
  energy_regen: 0.0
  displacement: 1233.0
  distance_traveled: 1723.0
  fault_code: 0
---
header: 
  seq: 25652
  stamp: 
    secs: 1626106767
    nsecs: 816741370
  frame_id: ''
state: 
  voltage_input: 11.5
  temperature_pcb: 0.0
  current_motor: 0.0
  current_input: 0.0
  current_q: 0.0
  speed: -2.0
  duty_cycle: 0.0
  charge_drawn: 14.0
  charge_regen: 0.0
  energy_drawn: 0.0
  energy_regen: 0.0
  displacement: 1233.0
  distance_traveled: 1723.0
  fault_code: 0
---
header: 
  seq: 25653
  stamp: 
    secs: 1626106767
    nsecs: 836778607
  frame_id: ''
state: 
  voltage_input: 11.5
  temperature_pcb: 0.0
  current_motor: 0.0
  current_input: 0.0
  current_q: 0.0
  speed: -1.0
  duty_cycle: 0.0
  charge_drawn: 14.0
  charge_regen: 0.0
  energy_drawn: 0.0
  energy_regen: 0.0
  displacement: 1233.0
  distance_traveled: 1723.0
  fault_code: 0
---
header: 
  seq: 25654
  stamp: 
    secs: 1626106767
    nsecs: 856383746
  frame_id: ''
state: 
  voltage_input: 11.5
  temperature_pcb: 0.0
  current_motor: 0.0
  current_input: 0.0
  current_q: 0.0
  speed: -1.0
  duty_cycle: 0.0
  charge_drawn: 14.0
  charge_regen: 0.0
  energy_drawn: 0.0
  energy_regen: 0.0
  displacement: 1233.0
  distance_traveled: 1723.0
  fault_code: 0
---
header: 
  seq: 25655
  stamp: 
    secs: 1626106767
    nsecs: 877276064
  frame_id: ''
state: 
  voltage_input: 11.5
  temperature_pcb: 0.0
  current_motor: 0.0
  current_input: 0.0
  current_q: 0.0
  speed: 1.0
  duty_cycle: 0.0
  charge_drawn: 14.0
  charge_regen: 0.0
  energy_drawn: 0.0
  energy_regen: 0.0
  displacement: 1233.0
  distance_traveled: 1723.0
  fault_code: 0
---
header: 
  seq: 25656
  stamp: 
    secs: 1626106767
    nsecs: 896667447
  frame_id: ''
state: 
  voltage_input: 11.6
  temperature_pcb: 0.0
  current_motor: 33.65
  current_input: 2.19
  current_q: 35.89
  speed: -19.0
  duty_cycle: 0.072
  charge_drawn: 14.0
  charge_regen: 0.0
  energy_drawn: 0.0
  energy_regen: 0.0
  displacement: 1233.0
  distance_traveled: 1723.0
  fault_code: 0
---
header: 
  seq: 25657
  stamp: 
    secs: 1626106767
    nsecs: 916967401
  frame_id: ''
state: 
  voltage_input: 11.5
  temperature_pcb: 0.0
  current_motor: 59.96
  current_input: 3.77
  current_q: 59.88
  speed: -63.0
  duty_cycle: 0.073
  charge_drawn: 14.0
  charge_regen: 0.0
  energy_drawn: 0.0
  energy_regen: 0.0
  displacement: 1232.0
  distance_traveled: 1724.0
  fault_code: 0
---
header: 
  seq: 25658
  stamp: 
    secs: 1626106767
    nsecs: 937256470
  frame_id: ''
state: 
  voltage_input: 11.5
  temperature_pcb: 0.0
  current_motor: 59.93
  current_input: 3.84
  current_q: 59.93
  speed: -78.0
  duty_cycle: 0.074
  charge_drawn: 15.0
  charge_regen: 0.0
  energy_drawn: 0.0
  energy_regen: 0.0
  displacement: 1232.0
  distance_traveled: 1724.0
  fault_code: 0
---
header: 
  seq: 25659
  stamp: 
    secs: 1626106767
    nsecs: 956794003
  frame_id: ''
state: 
  voltage_input: 11.5
  temperature_pcb: 0.0
  current_motor: 60.02
  current_input: 3.85
  current_q: 60.02
  speed: -93.0
  duty_cycle: 0.073
  charge_drawn: 15.0
  charge_regen: 0.0
  energy_drawn: 0.0
  energy_regen: 0.0
  displacement: 1232.0
  distance_traveled: 1724.0
  fault_code: 0
---
header: 
  seq: 25660
  stamp: 
    secs: 1626106767
    nsecs: 977147188
  frame_id: ''
state: 
  voltage_input: 11.5
  temperature_pcb: 0.0
  current_motor: 59.98
  current_input: 3.81
  current_q: 59.96
  speed: -109.0
  duty_cycle: 0.074
  charge_drawn: 15.0
  charge_regen: 0.0
  energy_drawn: 0.0
  energy_regen: 0.0
  displacement: 1231.0
  distance_traveled: 1725.0
  fault_code: 0
---
header: 
  seq: 25661
  stamp: 
    secs: 1626106767
    nsecs: 999079646
  frame_id: ''
state: 
  voltage_input: 11.4
  temperature_pcb: 0.0
  current_motor: 51.04
  current_input: 3.48
  current_q: 51.11
  speed: 126.0
  duty_cycle: 0.066
  charge_drawn: 15.0
  charge_regen: 0.0
  energy_drawn: 0.0
  energy_regen: 0.0
  displacement: 1233.0
  distance_traveled: 1727.0
  fault_code: 0
---
header: 
  seq: 25662
  stamp: 
    secs: 1626106768
    nsecs:  16704822
  frame_id: ''
state: 
  voltage_input: 11.5
  temperature_pcb: 0.0
  current_motor: 59.71
  current_input: 3.85
  current_q: 59.05
  speed: 156.0
  duty_cycle: 0.076
  charge_drawn: 15.0
  charge_regen: 0.0
  energy_drawn: 0.0
  energy_regen: 0.0
  displacement: 1233.0
  distance_traveled: 1727.0
  fault_code: 0
---
header: 
  seq: 25663
  stamp: 
    secs: 1626106768
    nsecs:  36524396
  frame_id: ''
state: 
  voltage_input: 11.5
  temperature_pcb: 0.0
  current_motor: 60.18
  current_input: 3.85
  current_q: 60.05
  speed: 239.0
  duty_cycle: 0.074
  charge_drawn: 16.0
  charge_regen: 0.0
  energy_drawn: 0.0
  energy_regen: 0.0
  displacement: 1234.0
  distance_traveled: 1728.0
  fault_code: 0
---
header: 
  seq: 25664
  stamp: 
    secs: 1626106768
    nsecs:  58221794
  frame_id: ''
state: 
  voltage_input: 11.5
  temperature_pcb: 0.0
  current_motor: 59.76
  current_input: 3.87
  current_q: 59.49
  speed: 367.0
  duty_cycle: 0.07
  charge_drawn: 16.0
  charge_regen: 0.0
  energy_drawn: 0.0
  energy_regen: 0.0
  displacement: 1236.0
  distance_traveled: 1730.0
  fault_code: 0
---
header: 
  seq: 25665
  stamp: 
    secs: 1626106768
    nsecs:  78678160
  frame_id: ''
state: 
  voltage_input: 11.5
  temperature_pcb: 0.0
  current_motor: 49.89
  current_input: 2.95
  current_q: 49.33
  speed: 481.0
  duty_cycle: 0.07
  charge_drawn: 16.0
  charge_regen: 0.0
  energy_drawn: 0.0
  energy_regen: 0.0
  displacement: 1238.0
  distance_traveled: 1732.0
  fault_code: 0
---
header: 
  seq: 25666
  stamp: 
    secs: 1626106768
    nsecs:  96699652
  frame_id: ''
state: 
  voltage_input: 11.6
  temperature_pcb: 0.0
  current_motor: 47.76
  current_input: 2.87
  current_q: 47.96
  speed: 587.0
  duty_cycle: 0.07
  charge_drawn: 16.0
  charge_regen: 0.0
  energy_drawn: 0.0
  energy_regen: 0.0
  displacement: 1239.0
  distance_traveled: 1733.0
  fault_code: 0
---
header: 
  seq: 25667
  stamp: 
    secs: 1626106768
    nsecs: 117646086
  frame_id: ''
state: 
  voltage_input: 11.6
  temperature_pcb: 0.0
  current_motor: 47.04
  current_input: 2.81
  current_q: 46.58
  speed: 681.0
  duty_cycle: 0.07
  charge_drawn: 16.0
  charge_regen: 0.0
  energy_drawn: 0.0
  energy_regen: 0.0
  displacement: 1241.0
  distance_traveled: 1735.0
  fault_code: 0
---
header: 
  seq: 25668
  stamp: 
    secs: 1626106768
    nsecs: 137234350
  frame_id: ''
state: 
  voltage_input: 11.6
  temperature_pcb: 0.0
  current_motor: 44.91
  current_input: 2.72
  current_q: 45.03
  speed: 737.0
  duty_cycle: 0.07
  charge_drawn: 17.0
  charge_regen: 0.0
  energy_drawn: 0.0
  energy_regen: 0.0
  displacement: 1243.0
  distance_traveled: 1737.0
  fault_code: 0
---
header: 
  seq: 25669
  stamp: 
    secs: 1626106768
    nsecs: 156811676
  frame_id: ''
state: 
  voltage_input: 11.5
  temperature_pcb: 0.0
  current_motor: 48.94
  current_input: 3.47
  current_q: 49.24
  speed: 851.0
  duty_cycle: 0.106
  charge_drawn: 17.0
  charge_regen: 0.0
  energy_drawn: 0.0
  energy_regen: 0.0
  displacement: 1245.0
  distance_traveled: 1739.0
  fault_code: 0
---
header: 
  seq: 25670
  stamp: 
    secs: 1626106768
    nsecs: 177051733
  frame_id: ''
state: 
  voltage_input: 11.4
  temperature_pcb: 0.0
  current_motor: 60.94
  current_input: 5.15
  current_q: 60.9
  speed: 1001.0
  duty_cycle: 0.093
  charge_drawn: 17.0
  charge_regen: 0.0
  energy_drawn: 0.0
  energy_regen: 0.0
  displacement: 1248.0
  distance_traveled: 1742.0
  fault_code: 0
---
header: 
  seq: 25671
  stamp: 
    secs: 1626106768
    nsecs: 197239496
  frame_id: ''
state: 
  voltage_input: 11.4
  temperature_pcb: 0.0
  current_motor: 59.78
  current_input: 5.06
  current_q: 59.78
  speed: 1160.0
  duty_cycle: 0.099
  charge_drawn: 17.0
  charge_regen: 0.0
  energy_drawn: 0.0
  energy_regen: 0.0
  displacement: 1251.0
  distance_traveled: 1745.0
  fault_code: 0
---
header: 
  seq: 25672
  stamp: 
    secs: 1626106768
    nsecs: 217097248
  frame_id: ''
state: 
  voltage_input: 11.5
  temperature_pcb: 0.0
  current_motor: 59.86
  current_input: 5.28
  current_q: 59.76
  speed: 1342.0
  duty_cycle: 0.105
  charge_drawn: 18.0
  charge_regen: 0.0
  energy_drawn: 0.0
  energy_regen: 0.0
  displacement: 1255.0
  distance_traveled: 1749.0
  fault_code: 0
---
header: 
  seq: 25673
  stamp: 
    secs: 1626106768
    nsecs: 236961198
  frame_id: ''
state: 
  voltage_input: 11.5
  temperature_pcb: 0.0
  current_motor: 59.97
  current_input: 5.54
  current_q: 59.98
  speed: 1558.0
  duty_cycle: 0.108
  charge_drawn: 18.0
  charge_regen: 0.0
  energy_drawn: 0.0
  energy_regen: 0.0
  displacement: 1259.0
  distance_traveled: 1753.0
  fault_code: 0
---
header: 
  seq: 25674
  stamp: 
    secs: 1626106768
    nsecs: 257290685
  frame_id: ''
state: 
  voltage_input: 11.5
  temperature_pcb: 0.0
  current_motor: 60.0
  current_input: 5.67
  current_q: 59.79
  speed: 1769.0
  duty_cycle: 0.114
  charge_drawn: 18.0
  charge_regen: 0.0
  energy_drawn: 0.0
  energy_regen: 0.0
  displacement: 1264.0
  distance_traveled: 1758.0
  fault_code: 0
---
header: 
  seq: 25675
  stamp: 
    secs: 1626106768
    nsecs: 279276582
  frame_id: ''
state: 
  voltage_input: 11.5
  temperature_pcb: 0.0
  current_motor: 57.99
  current_input: 5.61
  current_q: 57.97
  speed: 1999.0
  duty_cycle: 0.11
  charge_drawn: 19.0
  charge_regen: 0.0
  energy_drawn: 0.0
  energy_regen: 0.0
  displacement: 1270.0
  distance_traveled: 1764.0
  fault_code: 0
---
header: 
  seq: 25676
  stamp: 
    secs: 1626106768
    nsecs: 297311356
  frame_id: ''
state: 
  voltage_input: 11.5
  temperature_pcb: 0.0
  current_motor: 53.99
  current_input: 5.11
  current_q: 53.62
  speed: 2206.0
  duty_cycle: 0.107
  charge_drawn: 19.0
  charge_regen: 0.0
  energy_drawn: 0.0
  energy_regen: 0.0
  displacement: 1275.0
  distance_traveled: 1769.0
  fault_code: 0
---
header: 
  seq: 25677
  stamp: 
    secs: 1626106768
    nsecs: 317135409
  frame_id: ''
state: 
  voltage_input: 11.5
  temperature_pcb: 0.0
  current_motor: 49.13
  current_input: 4.56
  current_q: 48.86
  speed: 2424.0
  duty_cycle: 0.108
  charge_drawn: 19.0
  charge_regen: 0.0
  energy_drawn: 0.0
  energy_regen: 0.0
  displacement: 1281.0
  distance_traveled: 1775.0
  fault_code: 0
---
header: 
  seq: 25678
  stamp: 
    secs: 1626106768
    nsecs: 337123790
  frame_id: ''
state: 
  voltage_input: 11.6
  temperature_pcb: 0.0
  current_motor: 44.74
  current_input: 4.11
  current_q: 44.58
  speed: 2647.0
  duty_cycle: 0.1
  charge_drawn: 19.0
  charge_regen: 0.0
  energy_drawn: 0.0
  energy_regen: 0.0
  displacement: 1288.0
  distance_traveled: 1782.0
  fault_code: 0
---
header: 
  seq: 25679
  stamp: 
    secs: 1626106768
    nsecs: 356876434
  frame_id: ''
state: 
  voltage_input: 11.6
  temperature_pcb: 0.0
  current_motor: 39.73
  current_input: 3.52
  current_q: 39.39
  speed: 2853.0
  duty_cycle: 0.104
  charge_drawn: 20.0
  charge_regen: 0.0
  energy_drawn: 0.0
  energy_regen: 0.0
  displacement: 1294.0
  distance_traveled: 1788.0
  fault_code: 0
---
header: 
  seq: 25680
  stamp: 
    secs: 1626106768
    nsecs: 377465930
  frame_id: ''
state: 
  voltage_input: 11.5
  temperature_pcb: 0.0
  current_motor: 34.05
  current_input: 2.94
  current_q: 34.02
  speed: 3054.0
  duty_cycle: 0.097
  charge_drawn: 20.0
  charge_regen: 0.0
  energy_drawn: 0.0
  energy_regen: 0.0
  displacement: 1302.0
  distance_traveled: 1796.0
  fault_code: 0
---
header: 
  seq: 25681
  stamp: 
    secs: 1626106768
    nsecs: 397769530
  frame_id: ''
state: 
  voltage_input: 11.5
  temperature_pcb: 0.0
  current_motor: 32.68
  current_input: 2.82
  current_q: 32.22
  speed: 3243.0
  duty_cycle: 0.102
  charge_drawn: 20.0
  charge_regen: 0.0
  energy_drawn: 0.0
  energy_regen: 0.0
  displacement: 1309.0
  distance_traveled: 1803.0
  fault_code: 0
---
header: 
  seq: 25682
  stamp: 
    secs: 1626106768
    nsecs: 416597039
  frame_id: ''
state: 
  voltage_input: 11.4
  temperature_pcb: 0.0
  current_motor: 31.41
  current_input: 2.72
  current_q: 31.58
  speed: 3386.0
  duty_cycle: 0.097
  charge_drawn: 20.0
  charge_regen: 0.0
  energy_drawn: 0.0
  energy_regen: 0.0
  displacement: 1317.0
  distance_traveled: 1811.0
  fault_code: 0
---
header: 
  seq: 25683
  stamp: 
    secs: 1626106768
    nsecs: 436864336
  frame_id: ''
state: 
  voltage_input: 11.6
  temperature_pcb: 0.0
  current_motor: 28.74
  current_input: 2.43
  current_q: 28.39
  speed: 3540.0
  duty_cycle: 0.089
  charge_drawn: 20.0
  charge_regen: 0.0
  energy_drawn: 0.0
  energy_regen: 0.0
  displacement: 1325.0
  distance_traveled: 1819.0
  fault_code: 0
---
header: 
  seq: 25684
  stamp: 
    secs: 1626106768
    nsecs: 456601303
  frame_id: ''
state: 
  voltage_input: 11.5
  temperature_pcb: 0.0
  current_motor: 25.88
  current_input: 2.2
  current_q: 25.98
  speed: 3663.0
  duty_cycle: 0.102
  charge_drawn: 20.0
  charge_regen: 0.0
  energy_drawn: 0.0
  energy_regen: 0.0
  displacement: 1333.0
  distance_traveled: 1827.0
  fault_code: 0
---
header: 
  seq: 25685
  stamp: 
    secs: 1626106768
    nsecs: 477237415
  frame_id: ''
state: 
  voltage_input: 11.5
  temperature_pcb: 0.0
  current_motor: 21.81
  current_input: 1.76
  current_q: 21.04
  speed: 3829.0
  duty_cycle: 0.086
  charge_drawn: 20.0
  charge_regen: 0.0
  energy_drawn: 0.0
  energy_regen: 0.0
  displacement: 1341.0
  distance_traveled: 1835.0
  fault_code: 0
---
header: 
  seq: 25686
  stamp: 
    secs: 1626106768
    nsecs: 497352988
  frame_id: ''
state: 
  voltage_input: 11.5
  temperature_pcb: 0.0
  current_motor: 20.38
  current_input: 1.73
  current_q: 20.88
  speed: 3925.0
  duty_cycle: 0.101
  charge_drawn: 20.0
  charge_regen: 0.0
  energy_drawn: 0.0
  energy_regen: 0.0
  displacement: 1350.0
  distance_traveled: 1844.0
  fault_code: 0
---
header: 
  seq: 25687
  stamp: 
    secs: 1626106768
    nsecs: 518298954
  frame_id: ''
state: 
  voltage_input: 11.6
  temperature_pcb: 0.0
  current_motor: 19.64
  current_input: 1.59
  current_q: 18.88
  speed: 4066.0
  duty_cycle: 0.082
  charge_drawn: 21.0
  charge_regen: 0.0
  energy_drawn: 0.0
  energy_regen: 0.0
  displacement: 1359.0
  distance_traveled: 1853.0
  fault_code: 0
---
header: 
  seq: 25688
  stamp: 
    secs: 1626106768
    nsecs: 537841122
  frame_id: ''
state: 
  voltage_input: 11.6
  temperature_pcb: 0.0
  current_motor: 19.09
  current_input: 1.66
  current_q: 19.83
  speed: 4109.0
  duty_cycle: 0.11
  charge_drawn: 21.0
  charge_regen: 0.0
  energy_drawn: 0.0
  energy_regen: 0.0
  displacement: 1368.0
  distance_traveled: 1862.0
  fault_code: 0
---
header: 
  seq: 25689
  stamp: 
    secs: 1626106768
    nsecs: 557085156
  frame_id: ''
state: 
  voltage_input: 11.5
  temperature_pcb: 0.0
  current_motor: 22.1
  current_input: 2.01
  current_q: 20.94
  speed: 4238.0
  duty_cycle: 0.074
  charge_drawn: 21.0
  charge_regen: 0.0
  energy_drawn: 0.0
  energy_regen: 0.0
  displacement: 1377.0
  distance_traveled: 1871.0
  fault_code: 0
---
header: 
  seq: 25690
  stamp: 
    secs: 1626106768
    nsecs: 576714723
  frame_id: ''
state: 
  voltage_input: 11.5
  temperature_pcb: 0.0
  current_motor: 15.67
  current_input: 1.66
  current_q: 16.73
  speed: 4231.0
  duty_cycle: 0.11
  charge_drawn: 21.0
  charge_regen: 0.0
  energy_drawn: 0.0
  energy_regen: 0.0
  displacement: 1385.0
  distance_traveled: 1879.0
  fault_code: 0
---
header: 
  seq: 25691
  stamp: 
    secs: 1626106768
    nsecs: 597008532
  frame_id: ''
state: 
  voltage_input: 11.5
  temperature_pcb: 0.0
  current_motor: 18.87
  current_input: 1.65
  current_q: 17.14
  speed: 4343.0
  duty_cycle: 0.057
  charge_drawn: 21.0
  charge_regen: 0.0
  energy_drawn: 0.0
  energy_regen: 0.0
  displacement: 1394.0
  distance_traveled: 1888.0
  fault_code: 0
---
header: 
  seq: 25692
  stamp: 
    secs: 1626106768
    nsecs: 616551169
  frame_id: ''
state: 
  voltage_input: 11.5
  temperature_pcb: 0.0
  current_motor: 18.32
  current_input: 1.84
  current_q: 19.46
  speed: 4341.0
  duty_cycle: 0.121
  charge_drawn: 21.0
  charge_regen: 0.0
  energy_drawn: 0.0
  energy_regen: 0.0
  displacement: 1403.0
  distance_traveled: 1897.0
  fault_code: 0
---
header: 
  seq: 25693
  stamp: 
    secs: 1626106768
    nsecs: 636778881
  frame_id: ''
state: 
  voltage_input: 11.6
  temperature_pcb: 0.0
  current_motor: 13.53
  current_input: 1.15
  current_q: 12.4
  speed: 4414.0
  duty_cycle: 0.091
  charge_drawn: 21.0
  charge_regen: 0.0
  energy_drawn: 0.0
  energy_regen: 0.0
  displacement: 1412.0
  distance_traveled: 1906.0
  fault_code: 0
---
header: 
  seq: 25694
  stamp: 
    secs: 1626106768
    nsecs: 656739189
  frame_id: ''
state: 
  voltage_input: 11.5
  temperature_pcb: 0.0
  current_motor: 16.55
  current_input: 1.53
  current_q: 16.26
  speed: 4508.0
  duty_cycle: 0.073
  charge_drawn: 21.0
  charge_regen: 0.0
  energy_drawn: 0.0
  energy_regen: 0.0
  displacement: 1422.0
  distance_traveled: 1916.0
  fault_code: 0
---
header: 
  seq: 25695
  stamp: 
    secs: 1626106768
    nsecs: 676601108
  frame_id: ''
state: 
  voltage_input: 11.5
  temperature_pcb: 0.0
  current_motor: 11.44
  current_input: 1.09
  current_q: 12.02
  speed: 4527.0
  duty_cycle: 0.105
  charge_drawn: 21.0
  charge_regen: 0.0
  energy_drawn: 0.0
  energy_regen: 0.0
  displacement: 1431.0
  distance_traveled: 1925.0
  fault_code: 0
---
header: 
  seq: 25696
  stamp: 
    secs: 1626106768
    nsecs: 696503861
  frame_id: ''
state: 
  voltage_input: 11.6
  temperature_pcb: 0.0
  current_motor: 10.2
  current_input: 0.83
  current_q: 9.24
  speed: 4585.0
  duty_cycle: 0.077
  charge_drawn: 21.0
  charge_regen: 0.0
  energy_drawn: 0.0
  energy_regen: 0.0
  displacement: 1440.0
  distance_traveled: 1934.0
  fault_code: 0
---
header: 
  seq: 25697
  stamp: 
    secs: 1626106768
    nsecs: 717213778
  frame_id: ''
state: 
  voltage_input: 11.6
  temperature_pcb: 0.0
  current_motor: 16.32
  current_input: 1.5
  current_q: 16.07
  speed: 4646.0
  duty_cycle: 0.067
  charge_drawn: 21.0
  charge_regen: 0.0
  energy_drawn: 0.0
  energy_regen: 0.0
  displacement: 1450.0
  distance_traveled: 1944.0
  fault_code: 0
---
header: 
  seq: 25698
  stamp: 
    secs: 1626106768
    nsecs: 737657956
  frame_id: ''
state: 
  voltage_input: 11.5
  temperature_pcb: 0.0
  current_motor: 13.3
  current_input: 1.34
  current_q: 14.11
  speed: 4615.0
  duty_cycle: 0.115
  charge_drawn: 21.0
  charge_regen: 0.0
  energy_drawn: 0.0
  energy_regen: 0.0
  displacement: 1459.0
  distance_traveled: 1953.0
  fault_code: 0
---
header: 
  seq: 25699
  stamp: 
    secs: 1626106768
    nsecs: 756504163
  frame_id: ''
state: 
  voltage_input: 11.5
  temperature_pcb: 0.0
  current_motor: 10.47
  current_input: 0.91
  current_q: 9.63
  speed: 4655.0
  duty_cycle: 0.086
  charge_drawn: 22.0
  charge_regen: 0.0
  energy_drawn: 0.0
  energy_regen: 0.0
  displacement: 1468.0
  distance_traveled: 1962.0
  fault_code: 0
---
header: 
  seq: 25700
  stamp: 
    secs: 1626106768
    nsecs: 778270000
  frame_id: ''
state: 
  voltage_input: 11.5
  temperature_pcb: 0.0
  current_motor: 12.75
  current_input: 1.11
  current_q: 12.27
  speed: 4724.0
  duty_cycle: 0.057
  charge_drawn: 22.0
  charge_regen: 0.0
  energy_drawn: 0.0
  energy_regen: 0.0
  displacement: 1479.0
  distance_traveled: 1973.0
  fault_code: 0
---
header: 
  seq: 25701
  stamp: 
    secs: 1626106768
    nsecs: 796971151
  frame_id: ''
state: 
  voltage_input: 11.5
  temperature_pcb: 0.0
  current_motor: 10.54
  current_input: 0.99
  current_q: 11.04
  speed: 4721.0
  duty_cycle: 0.103
  charge_drawn: 22.0
  charge_regen: 0.0
  energy_drawn: 0.0
  energy_regen: 0.0
  displacement: 1488.0
  distance_traveled: 1982.0
  fault_code: 0
---
header: 
  seq: 25702
  stamp: 
    secs: 1626106768
    nsecs: 816528216
  frame_id: ''
state: 
  voltage_input: 11.6
  temperature_pcb: 0.0
  current_motor: 8.57
  current_input: 0.71
  current_q: 8.21
  speed: 4735.0
  duty_cycle: 0.104
  charge_drawn: 22.0
  charge_regen: 0.0
  energy_drawn: 0.0
  energy_regen: 0.0
  displacement: 1497.0
  distance_traveled: 1991.0
  fault_code: 0
---
header: 
  seq: 25703
  stamp: 
    secs: 1626106768
    nsecs: 837292717
  frame_id: ''
state: 
  voltage_input: 11.5
  temperature_pcb: 0.0
  current_motor: 13.33
  current_input: 1.13
  current_q: 12.47
  speed: 4781.0
  duty_cycle: 0.057
  charge_drawn: 22.0
  charge_regen: 0.0
  energy_drawn: 0.0
  energy_regen: 0.0
  displacement: 1507.0
  distance_traveled: 2001.0
  fault_code: 0
---
header: 
  seq: 25704
  stamp: 
    secs: 1626106768
    nsecs: 857292870
  frame_id: ''
state: 
  voltage_input: 11.5
  temperature_pcb: 0.0
  current_motor: 15.48
  current_input: 1.48
  current_q: 15.77
  speed: 4768.0
  duty_cycle: 0.087
  charge_drawn: 22.0
  charge_regen: 0.0
  energy_drawn: 0.0
  energy_regen: 0.0
  displacement: 1517.0
  distance_traveled: 2011.0
  fault_code: 0
---
header: 
  seq: 25705
  stamp: 
    secs: 1626106768
    nsecs: 877258594
  frame_id: ''
state: 
  voltage_input: 11.5
  temperature_pcb: 0.0
  current_motor: 12.74
  current_input: 1.27
  current_q: 13.09
  speed: 4727.0
  duty_cycle: 0.111
  charge_drawn: 22.0
  charge_regen: 0.0
  energy_drawn: 0.0
  energy_regen: 0.0
  displacement: 1526.0
  distance_traveled: 2020.0
  fault_code: 0
---
header: 
  seq: 25706
  stamp: 
    secs: 1626106768
    nsecs: 898428161
  frame_id: ''
state: 
  voltage_input: 11.6
  temperature_pcb: 0.0
  current_motor: 11.06
  current_input: 1.05
  current_q: 10.88
  speed: 4732.0
  duty_cycle: 0.109
  charge_drawn: 22.0
  charge_regen: 0.0
  energy_drawn: 0.0
  energy_regen: 0.0
  displacement: 1536.0
  distance_traveled: 2030.0
  fault_code: 0
---
header: 
  seq: 25707
  stamp: 
    secs: 1626106768
    nsecs: 916436216
  frame_id: ''
state: 
  voltage_input: 11.6
  temperature_pcb: 0.0
  current_motor: 12.32
  current_input: 1.0
  current_q: 11.02
  speed: 4796.0
  duty_cycle: 0.068
  charge_drawn: 22.0
  charge_regen: 0.0
  energy_drawn: 0.0
  energy_regen: 0.0
  displacement: 1545.0
  distance_traveled: 2039.0
  fault_code: 0
---
header: 
  seq: 25708
  stamp: 
    secs: 1626106768
    nsecs: 936269904
  frame_id: ''
state: 
  voltage_input: 11.5
  temperature_pcb: 0.0
  current_motor: 9.26
  current_input: 0.87
  current_q: 9.95
  speed: 4783.0
  duty_cycle: 0.103
  charge_drawn: 22.0
  charge_regen: 0.0
  energy_drawn: 0.0
  energy_regen: 0.0
  displacement: 1555.0
  distance_traveled: 2049.0
  fault_code: 0
---
header: 
  seq: 25709
  stamp: 
    secs: 1626106768
    nsecs: 956629809
  frame_id: ''
state: 
  voltage_input: 11.6
  temperature_pcb: 0.0
  current_motor: 7.34
  current_input: 0.59
  current_q: 6.69
  speed: 4808.0
  duty_cycle: 0.086
  charge_drawn: 22.0
  charge_regen: 0.0
  energy_drawn: 0.0
  energy_regen: 0.0
  displacement: 1564.0
  distance_traveled: 2058.0
  fault_code: 0
---
header: 
  seq: 25710
  stamp: 
    secs: 1626106768
    nsecs: 977441708
  frame_id: ''
state: 
  voltage_input: 11.5
  temperature_pcb: 0.0
  current_motor: 12.95
  current_input: 1.12
  current_q: 12.61
  speed: 4848.0
  duty_cycle: 0.069
  charge_drawn: 22.0
  charge_regen: 0.0
  energy_drawn: 0.0
  energy_regen: 0.0
  displacement: 1574.0
  distance_traveled: 2068.0
  fault_code: 0
---
header: 
  seq: 25711
  stamp: 
    secs: 1626106768
    nsecs: 996912988
  frame_id: ''
state: 
  voltage_input: 11.6
  temperature_pcb: 0.0
  current_motor: 10.8
  current_input: 1.03
  current_q: 11.38
  speed: 4813.0
  duty_cycle: 0.102
  charge_drawn: 22.0
  charge_regen: 0.0
  energy_drawn: 0.0
  energy_regen: 0.0
  displacement: 1584.0
  distance_traveled: 2078.0
  fault_code: 0
---
header: 
  seq: 25712
  stamp: 
    secs: 1626106769
    nsecs:  16505263
  frame_id: ''
state: 
  voltage_input: 11.5
  temperature_pcb: 0.0
  current_motor: 9.35
  current_input: 0.82
  current_q: 8.69
  speed: 4809.0
  duty_cycle: 0.099
  charge_drawn: 22.0
  charge_regen: 0.0
  energy_drawn: 0.0
  energy_regen: 0.0
  displacement: 1593.0
  distance_traveled: 2087.0
  fault_code: 0
---
header: 
  seq: 25713
  stamp: 
    secs: 1626106769
    nsecs:  37319245
  frame_id: ''
state: 
  voltage_input: 11.6
  temperature_pcb: 0.0
  current_motor: 11.86
  current_input: 1.0
  current_q: 11.25
  speed: 4838.0
  duty_cycle: 0.066
  charge_drawn: 22.0
  charge_regen: 0.0
  energy_drawn: 0.0
  energy_regen: 0.0
  displacement: 1603.0
  distance_traveled: 2097.0
  fault_code: 0
---
header: 
  seq: 25714
  stamp: 
    secs: 1626106769
    nsecs:  57025013
  frame_id: ''
state: 
  voltage_input: 11.5
  temperature_pcb: 0.0
  current_motor: 11.24
  current_input: 1.0
  current_q: 10.88
  speed: 4872.0
  duty_cycle: 0.058
  charge_drawn: 22.0
  charge_regen: 0.0
  energy_drawn: 0.0
  energy_regen: 0.0
  displacement: 1613.0
  distance_traveled: 2107.0
  fault_code: 0
---
header: 
  seq: 25715
  stamp: 
    secs: 1626106769
    nsecs:  77017665
  frame_id: ''
state: 
  voltage_input: 11.6
  temperature_pcb: 0.0
  current_motor: 10.26
  current_input: 1.05
  current_q: 10.68
  speed: 4856.0
  duty_cycle: 0.091
  charge_drawn: 22.0
  charge_regen: 0.0
  energy_drawn: 0.0
  energy_regen: 0.0
  displacement: 1623.0
  distance_traveled: 2117.0
  fault_code: 0
---
header: 
  seq: 25716
  stamp: 
    secs: 1626106769
    nsecs:  97060840
  frame_id: ''
state: 
  voltage_input: 11.6
  temperature_pcb: 0.0
  current_motor: 8.44
  current_input: 0.82
  current_q: 8.48
  speed: 4830.0
  duty_cycle: 0.111
  charge_drawn: 22.0
  charge_regen: 0.0
  energy_drawn: 0.0
  energy_regen: 0.0
  displacement: 1632.0
  distance_traveled: 2126.0
  fault_code: 0
---
header: 
  seq: 25717
  stamp: 
    secs: 1626106769
    nsecs: 116938437
  frame_id: ''
state: 
  voltage_input: 11.5
  temperature_pcb: 0.0
  current_motor: 10.46
  current_input: 0.93
  current_q: 10.1
  speed: 4822.0
  duty_cycle: 0.098
  charge_drawn: 23.0
  charge_regen: 0.0
  energy_drawn: 0.0
  energy_regen: 0.0
  displacement: 1642.0
  distance_traveled: 2136.0
  fault_code: 0
---
header: 
  seq: 25718
  stamp: 
    secs: 1626106769
    nsecs: 137336363
  frame_id: ''
state: 
  voltage_input: 11.5
  temperature_pcb: 0.0
  current_motor: 15.15
  current_input: 1.33
  current_q: 14.34
  speed: 4854.0
  duty_cycle: 0.058
  charge_drawn: 23.0
  charge_regen: 0.0
  energy_drawn: 0.0
  energy_regen: 0.0
  displacement: 1652.0
  distance_traveled: 2146.0
  fault_code: 0
---
header: 
  seq: 25719
  stamp: 
    secs: 1626106769
    nsecs: 158079770
  frame_id: ''
state: 
  voltage_input: 11.5
  temperature_pcb: 0.0
  current_motor: 12.81
  current_input: 1.22
  current_q: 13.25
  speed: 4823.0
  duty_cycle: 0.093
  charge_drawn: 23.0
  charge_regen: 0.0
  energy_drawn: 0.0
  energy_regen: 0.0
  displacement: 1662.0
  distance_traveled: 2156.0
  fault_code: 0
---
header: 
  seq: 25720
  stamp: 
    secs: 1626106769
    nsecs: 176762014
  frame_id: ''
state: 
  voltage_input: 11.6
  temperature_pcb: 0.0
  current_motor: 9.99
  current_input: 0.95
  current_q: 10.34
  speed: 4799.0
  duty_cycle: 0.109
  charge_drawn: 23.0
  charge_regen: 0.0
  energy_drawn: 0.0
  energy_regen: 0.0
  displacement: 1671.0
  distance_traveled: 2165.0
  fault_code: 0
---
header: 
  seq: 25721
  stamp: 
    secs: 1626106769
    nsecs: 196842794
  frame_id: ''
state: 
  voltage_input: 11.5
  temperature_pcb: 0.0
  current_motor: 9.54
  current_input: 0.8
  current_q: 8.32
  speed: 4820.0
  duty_cycle: 0.08
  charge_drawn: 23.0
  charge_regen: 0.0
  energy_drawn: 0.0
  energy_regen: 0.0
  displacement: 1680.0
  distance_traveled: 2174.0
  fault_code: 0
---
header: 
  seq: 25722
  stamp: 
    secs: 1626106769
    nsecs: 216778830
  frame_id: ''
state: 
  voltage_input: 11.5
  temperature_pcb: 0.0
  current_motor: 10.1
  current_input: 0.94
  current_q: 9.62
  speed: 4844.0
  duty_cycle: 0.066
  charge_drawn: 23.0
  charge_regen: 0.0
  energy_drawn: 0.0
  energy_regen: 0.0
  displacement: 1690.0
  distance_traveled: 2184.0
  fault_code: 0
---
header: 
  seq: 25723
  stamp: 
    secs: 1626106769
    nsecs: 236650176
  frame_id: ''
state: 
  voltage_input: 11.6
  temperature_pcb: 0.0
  current_motor: 11.79
  current_input: 1.1
  current_q: 11.94
  speed: 4871.0
  duty_cycle: 0.067
  charge_drawn: 23.0
  charge_regen: 0.0
  energy_drawn: 0.0
  energy_regen: 0.0
  displacement: 1700.0
  distance_traveled: 2194.0
  fault_code: 0
---
header: 
  seq: 25724
  stamp: 
    secs: 1626106769
    nsecs: 256775854
  frame_id: ''
state: 
  voltage_input: 11.5
  temperature_pcb: 0.0
  current_motor: 11.1
  current_input: 1.03
  current_q: 11.47
  speed: 4848.0
  duty_cycle: 0.094
  charge_drawn: 23.0
  charge_regen: 0.0
  energy_drawn: 0.0
  energy_regen: 0.0
  displacement: 1710.0
  distance_traveled: 2204.0
  fault_code: 0
---
header: 
  seq: 25725
  stamp: 
    secs: 1626106769
    nsecs: 277435300
  frame_id: ''
state: 
  voltage_input: 11.6
  temperature_pcb: 0.0
  current_motor: 9.57
  current_input: 0.87
  current_q: 9.63
  speed: 4830.0
  duty_cycle: 0.109
  charge_drawn: 23.0
  charge_regen: 0.0
  energy_drawn: 0.0
  energy_regen: 0.0
  displacement: 1719.0
  distance_traveled: 2213.0
  fault_code: 0
---
header: 
  seq: 25726
  stamp: 
    secs: 1626106769
    nsecs: 297601656
  frame_id: ''
state: 
  voltage_input: 11.6
  temperature_pcb: 0.0
  current_motor: 9.15
  current_input: 0.76
  current_q: 8.51
  speed: 4848.0
  duty_cycle: 0.085
  charge_drawn: 23.0
  charge_regen: 0.0
  energy_drawn: 0.0
  energy_regen: 0.0
  displacement: 1729.0
  distance_traveled: 2223.0
  fault_code: 0
---
header: 
  seq: 25727
  stamp: 
    secs: 1626106769
    nsecs: 317583527
  frame_id: ''
state: 
  voltage_input: 11.5
  temperature_pcb: 0.0
  current_motor: 11.27
  current_input: 0.93
  current_q: 10.32
  speed: 4886.0
  duty_cycle: 0.059
  charge_drawn: 23.0
  charge_regen: 0.0
  energy_drawn: 0.0
  energy_regen: 0.0
  displacement: 1739.0
  distance_traveled: 2233.0
  fault_code: 0
---
header: 
  seq: 25728
  stamp: 
    secs: 1626106769
    nsecs: 337098299
  frame_id: ''
state: 
  voltage_input: 11.5
  temperature_pcb: 0.0
  current_motor: 9.79
  current_input: 0.95
  current_q: 10.33
  speed: 4883.0
  duty_cycle: 0.087
  charge_drawn: 23.0
  charge_regen: 0.0
  energy_drawn: 0.0
  energy_regen: 0.0
  displacement: 1749.0
  distance_traveled: 2243.0
  fault_code: 0
---
header: 
  seq: 25729
  stamp: 
    secs: 1626106769
    nsecs: 358039316
  frame_id: ''
state: 
  voltage_input: 11.6
  temperature_pcb: 0.0
  current_motor: 9.59
  current_input: 0.96
  current_q: 9.64
  speed: 4853.0
  duty_cycle: 0.112
  charge_drawn: 23.0
  charge_regen: 0.0
  energy_drawn: 0.0
  energy_regen: 0.0
  displacement: 1758.0
  distance_traveled: 2252.0
  fault_code: 0
---
header: 
  seq: 25730
  stamp: 
    secs: 1626106769
    nsecs: 377044227
  frame_id: ''
state: 
  voltage_input: 11.6
  temperature_pcb: 0.0
  current_motor: 9.86
  current_input: 0.85
  current_q: 9.43
  speed: 4840.0
  duty_cycle: 0.109
  charge_drawn: 23.0
  charge_regen: 0.0
  energy_drawn: 0.0
  energy_regen: 0.0
  displacement: 1768.0
  distance_traveled: 2262.0
  fault_code: 0
---
header: 
  seq: 25731
  stamp: 
    secs: 1626106769
    nsecs: 397115737
  frame_id: ''
state: 
  voltage_input: 11.5
  temperature_pcb: 0.0
  current_motor: 14.57
  current_input: 1.27
  current_q: 13.52
  speed: 4869.0
  duty_cycle: 0.056
  charge_drawn: 23.0
  charge_regen: 0.0
  energy_drawn: 0.0
  energy_regen: 0.0
  displacement: 1778.0
  distance_traveled: 2272.0
  fault_code: 0
---
header: 
  seq: 25732
  stamp: 
    secs: 1626106769
    nsecs: 417333969
  frame_id: ''
state: 
  voltage_input: 11.5
  temperature_pcb: 0.0
  current_motor: 14.44
  current_input: 1.33
  current_q: 14.72
  speed: 4832.0
  duty_cycle: 0.1
  charge_drawn: 23.0
  charge_regen: 0.0
  energy_drawn: 0.0
  energy_regen: 0.0
  displacement: 1788.0
  distance_traveled: 2282.0
  fault_code: 0
---
header: 
  seq: 25733
  stamp: 
    secs: 1626106769
    nsecs: 438007009
  frame_id: ''
state: 
  voltage_input: 11.5
  temperature_pcb: 0.0
  current_motor: 11.49
  current_input: 1.05
  current_q: 11.46
  speed: 4812.0
  duty_cycle: 0.113
  charge_drawn: 23.0
  charge_regen: 0.0
  energy_drawn: 0.0
  energy_regen: 0.0
  displacement: 1797.0
  distance_traveled: 2291.0
  fault_code: 0
---
header: 
  seq: 25734
  stamp: 
    secs: 1626106769
    nsecs: 458396915
  frame_id: ''
state: 
  voltage_input: 11.5
  temperature_pcb: 0.0
  current_motor: 9.31
  current_input: 0.78
  current_q: 8.42
  speed: 4822.0
  duty_cycle: 0.095
  charge_drawn: 23.0
  charge_regen: 0.0
  energy_drawn: 0.0
  energy_regen: 0.0
  displacement: 1807.0
  distance_traveled: 2301.0
  fault_code: 0
---
header: 
  seq: 25735
  stamp: 
    secs: 1626106769
    nsecs: 477392138
  frame_id: ''
state: 
  voltage_input: 11.6
  temperature_pcb: 0.0
  current_motor: 10.84
  current_input: 0.93
  current_q: 10.14
  speed: 4875.0
  duty_cycle: 0.058
  charge_drawn: 24.0
  charge_regen: 0.0
  energy_drawn: 0.0
  energy_regen: 0.0
  displacement: 1817.0
  distance_traveled: 2311.0
  fault_code: 0
---
header: 
  seq: 25736
  stamp: 
    secs: 1626106769
    nsecs: 497102489
  frame_id: ''
state: 
  voltage_input: 11.5
  temperature_pcb: 0.0
  current_motor: 10.95
  current_input: 1.03
  current_q: 11.05
  speed: 4876.0
  duty_cycle: 0.084
  charge_drawn: 24.0
  charge_regen: 0.0
  energy_drawn: 0.0
  energy_regen: 0.0
  displacement: 1827.0
  distance_traveled: 2321.0
  fault_code: 0
---
header: 
  seq: 25737
  stamp: 
    secs: 1626106769
    nsecs: 516506580
  frame_id: ''
state: 
  voltage_input: 11.5
  temperature_pcb: 0.0
  current_motor: 8.69
  current_input: 0.83
  current_q: 9.3
  speed: 4838.0
  duty_cycle: 0.104
  charge_drawn: 24.0
  charge_regen: 0.0
  energy_drawn: 0.0
  energy_regen: 0.0
  displacement: 1836.0
  distance_traveled: 2330.0
  fault_code: 0
---
header: 
  seq: 25738
  stamp: 
    secs: 1626106769
    nsecs: 536879193
  frame_id: ''
state: 
  voltage_input: 11.6
  temperature_pcb: 0.0
  current_motor: 11.29
  current_input: 0.93
  current_q: 10.26
  speed: 4877.0
  duty_cycle: 0.058
  charge_drawn: 24.0
  charge_regen: 0.0
  energy_drawn: 0.0
  energy_regen: 0.0
  displacement: 1846.0
  distance_traveled: 2340.0
  fault_code: 0
---
header: 
  seq: 25739
  stamp: 
    secs: 1626106769
    nsecs: 556330369
  frame_id: ''
state: 
  voltage_input: 11.5
  temperature_pcb: 0.0
  current_motor: 11.6
  current_input: 1.1
  current_q: 12.1
  speed: 4850.0
  duty_cycle: 0.099
  charge_drawn: 24.0
  charge_regen: 0.0
  energy_drawn: 0.0
  energy_regen: 0.0
  displacement: 1855.0
  distance_traveled: 2349.0
  fault_code: 0
---
header: 
  seq: 25740
  stamp: 
    secs: 1626106769
    nsecs: 576993617
  frame_id: ''
state: 
  voltage_input: 11.6
  temperature_pcb: 0.0
  current_motor: 7.34
  current_input: 0.63
  current_q: 7.27
  speed: 4851.0
  duty_cycle: 0.102
  charge_drawn: 24.0
  charge_regen: 0.0
  energy_drawn: 0.0
  energy_regen: 0.0
  displacement: 1865.0
  distance_traveled: 2359.0
  fault_code: 0
---
header: 
  seq: 25741
  stamp: 
    secs: 1626106769
