header: 
  seq: 143200
  stamp: 
    secs: 1626109118
    nsecs: 776155586
  frame_id: ''
state: 
  voltage_input: 11.4
  temperature_pcb: 0.0
  current_motor: 0.0
  current_input: 0.0
  current_q: 0.0
  speed: 1.0
  duty_cycle: 0.0
  charge_drawn: 219.0
  charge_regen: 0.0
  energy_drawn: 0.0
  energy_regen: 0.0
  displacement: 2529.0
  distance_traveled: 20319.0
  fault_code: 0
---
header: 
  seq: 143201
  stamp: 
    secs: 1626109118
    nsecs: 795874990
  frame_id: ''
state: 
  voltage_input: 11.5
  temperature_pcb: 0.0
  current_motor: 0.0
  current_input: 0.0
  current_q: 0.0
  speed: 0.0
  duty_cycle: 0.0
  charge_drawn: 219.0
  charge_regen: 0.0
  energy_drawn: 0.0
  energy_regen: 0.0
  displacement: 2529.0
  distance_traveled: 20319.0
  fault_code: 0
---
header: 
  seq: 143202
  stamp: 
    secs: 1626109118
    nsecs: 815886575
  frame_id: ''
state: 
  voltage_input: 11.4
  temperature_pcb: 0.0
  current_motor: 0.0
  current_input: 0.0
  current_q: 0.0
  speed: 0.0
  duty_cycle: 0.0
  charge_drawn: 219.0
  charge_regen: 0.0
  energy_drawn: 0.0
  energy_regen: 0.0
  displacement: 2529.0
  distance_traveled: 20319.0
  fault_code: 0
---
header: 
  seq: 143203
  stamp: 
    secs: 1626109118
    nsecs: 836169403
  frame_id: ''
state: 
  voltage_input: 11.5
  temperature_pcb: 0.0
  current_motor: 0.0
  current_input: 0.0
  current_q: 0.0
  speed: 0.0
  duty_cycle: 0.0
  charge_drawn: 219.0
  charge_regen: 0.0
  energy_drawn: 0.0
  energy_regen: 0.0
  displacement: 2529.0
  distance_traveled: 20319.0
  fault_code: 0
---
header: 
  seq: 143204
  stamp: 
    secs: 1626109118
    nsecs: 855828445
  frame_id: ''
state: 
  voltage_input: 11.5
  temperature_pcb: 0.0
  current_motor: 0.0
  current_input: 0.0
  current_q: 0.0
  speed: -1.0
  duty_cycle: 0.0
  charge_drawn: 219.0
  charge_regen: 0.0
  energy_drawn: 0.0
  energy_regen: 0.0
  displacement: 2529.0
  distance_traveled: 20319.0
  fault_code: 0
---
header: 
  seq: 143205
  stamp: 
    secs: 1626109118
    nsecs: 875925705
  frame_id: ''
state: 
  voltage_input: 11.5
  temperature_pcb: 0.0
  current_motor: 0.0
  current_input: 0.0
  current_q: 0.0
  speed: 0.0
  duty_cycle: 0.0
  charge_drawn: 219.0
  charge_regen: 0.0
  energy_drawn: 0.0
  energy_regen: 0.0
  displacement: 2529.0
  distance_traveled: 20319.0
  fault_code: 0
---
header: 
  seq: 143206
  stamp: 
    secs: 1626109118
    nsecs: 895861875
  frame_id: ''
state: 
  voltage_input: 11.4
  temperature_pcb: 0.0
  current_motor: 0.0
  current_input: 0.0
  current_q: 0.0
  speed: -1.0
  duty_cycle: 0.0
  charge_drawn: 219.0
  charge_regen: 0.0
  energy_drawn: 0.0
  energy_regen: 0.0
  displacement: 2529.0
  distance_traveled: 20319.0
  fault_code: 0
---
header: 
  seq: 143207
  stamp: 
    secs: 1626109118
    nsecs: 915939239
  frame_id: ''
state: 
  voltage_input: 11.4
  temperature_pcb: 0.0
  current_motor: 0.0
  current_input: 0.0
  current_q: 0.0
  speed: -1.0
  duty_cycle: 0.0
  charge_drawn: 219.0
  charge_regen: 0.0
  energy_drawn: 0.0
  energy_regen: 0.0
  displacement: 2529.0
  distance_traveled: 20319.0
  fault_code: 0
---
header: 
  seq: 143208
  stamp: 
    secs: 1626109118
    nsecs: 935856868
  frame_id: ''
state: 
  voltage_input: 11.4
  temperature_pcb: 0.0
  current_motor: 0.0
  current_input: 0.0
  current_q: 0.0
  speed: -2.0
  duty_cycle: 0.0
  charge_drawn: 219.0
  charge_regen: 0.0
  energy_drawn: 0.0
  energy_regen: 0.0
  displacement: 2529.0
  distance_traveled: 20319.0
  fault_code: 0
---
header: 
  seq: 143209
  stamp: 
    secs: 1626109118
    nsecs: 955993606
  frame_id: ''
state: 
  voltage_input: 11.4
  temperature_pcb: 0.0
  current_motor: 0.0
  current_input: 0.0
  current_q: 0.0
  speed: -1.0
  duty_cycle: 0.0
  charge_drawn: 219.0
  charge_regen: 0.0
  energy_drawn: 0.0
  energy_regen: 0.0
  displacement: 2529.0
  distance_traveled: 20319.0
  fault_code: 0
---
header: 
  seq: 143210
  stamp: 
    secs: 1626109118
    nsecs: 976436638
  frame_id: ''
state: 
  voltage_input: 11.4
  temperature_pcb: 0.0
  current_motor: 0.0
  current_input: 0.0
  current_q: 0.0
  speed: -1.0
  duty_cycle: 0.0
  charge_drawn: 219.0
  charge_regen: 0.0
  energy_drawn: 0.0
  energy_regen: 0.0
  displacement: 2529.0
  distance_traveled: 20319.0
  fault_code: 0
---
header: 
  seq: 143211
  stamp: 
    secs: 1626109118
    nsecs: 995979641
  frame_id: ''
state: 
  voltage_input: 11.5
  temperature_pcb: 0.0
  current_motor: 0.0
  current_input: 0.0
  current_q: 0.0
  speed: 0.0
  duty_cycle: 0.0
  charge_drawn: 219.0
  charge_regen: 0.0
  energy_drawn: 0.0
  energy_regen: 0.0
  displacement: 2529.0
  distance_traveled: 20319.0
  fault_code: 0
---
header: 
  seq: 143212
  stamp: 
    secs: 1626109119
    nsecs:  15961122
  frame_id: ''
state: 
  voltage_input: 11.4
  temperature_pcb: 0.0
  current_motor: 0.0
  current_input: 0.0
  current_q: 0.0
  speed: 0.0
  duty_cycle: 0.0
  charge_drawn: 219.0
  charge_regen: 0.0
  energy_drawn: 0.0
  energy_regen: 0.0
  displacement: 2529.0
  distance_traveled: 20319.0
  fault_code: 0
---
header: 
  seq: 143213
  stamp: 
    secs: 1626109119
    nsecs:  35904219
  frame_id: ''
state: 
  voltage_input: 11.5
  temperature_pcb: 0.0
  current_motor: 0.0
  current_input: 0.0
  current_q: 0.0
  speed: 1.0
  duty_cycle: 0.0
  charge_drawn: 219.0
  charge_regen: 0.0
  energy_drawn: 0.0
  energy_regen: 0.0
  displacement: 2529.0
  distance_traveled: 20319.0
  fault_code: 0
---
header: 
  seq: 143214
  stamp: 
    secs: 1626109119
    nsecs:  55834035
  frame_id: ''
state: 
  voltage_input: 11.4
  temperature_pcb: 0.0
  current_motor: 0.0
  current_input: 0.0
  current_q: 0.0
  speed: 1.0
  duty_cycle: 0.0
  charge_drawn: 219.0
  charge_regen: 0.0
  energy_drawn: 0.0
  energy_regen: 0.0
  displacement: 2529.0
  distance_traveled: 20319.0
  fault_code: 0
---
header: 
  seq: 143215
  stamp: 
    secs: 1626109119
    nsecs:  75867702
  frame_id: ''
state: 
  voltage_input: 11.4
  temperature_pcb: 0.0
  current_motor: 0.0
  current_input: 0.0
  current_q: 0.0
  speed: 0.0
  duty_cycle: 0.0
  charge_drawn: 219.0
  charge_regen: 0.0
  energy_drawn: 0.0
  energy_regen: 0.0
  displacement: 2529.0
  distance_traveled: 20319.0
  fault_code: 0
---
header: 
  seq: 143216
  stamp: 
    secs: 1626109119
    nsecs:  95881422
  frame_id: ''
state: 
  voltage_input: 11.5
  temperature_pcb: 0.0
  current_motor: 0.0
  current_input: 0.0
  current_q: 0.0
  speed: 1.0
  duty_cycle: 0.0
  charge_drawn: 219.0
  charge_regen: 0.0
  energy_drawn: 0.0
  energy_regen: 0.0
  displacement: 2529.0
  distance_traveled: 20319.0
  fault_code: 0
---
header: 
  seq: 143217
  stamp: 
    secs: 1626109119
    nsecs: 115835664
  frame_id: ''
state: 
  voltage_input: 11.4
  temperature_pcb: 0.0
  current_motor: 0.0
  current_input: 0.0
  current_q: 0.0
  speed: 1.0
  duty_cycle: 0.0
  charge_drawn: 219.0
  charge_regen: 0.0
  energy_drawn: 0.0
  energy_regen: 0.0
  displacement: 2529.0
  distance_traveled: 20319.0
  fault_code: 0
---
header: 
  seq: 143218
  stamp: 
    secs: 1626109119
    nsecs: 135878029
  frame_id: ''
state: 
  voltage_input: 11.5
  temperature_pcb: 0.0
  current_motor: 0.0
  current_input: 0.0
  current_q: 0.0
  speed: 2.0
  duty_cycle: 0.0
  charge_drawn: 219.0
  charge_regen: 0.0
  energy_drawn: 0.0
  energy_regen: 0.0
  displacement: 2529.0
  distance_traveled: 20319.0
  fault_code: 0
---
header: 
  seq: 143219
  stamp: 
    secs: 1626109119
    nsecs: 155934144
  frame_id: ''
state: 
  voltage_input: 11.4
  temperature_pcb: 0.0
  current_motor: 0.0
  current_input: 0.0
  current_q: 0.0
  speed: 1.0
  duty_cycle: 0.0
  charge_drawn: 219.0
  charge_regen: 0.0
  energy_drawn: 0.0
  energy_regen: 0.0
  displacement: 2529.0
  distance_traveled: 20319.0
  fault_code: 0
---
header: 
  seq: 143220
  stamp: 
    secs: 1626109119
    nsecs: 176230461
  frame_id: ''
state: 
  voltage_input: 11.4
  temperature_pcb: 0.0
  current_motor: 0.0
  current_input: 0.0
  current_q: 0.0
  speed: -1.0
  duty_cycle: 0.0
  charge_drawn: 219.0
  charge_regen: 0.0
  energy_drawn: 0.0
  energy_regen: 0.0
  displacement: 2529.0
  distance_traveled: 20319.0
  fault_code: 0
---
header: 
  seq: 143221
  stamp: 
    secs: 1626109119
    nsecs: 195887002
  frame_id: ''
state: 
  voltage_input: 11.5
  temperature_pcb: 0.0
  current_motor: 0.0
  current_input: 0.0
  current_q: 0.0
  speed: -1.0
  duty_cycle: 0.0
  charge_drawn: 219.0
  charge_regen: 0.0
  energy_drawn: 0.0
  energy_regen: 0.0
  displacement: 2529.0
  distance_traveled: 20319.0
  fault_code: 0
---
header: 
  seq: 143222
  stamp: 
    secs: 1626109119
    nsecs: 215909784
  frame_id: ''
state: 
  voltage_input: 11.5
  temperature_pcb: 0.0
  current_motor: 0.0
  current_input: 0.0
  current_q: 0.0
  speed: -1.0
  duty_cycle: 0.0
  charge_drawn: 219.0
  charge_regen: 0.0
  energy_drawn: 0.0
  energy_regen: 0.0
  displacement: 2529.0
  distance_traveled: 20319.0
  fault_code: 0
---
header: 
  seq: 143223
  stamp: 
    secs: 1626109119
    nsecs: 235930327
  frame_id: ''
state: 
  voltage_input: 11.4
  temperature_pcb: 0.0
  current_motor: 0.0
  current_input: 0.0
  current_q: 0.0
  speed: -1.0
  duty_cycle: 0.0
  charge_drawn: 219.0
  charge_regen: 0.0
  energy_drawn: 0.0
  energy_regen: 0.0
  displacement: 2529.0
  distance_traveled: 20319.0
  fault_code: 0
---
header: 
  seq: 143224
  stamp: 
    secs: 1626109119
    nsecs: 255808008
  frame_id: ''
state: 
  voltage_input: 11.4
  temperature_pcb: 0.0
  current_motor: 0.0
  current_input: 0.0
  current_q: 0.0
  speed: -1.0
  duty_cycle: 0.0
  charge_drawn: 219.0
  charge_regen: 0.0
  energy_drawn: 0.0
  energy_regen: 0.0
  displacement: 2529.0
  distance_traveled: 20319.0
  fault_code: 0
---
header: 
  seq: 143225
  stamp: 
    secs: 1626109119
    nsecs: 275899330
  frame_id: ''
state: 
  voltage_input: 11.4
  temperature_pcb: 0.0
  current_motor: 0.0
  current_input: 0.0
  current_q: 0.0
  speed: -1.0
  duty_cycle: 0.0
  charge_drawn: 219.0
  charge_regen: 0.0
  energy_drawn: 0.0
  energy_regen: 0.0
  displacement: 2529.0
  distance_traveled: 20319.0
  fault_code: 0
---
header: 
  seq: 143226
  stamp: 
    secs: 1626109119
    nsecs: 296114139
  frame_id: ''
state: 
  voltage_input: 11.4
  temperature_pcb: 0.0
  current_motor: 0.0
  current_input: 0.0
  current_q: 0.0
  speed: 0.0
  duty_cycle: 0.0
  charge_drawn: 219.0
  charge_regen: 0.0
  energy_drawn: 0.0
  energy_regen: 0.0
  displacement: 2529.0
  distance_traveled: 20319.0
  fault_code: 0
---
header: 
  seq: 143227
  stamp: 
    secs: 1626109119
    nsecs: 315892708
  frame_id: ''
state: 
  voltage_input: 11.4
  temperature_pcb: 0.0
  current_motor: 0.0
  current_input: 0.0
  current_q: 0.0
  speed: 0.0
  duty_cycle: 0.0
  charge_drawn: 219.0
  charge_regen: 0.0
  energy_drawn: 0.0
  energy_regen: 0.0
  displacement: 2529.0
  distance_traveled: 20319.0
  fault_code: 0
---
header: 
  seq: 143228
  stamp: 
    secs: 1626109119
    nsecs: 335912157
  frame_id: ''
state: 
  voltage_input: 11.4
  temperature_pcb: 0.0
  current_motor: 0.0
  current_input: 0.0
  current_q: 0.0
  speed: 0.0
  duty_cycle: 0.0
  charge_drawn: 219.0
  charge_regen: 0.0
  energy_drawn: 0.0
  energy_regen: 0.0
  displacement: 2529.0
  distance_traveled: 20319.0
  fault_code: 0
---
header: 
  seq: 143229
  stamp: 
    secs: 1626109119
    nsecs: 355856296
  frame_id: ''
state: 
  voltage_input: 11.4
  temperature_pcb: 0.0
  current_motor: 0.0
  current_input: 0.0
  current_q: 0.0
  speed: 0.0
  duty_cycle: 0.0
  charge_drawn: 219.0
  charge_regen: 0.0
  energy_drawn: 0.0
  energy_regen: 0.0
  displacement: 2529.0
  distance_traveled: 20319.0
  fault_code: 0
---
header: 
  seq: 143230
  stamp: 
    secs: 1626109119
    nsecs: 375916264
  frame_id: ''
state: 
  voltage_input: 11.4
  temperature_pcb: 0.0
  current_motor: 0.0
  current_input: 0.0
  current_q: 0.0
  speed: 0.0
  duty_cycle: 0.0
  charge_drawn: 219.0
  charge_regen: 0.0
  energy_drawn: 0.0
  energy_regen: 0.0
  displacement: 2529.0
  distance_traveled: 20319.0
  fault_code: 0
---
header: 
  seq: 143231
  stamp: 
    secs: 1626109119
    nsecs: 395896339
  frame_id: ''
state: 
  voltage_input: 11.5
  temperature_pcb: 0.0
  current_motor: 0.0
  current_input: 0.0
  current_q: 0.0
  speed: 0.0
  duty_cycle: 0.0
  charge_drawn: 219.0
  charge_regen: 0.0
  energy_drawn: 0.0
  energy_regen: 0.0
  displacement: 2529.0
  distance_traveled: 20319.0
  fault_code: 0
---
header: 
  seq: 143232
  stamp: 
    secs: 1626109119
    nsecs: 415848029
  frame_id: ''
state: 
  voltage_input: 11.4
  temperature_pcb: 0.0
  current_motor: 0.0
  current_input: 0.0
  current_q: 0.0
  speed: 0.0
  duty_cycle: 0.0
  charge_drawn: 219.0
  charge_regen: 0.0
  energy_drawn: 0.0
  energy_regen: 0.0
  displacement: 2529.0
  distance_traveled: 20319.0
  fault_code: 0
---
header: 
  seq: 143233
  stamp: 
    secs: 1626109119
    nsecs: 436203303
  frame_id: ''
state: 
  voltage_input: 11.4
  temperature_pcb: 0.0
  current_motor: 0.0
  current_input: 0.0
  current_q: 0.0
  speed: -1.0
  duty_cycle: 0.0
  charge_drawn: 219.0
  charge_regen: 0.0
  energy_drawn: 0.0
  energy_regen: 0.0
  displacement: 2529.0
  distance_traveled: 20319.0
  fault_code: 0
---
header: 
  seq: 143234
  stamp: 
    secs: 1626109119
    nsecs: 455843751
  frame_id: ''
state: 
  voltage_input: 11.5
  temperature_pcb: 0.0
  current_motor: 0.0
  current_input: 0.0
  current_q: 0.0
  speed: 0.0
  duty_cycle: 0.0
  charge_drawn: 219.0
  charge_regen: 0.0
  energy_drawn: 0.0
  energy_regen: 0.0
  displacement: 2529.0
  distance_traveled: 20319.0
  fault_code: 0
---
header: 
  seq: 143235
  stamp: 
    secs: 1626109119
    nsecs: 475810441
  frame_id: ''
state: 
  voltage_input: 11.4
  temperature_pcb: 0.0
  current_motor: 0.0
  current_input: 0.0
  current_q: 0.0
  speed: 0.0
  duty_cycle: 0.0
  charge_drawn: 219.0
  charge_regen: 0.0
  energy_drawn: 0.0
  energy_regen: 0.0
  displacement: 2529.0
  distance_traveled: 20319.0
  fault_code: 0
---
header: 
  seq: 143236
  stamp: 
    secs: 1626109119
    nsecs: 496013479
  frame_id: ''
state: 
  voltage_input: 11.4
  temperature_pcb: 0.0
  current_motor: 0.0
  current_input: 0.0
  current_q: 0.0
  speed: 0.0
  duty_cycle: 0.0
  charge_drawn: 219.0
  charge_regen: 0.0
  energy_drawn: 0.0
  energy_regen: 0.0
  displacement: 2529.0
  distance_traveled: 20319.0
  fault_code: 0
---
header: 
  seq: 143237
  stamp: 
    secs: 1626109119
    nsecs: 515868349
  frame_id: ''
state: 
  voltage_input: 11.4
  temperature_pcb: 0.0
  current_motor: 0.0
  current_input: 0.0
  current_q: 0.0
  speed: 0.0
  duty_cycle: 0.0
  charge_drawn: 219.0
  charge_regen: 0.0
  energy_drawn: 0.0
  energy_regen: 0.0
  displacement: 2529.0
  distance_traveled: 20319.0
  fault_code: 0
---
header: 
  seq: 143238
  stamp: 
    secs: 1626109119
    nsecs: 535887954
  frame_id: ''
state: 
  voltage_input: 11.4
  temperature_pcb: 0.0
  current_motor: 0.0
  current_input: 0.0
  current_q: 0.0
  speed: 0.0
  duty_cycle: 0.0
  charge_drawn: 219.0
  charge_regen: 0.0
  energy_drawn: 0.0
  energy_regen: 0.0
  displacement: 2529.0
  distance_traveled: 20319.0
  fault_code: 0
---
header: 
  seq: 143239
  stamp: 
    secs: 1626109119
    nsecs: 555941100
  frame_id: ''
state: 
  voltage_input: 11.4
  temperature_pcb: 0.0
  current_motor: 0.0
  current_input: 0.0
  current_q: 0.0
  speed: 0.0
  duty_cycle: 0.0
  charge_drawn: 219.0
  charge_regen: 0.0
  energy_drawn: 0.0
  energy_regen: 0.0
  displacement: 2529.0
  distance_traveled: 20319.0
  fault_code: 0
---
header: 
  seq: 143240
  stamp: 
    secs: 1626109119
    nsecs: 577660975
  frame_id: ''
state: 
  voltage_input: 11.4
  temperature_pcb: 0.0
  current_motor: 0.0
  current_input: 0.0
  current_q: 0.0
  speed: 0.0
  duty_cycle: 0.0
  charge_drawn: 219.0
  charge_regen: 0.0
  energy_drawn: 0.0
  energy_regen: 0.0
  displacement: 2529.0
  distance_traveled: 20319.0
  fault_code: 0
---
header: 
  seq: 143241
  stamp: 
    secs: 1626109119
    nsecs: 596160878
  frame_id: ''
state: 
  voltage_input: 11.4
  temperature_pcb: 0.0
  current_motor: 0.0
  current_input: 0.0
  current_q: 0.0
  speed: 0.0
  duty_cycle: 0.0
  charge_drawn: 219.0
  charge_regen: 0.0
  energy_drawn: 0.0
  energy_regen: 0.0
  displacement: 2529.0
  distance_traveled: 20319.0
  fault_code: 0
---
header: 
  seq: 143242
  stamp: 
    secs: 1626109119
    nsecs: 615873199
  frame_id: ''
state: 
  voltage_input: 11.4
  temperature_pcb: 0.0
  current_motor: 0.0
  current_input: 0.0
  current_q: 0.0
  speed: -1.0
  duty_cycle: 0.0
  charge_drawn: 219.0
  charge_regen: 0.0
  energy_drawn: 0.0
  energy_regen: 0.0
  displacement: 2529.0
  distance_traveled: 20319.0
  fault_code: 0
---
header: 
  seq: 143243
  stamp: 
    secs: 1626109119
    nsecs: 637221313
  frame_id: ''
state: 
  voltage_input: 11.4
  temperature_pcb: 0.0
  current_motor: 0.0
  current_input: 0.0
  current_q: 0.0
  speed: 1.0
  duty_cycle: 0.0
  charge_drawn: 219.0
  charge_regen: 0.0
  energy_drawn: 0.0
  energy_regen: 0.0
  displacement: 2529.0
  distance_traveled: 20319.0
  fault_code: 0
---
header: 
  seq: 143244
  stamp: 
    secs: 1626109119
    nsecs: 655866317
  frame_id: ''
state: 
  voltage_input: 11.4
  temperature_pcb: 0.0
  current_motor: 0.0
  current_input: 0.0
  current_q: 0.0
  speed: 1.0
  duty_cycle: 0.0
  charge_drawn: 219.0
  charge_regen: 0.0
  energy_drawn: 0.0
  energy_regen: 0.0
  displacement: 2529.0
  distance_traveled: 20319.0
  fault_code: 0
---
header: 
  seq: 143245
  stamp: 
    secs: 1626109119
    nsecs: 675880818
  frame_id: ''
state: 
  voltage_input: 11.5
  temperature_pcb: 0.0
  current_motor: 0.0
  current_input: 0.0
  current_q: 0.0
  speed: 0.0
  duty_cycle: 0.0
  charge_drawn: 219.0
  charge_regen: 0.0
  energy_drawn: 0.0
  energy_regen: 0.0
  displacement: 2529.0
  distance_traveled: 20319.0
  fault_code: 0
---
header: 
  seq: 143246
  stamp: 
    secs: 1626109119
    nsecs: 695936829
  frame_id: ''
state: 
  voltage_input: 11.4
  temperature_pcb: 0.0
  current_motor: 0.0
  current_input: 0.0
  current_q: 0.0
  speed: 1.0
  duty_cycle: 0.0
  charge_drawn: 219.0
  charge_regen: 0.0
  energy_drawn: 0.0
  energy_regen: 0.0
  displacement: 2529.0
  distance_traveled: 20319.0
  fault_code: 0
---
header: 
  seq: 143247
  stamp: 
    secs: 1626109119
    nsecs: 716501837
  frame_id: ''
state: 
  voltage_input: 11.5
  temperature_pcb: 0.0
  current_motor: 0.0
  current_input: 0.0
  current_q: 0.0
  speed: 2.0
  duty_cycle: 0.0
  charge_drawn: 219.0
  charge_regen: 0.0
  energy_drawn: 0.0
  energy_regen: 0.0
  displacement: 2529.0
  distance_traveled: 20319.0
  fault_code: 0
---
header: 
  seq: 143248
  stamp: 
    secs: 1626109119
    nsecs: 735861823
  frame_id: ''
state: 
  voltage_input: 11.4
  temperature_pcb: 0.0
  current_motor: 0.0
  current_input: 0.0
  current_q: 0.0
  speed: 1.0
  duty_cycle: 0.0
  charge_drawn: 219.0
  charge_regen: 0.0
  energy_drawn: 0.0
  energy_regen: 0.0
  displacement: 2529.0
  distance_traveled: 20319.0
  fault_code: 0
---
header: 
  seq: 143249
  stamp: 
    secs: 1626109119
    nsecs: 756186577
  frame_id: ''
state: 
  voltage_input: 11.4
  temperature_pcb: 0.0
  current_motor: 0.0
  current_input: 0.0
  current_q: 0.0
  speed: 4.0
  duty_cycle: 0.0
  charge_drawn: 219.0
  charge_regen: 0.0
  energy_drawn: 0.0
  energy_regen: 0.0
  displacement: 2529.0
  distance_traveled: 20319.0
  fault_code: 0
---
header: 
  seq: 143250
  stamp: 
    secs: 1626109119
    nsecs: 775857441
  frame_id: ''
state: 
  voltage_input: 11.4
  temperature_pcb: 0.0
  current_motor: 0.0
  current_input: 0.0
  current_q: 0.0
  speed: 4.0
  duty_cycle: 0.0
  charge_drawn: 219.0
  charge_regen: 0.0
  energy_drawn: 0.0
  energy_regen: 0.0
  displacement: 2529.0
  distance_traveled: 20319.0
  fault_code: 0
---
header: 
  seq: 143251
  stamp: 
    secs: 1626109119
    nsecs: 796399845
  frame_id: ''
state: 
  voltage_input: 11.4
  temperature_pcb: 0.0
  current_motor: 0.0
  current_input: 0.0
  current_q: 0.0
  speed: 1.0
  duty_cycle: 0.0
  charge_drawn: 219.0
  charge_regen: 0.0
  energy_drawn: 0.0
  energy_regen: 0.0
  displacement: 2529.0
  distance_traveled: 20319.0
  fault_code: 0
---
header: 
  seq: 143252
  stamp: 
    secs: 1626109119
    nsecs: 816087219
  frame_id: ''
state: 
  voltage_input: 11.5
  temperature_pcb: 0.0
  current_motor: 0.0
  current_input: 0.0
  current_q: 0.0
  speed: 0.0
  duty_cycle: 0.0
  charge_drawn: 219.0
  charge_regen: 0.0
  energy_drawn: 0.0
  energy_regen: 0.0
  displacement: 2529.0
  distance_traveled: 20319.0
  fault_code: 0
---
header: 
  seq: 143253
  stamp: 
    secs: 1626109119
    nsecs: 836620301
  frame_id: ''
state: 
  voltage_input: 11.5
  temperature_pcb: 0.0
  current_motor: 0.0
  current_input: 0.0
  current_q: 0.0
  speed: 0.0
  duty_cycle: 0.0
  charge_drawn: 219.0
  charge_regen: 0.0
  energy_drawn: 0.0
  energy_regen: 0.0
  displacement: 2529.0
  distance_traveled: 20319.0
  fault_code: 0
---
header: 
  seq: 143254
  stamp: 
    secs: 1626109119
    nsecs: 856673603
  frame_id: ''
state: 
  voltage_input: 11.4
  temperature_pcb: 0.0
  current_motor: 0.0
  current_input: 0.0
  current_q: 0.0
  speed: 1.0
  duty_cycle: 0.0
  charge_drawn: 219.0
  charge_regen: 0.0
  energy_drawn: 0.0
  energy_regen: 0.0
  displacement: 2529.0
  distance_traveled: 20319.0
  fault_code: 0
---
header: 
  seq: 143255
  stamp: 
    secs: 1626109119
    nsecs: 875886822
  frame_id: ''
state: 
  voltage_input: 11.5
  temperature_pcb: 0.0
  current_motor: 0.0
  current_input: 0.0
  current_q: 0.0
  speed: 1.0
  duty_cycle: 0.0
  charge_drawn: 219.0
  charge_regen: 0.0
  energy_drawn: 0.0
  energy_regen: 0.0
  displacement: 2529.0
  distance_traveled: 20319.0
  fault_code: 0
---
header: 
  seq: 143256
  stamp: 
    secs: 1626109119
    nsecs: 895995071
  frame_id: ''
state: 
  voltage_input: 11.4
  temperature_pcb: 0.0
  current_motor: 0.0
  current_input: 0.0
  current_q: 0.0
  speed: 0.0
  duty_cycle: 0.0
  charge_drawn: 219.0
  charge_regen: 0.0
  energy_drawn: 0.0
  energy_regen: 0.0
  displacement: 2529.0
  distance_traveled: 20319.0
  fault_code: 0
---
header: 
  seq: 143257
  stamp: 
    secs: 1626109119
    nsecs: 915894002
  frame_id: ''
state: 
  voltage_input: 11.5
  temperature_pcb: 0.0
  current_motor: 0.0
  current_input: 0.0
  current_q: 0.0
  speed: -1.0
  duty_cycle: 0.0
  charge_drawn: 219.0
  charge_regen: 0.0
  energy_drawn: 0.0
  energy_regen: 0.0
  displacement: 2529.0
  distance_traveled: 20319.0
  fault_code: 0
---
header: 
  seq: 143258
  stamp: 
    secs: 1626109119
    nsecs: 936057666
  frame_id: ''
state: 
  voltage_input: 11.5
  temperature_pcb: 0.0
  current_motor: 0.0
  current_input: 0.0
  current_q: 0.0
  speed: 1.0
  duty_cycle: 0.0
  charge_drawn: 219.0
  charge_regen: 0.0
  energy_drawn: 0.0
  energy_regen: 0.0
  displacement: 2529.0
  distance_traveled: 20319.0
  fault_code: 0
---
header: 
  seq: 143259
  stamp: 
    secs: 1626109119
    nsecs: 957527756
  frame_id: ''
state: 
  voltage_input: 11.5
  temperature_pcb: 0.0
  current_motor: 0.0
  current_input: 0.0
  current_q: 0.0
  speed: 0.0
  duty_cycle: 0.0
  charge_drawn: 219.0
  charge_regen: 0.0
  energy_drawn: 0.0
  energy_regen: 0.0
  displacement: 2529.0
  distance_traveled: 20319.0
  fault_code: 0
---
header: 
  seq: 143260
  stamp: 
    secs: 1626109119
    nsecs: 975986462
  frame_id: ''
state: 
  voltage_input: 11.5
  temperature_pcb: 0.0
  current_motor: 0.0
  current_input: 0.0
  current_q: 0.0
  speed: 0.0
  duty_cycle: 0.0
  charge_drawn: 219.0
  charge_regen: 0.0
  energy_drawn: 0.0
  energy_regen: 0.0
  displacement: 2529.0
  distance_traveled: 20319.0
  fault_code: 0
---
header: 
  seq: 143261
  stamp: 
    secs: 1626109119
    nsecs: 997088645
  frame_id: ''
state: 
  voltage_input: 11.5
  temperature_pcb: 0.0
  current_motor: 0.0
  current_input: 0.0
  current_q: 0.0
  speed: 0.0
  duty_cycle: 0.0
  charge_drawn: 219.0
  charge_regen: 0.0
  energy_drawn: 0.0
  energy_regen: 0.0
  displacement: 2529.0
  distance_traveled: 20319.0
  fault_code: 0
---
header: 
  seq: 143262
  stamp: 
    secs: 1626109120
    nsecs:  16032339
  frame_id: ''
state: 
  voltage_input: 11.4
  temperature_pcb: 0.0
  current_motor: 0.0
  current_input: 0.0
  current_q: 0.0
  speed: 0.0
  duty_cycle: 0.0
  charge_drawn: 219.0
  charge_regen: 0.0
  energy_drawn: 0.0
  energy_regen: 0.0
  displacement: 2529.0
  distance_traveled: 20319.0
  fault_code: 0
---
header: 
  seq: 143263
  stamp: 
    secs: 1626109120
    nsecs:  38404385
  frame_id: ''
state: 
  voltage_input: 11.5
  temperature_pcb: 0.0
  current_motor: 0.0
  current_input: 0.0
  current_q: 0.0
  speed: 0.0
  duty_cycle: -0.001
  charge_drawn: 219.0
  charge_regen: 0.0
  energy_drawn: 0.0
  energy_regen: 0.0
  displacement: 2529.0
  distance_traveled: 20319.0
  fault_code: 0
---
header: 
  seq: 143264
  stamp: 
    secs: 1626109120
    nsecs:  56435550
  frame_id: ''
state: 
  voltage_input: 11.4
  temperature_pcb: 0.0
  current_motor: 0.0
  current_input: 0.0
  current_q: 0.0
  speed: 0.0
  duty_cycle: 0.0
  charge_drawn: 219.0
  charge_regen: 0.0
  energy_drawn: 0.0
  energy_regen: 0.0
  displacement: 2529.0
  distance_traveled: 20319.0
  fault_code: 0
---
header: 
  seq: 143265
  stamp: 
    secs: 1626109120
    nsecs:  76672753
  frame_id: ''
state: 
  voltage_input: 11.4
  temperature_pcb: 0.0
  current_motor: 0.0
  current_input: 0.0
  current_q: 0.0
  speed: 0.0
  duty_cycle: 0.0
  charge_drawn: 219.0
  charge_regen: 0.0
  energy_drawn: 0.0
  energy_regen: 0.0
  displacement: 2529.0
  distance_traveled: 20319.0
  fault_code: 0
---
header: 
  seq: 143266
  stamp: 
    secs: 1626109120
    nsecs:  96807616
  frame_id: ''
state: 
  voltage_input: 11.5
  temperature_pcb: 0.0
  current_motor: 0.0
  current_input: 0.0
  current_q: 0.0
  speed: 0.0
  duty_cycle: 0.0
  charge_drawn: 219.0
  charge_regen: 0.0
  energy_drawn: 0.0
  energy_regen: 0.0
  displacement: 2529.0
  distance_traveled: 20319.0
  fault_code: 0
---
header: 
  seq: 143267
  stamp: 
    secs: 1626109120
    nsecs: 117105495
  frame_id: ''
state: 
  voltage_input: 11.5
  temperature_pcb: 0.0
  current_motor: 0.0
  current_input: 0.0
  current_q: 0.0
  speed: 0.0
  duty_cycle: 0.0
  charge_drawn: 219.0
  charge_regen: 0.0
  energy_drawn: 0.0
  energy_regen: 0.0
  displacement: 2529.0
  distance_traveled: 20319.0
  fault_code: 0
---
header: 
  seq: 143268
  stamp: 
    secs: 1626109120
    nsecs: 137088486
  frame_id: ''
state: 
  voltage_input: 11.5
  temperature_pcb: 0.0
  current_motor: 0.0
  current_input: 0.0
  current_q: 0.0
  speed: -1.0
  duty_cycle: 0.0
  charge_drawn: 219.0
  charge_regen: 0.0
  energy_drawn: 0.0
  energy_regen: 0.0
  displacement: 2529.0
  distance_traveled: 20319.0
  fault_code: 0
---
header: 
  seq: 143269
  stamp: 
    secs: 1626109120
    nsecs: 155924370
  frame_id: ''
state: 
  voltage_input: 11.5
  temperature_pcb: 0.0
  current_motor: 0.0
  current_input: 0.0
  current_q: 0.0
  speed: 0.0
  duty_cycle: 0.0
  charge_drawn: 219.0
  charge_regen: 0.0
  energy_drawn: 0.0
  energy_regen: 0.0
  displacement: 2529.0
  distance_traveled: 20319.0
  fault_code: 0
---
header: 
  seq: 143270
  stamp: 
    secs: 1626109120
    nsecs: 176920045
  frame_id: ''
state: 
  voltage_input: 11.5
  temperature_pcb: 0.0
  current_motor: 0.0
  current_input: 0.0
  current_q: 0.0
  speed: -1.0
  duty_cycle: 0.0
  charge_drawn: 219.0
  charge_regen: 0.0
  energy_drawn: 0.0
  energy_regen: 0.0
  displacement: 2529.0
  distance_traveled: 20319.0
  fault_code: 0
---
header: 
  seq: 143271
  stamp: 
    secs: 1626109120
    nsecs: 196775851
  frame_id: ''
state: 
  voltage_input: 11.4
  temperature_pcb: 0.0
  current_motor: 0.0
  current_input: 0.0
  current_q: 0.0
  speed: -2.0
  duty_cycle: 0.0
  charge_drawn: 219.0
  charge_regen: 0.0
  energy_drawn: 0.0
  energy_regen: 0.0
  displacement: 2529.0
  distance_traveled: 20319.0
  fault_code: 0
---
header: 
  seq: 143272
  stamp: 
    secs: 1626109120
    nsecs: 217237268
  frame_id: ''
state: 
  voltage_input: 11.4
  temperature_pcb: 0.0
  current_motor: 0.0
  current_input: 0.0
  current_q: 0.0
  speed: -1.0
  duty_cycle: 0.0
  charge_drawn: 219.0
  charge_regen: 0.0
  energy_drawn: 0.0
  energy_regen: 0.0
  displacement: 2529.0
  distance_traveled: 20319.0
  fault_code: 0
---
header: 
  seq: 143273
  stamp: 
    secs: 1626109120
    nsecs: 236633399
  frame_id: ''
state: 
  voltage_input: 11.4
  temperature_pcb: 0.0
  current_motor: 34.05
  current_input: 2.62
  current_q: 35.43
  speed: 199.0
  duty_cycle: 0.079
  charge_drawn: 220.0
  charge_regen: 0.0
  energy_drawn: 0.0
  energy_regen: 0.0
  displacement: 2530.0
  distance_traveled: 20320.0
  fault_code: 0
---
header: 
  seq: 143274
  stamp: 
    secs: 1626109120
    nsecs: 257364288
  frame_id: ''
state: 
  voltage_input: 11.4
  temperature_pcb: 0.0
  current_motor: 60.17
  current_input: 3.91
  current_q: 60.14
  speed: 216.0
  duty_cycle: 0.077
  charge_drawn: 220.0
  charge_regen: 0.0
  energy_drawn: 0.0
  energy_regen: 0.0
  displacement: 2531.0
  distance_traveled: 20321.0
  fault_code: 0
---
header: 
  seq: 143275
  stamp: 
    secs: 1626109120
    nsecs: 277209053
  frame_id: ''
state: 
  voltage_input: 11.5
  temperature_pcb: 0.0
  current_motor: 60.08
  current_input: 3.9
  current_q: 59.97
  speed: 291.0
  duty_cycle: 0.081
  charge_drawn: 220.0
  charge_regen: 0.0
  energy_drawn: 0.0
  energy_regen: 0.0
  displacement: 2532.0
  distance_traveled: 20322.0
  fault_code: 0
---
header: 
  seq: 143276
  stamp: 
    secs: 1626109120
    nsecs: 297423914
  frame_id: ''
state: 
  voltage_input: 11.4
  temperature_pcb: 0.0
  current_motor: 60.01
  current_input: 3.97
  current_q: 60.11
  speed: 404.0
  duty_cycle: 0.083
  charge_drawn: 220.0
  charge_regen: 0.0
  energy_drawn: 0.0
  energy_regen: 0.0
  displacement: 2533.0
  distance_traveled: 20323.0
  fault_code: 0
---
header: 
  seq: 143277
  stamp: 
    secs: 1626109120
    nsecs: 316760202
  frame_id: ''
state: 
  voltage_input: 11.5
  temperature_pcb: 0.0
  current_motor: 60.12
  current_input: 3.91
  current_q: 59.72
  speed: 542.0
  duty_cycle: 0.085
  charge_drawn: 220.0
  charge_regen: 0.0
  energy_drawn: 0.0
  energy_regen: 0.0
  displacement: 2535.0
  distance_traveled: 20325.0
  fault_code: 0
---
header: 
  seq: 143278
  stamp: 
    secs: 1626109120
    nsecs: 336124303
  frame_id: ''
state: 
  voltage_input: 11.4
  temperature_pcb: 0.0
  current_motor: 60.42
  current_input: 4.35
  current_q: 60.46
  speed: 688.0
  duty_cycle: 0.079
  charge_drawn: 221.0
  charge_regen: 0.0
  energy_drawn: 0.0
  energy_regen: 0.0
  displacement: 2537.0
  distance_traveled: 20327.0
  fault_code: 0
---
header: 
  seq: 143279
  stamp: 
    secs: 1626109120
    nsecs: 356449264
  frame_id: ''
state: 
  voltage_input: 11.5
  temperature_pcb: 0.0
  current_motor: 60.42
  current_input: 4.53
  current_q: 60.33
  speed: 814.0
  duty_cycle: 0.075
  charge_drawn: 221.0
  charge_regen: 0.0
  energy_drawn: 0.0
  energy_regen: 0.0
  displacement: 2540.0
  distance_traveled: 20330.0
  fault_code: 0
---
header: 
  seq: 143280
  stamp: 
    secs: 1626109120
    nsecs: 376655062
  frame_id: ''
state: 
  voltage_input: 11.4
  temperature_pcb: 0.0
  current_motor: 58.95
  current_input: 4.68
  current_q: 58.92
  speed: 900.0
  duty_cycle: 0.094
  charge_drawn: 221.0
  charge_regen: 0.0
  energy_drawn: 0.0
  energy_regen: 0.0
  displacement: 2542.0
  distance_traveled: 20332.0
  fault_code: 0
---
header: 
  seq: 143281
  stamp: 
    secs: 1626109120
    nsecs: 396662949
  frame_id: ''
state: 
  voltage_input: 11.4
  temperature_pcb: 0.0
  current_motor: 59.87
  current_input: 4.83
  current_q: 59.83
  speed: 999.0
  duty_cycle: 0.098
  charge_drawn: 221.0
  charge_regen: 0.0
  energy_drawn: 0.0
  energy_regen: 0.0
  displacement: 2545.0
  distance_traveled: 20335.0
  fault_code: 0
---
header: 
  seq: 143282
  stamp: 
    secs: 1626109120
    nsecs: 417440243
  frame_id: ''
state: 
  voltage_input: 11.4
  temperature_pcb: 0.0
  current_motor: 60.02
  current_input: 5.03
  current_q: 59.96
  speed: 1125.0
  duty_cycle: 0.1
  charge_drawn: 222.0
  charge_regen: 0.0
  energy_drawn: 0.0
  energy_regen: 0.0
  displacement: 2548.0
  distance_traveled: 20338.0
  fault_code: 0
---
header: 
  seq: 143283
  stamp: 
    secs: 1626109120
    nsecs: 437567658
  frame_id: ''
state: 
  voltage_input: 11.4
  temperature_pcb: 0.0
  current_motor: 60.06
  current_input: 5.27
  current_q: 59.94
  speed: 1288.0
  duty_cycle: 0.103
  charge_drawn: 222.0
  charge_regen: 0.0
  energy_drawn: 0.0
  energy_regen: 0.0
  displacement: 2551.0
  distance_traveled: 20341.0
  fault_code: 0
---
header: 
  seq: 143284
  stamp: 
    secs: 1626109120
    nsecs: 456574059
  frame_id: ''
state: 
  voltage_input: 11.4
  temperature_pcb: 0.0
  current_motor: 59.95
  current_input: 5.47
  current_q: 59.9
  speed: 1479.0
  duty_cycle: 0.107
  charge_drawn: 222.0
  charge_regen: 0.0
  energy_drawn: 0.0
  energy_regen: 0.0
  displacement: 2555.0
  distance_traveled: 20345.0
  fault_code: 0
---
header: 
  seq: 143285
  stamp: 
    secs: 1626109120
    nsecs: 477223752
  frame_id: ''
state: 
  voltage_input: 11.5
  temperature_pcb: 0.0
  current_motor: 59.95
  current_input: 5.72
  current_q: 59.95
  speed: 1702.0
  duty_cycle: 0.111
  charge_drawn: 223.0
  charge_regen: 0.0
  energy_drawn: 0.0
  energy_regen: 0.0
  displacement: 2560.0
  distance_traveled: 20350.0
  fault_code: 0
---
header: 
  seq: 143286
  stamp: 
    secs: 1626109120
    nsecs: 497286012
  frame_id: ''
state: 
  voltage_input: 11.4
  temperature_pcb: 0.0
  current_motor: 60.11
  current_input: 5.95
  current_q: 59.97
  speed: 1935.0
  duty_cycle: 0.115
  charge_drawn: 223.0
  charge_regen: 0.0
  energy_drawn: 0.0
  energy_regen: 0.0
  displacement: 2565.0
  distance_traveled: 20355.0
  fault_code: 0
---
header: 
  seq: 143287
  stamp: 
    secs: 1626109120
    nsecs: 517369938
  frame_id: ''
state: 
  voltage_input: 11.4
  temperature_pcb: 0.0
  current_motor: 59.59
  current_input: 6.28
  current_q: 59.51
  speed: 2237.0
  duty_cycle: 0.127
  charge_drawn: 223.0
  charge_regen: 0.0
  energy_drawn: 0.0
  energy_regen: 0.0
  displacement: 2571.0
  distance_traveled: 20361.0
  fault_code: 0
---
header: 
  seq: 143288
  stamp: 
    secs: 1626109120
    nsecs: 537439385
  frame_id: ''
state: 
  voltage_input: 11.5
  temperature_pcb: 0.0
  current_motor: 60.16
  current_input: 6.54
  current_q: 60.22
  speed: 2514.0
  duty_cycle: 0.127
  charge_drawn: 224.0
  charge_regen: 0.0
  energy_drawn: 0.0
  energy_regen: 0.0
  displacement: 2578.0
  distance_traveled: 20368.0
  fault_code: 0
---
header: 
  seq: 143289
  stamp: 
    secs: 1626109120
    nsecs: 557233162
  frame_id: ''
state: 
  voltage_input: 11.5
  temperature_pcb: 0.0
  current_motor: 60.13
  current_input: 6.71
  current_q: 60.06
  speed: 2782.0
  duty_cycle: 0.13
  charge_drawn: 224.0
  charge_regen: 0.0
  energy_drawn: 0.0
  energy_regen: 0.0
  displacement: 2585.0
  distance_traveled: 20375.0
  fault_code: 0
---
header: 
  seq: 143290
  stamp: 
    secs: 1626109120
    nsecs: 576750696
  frame_id: ''
state: 
  voltage_input: 11.5
  temperature_pcb: 0.0
  current_motor: 60.12
  current_input: 6.92
  current_q: 59.88
  speed: 3044.0
  duty_cycle: 0.136
  charge_drawn: 224.0
  charge_regen: 0.0
  energy_drawn: 0.0
  energy_regen: 0.0
  displacement: 2592.0
  distance_traveled: 20382.0
  fault_code: 0
---
header: 
  seq: 143291
  stamp: 
    secs: 1626109120
    nsecs: 596698220
  frame_id: ''
state: 
  voltage_input: 11.4
  temperature_pcb: 0.0
  current_motor: 60.07
  current_input: 7.06
  current_q: 60.04
  speed: 3282.0
  duty_cycle: 0.138
  charge_drawn: 225.0
  charge_regen: 0.0
  energy_drawn: 0.0
  energy_regen: 0.0
  displacement: 2600.0
  distance_traveled: 20390.0
  fault_code: 0
---
header: 
  seq: 143292
  stamp: 
    secs: 1626109120
    nsecs: 616927663
  frame_id: ''
state: 
  voltage_input: 11.4
  temperature_pcb: 0.0
  current_motor: 59.87
  current_input: 7.35
  current_q: 59.94
  speed: 3566.0
  duty_cycle: 0.143
  charge_drawn: 225.0
  charge_regen: 0.0
  energy_drawn: 0.0
  energy_regen: 0.0
  displacement: 2609.0
  distance_traveled: 20399.0
  fault_code: 0
---
header: 
  seq: 143293
  stamp: 
    secs: 1626109120
    nsecs: 636008177
  frame_id: ''
state: 
  voltage_input: 11.5
  temperature_pcb: 0.0
  current_motor: 59.9
  current_input: 7.64
  current_q: 59.75
  speed: 3861.0
  duty_cycle: 0.151
  charge_drawn: 226.0
  charge_regen: 0.0
  energy_drawn: 0.0
  energy_regen: 0.0
  displacement: 2618.0
  distance_traveled: 20408.0
  fault_code: 0
---
header: 
  seq: 143294
  stamp: 
    secs: 1626109120
    nsecs: 656692869
  frame_id: ''
state: 
  voltage_input: 11.4
  temperature_pcb: 0.0
  current_motor: 60.02
  current_input: 8.03
  current_q: 60.04
  speed: 4207.0
  duty_cycle: 0.155
  charge_drawn: 226.0
  charge_regen: 0.0
  energy_drawn: 0.0
  energy_regen: 0.0
  displacement: 2629.0
  distance_traveled: 20419.0
  fault_code: 0
---
header: 
  seq: 143295
  stamp: 
    secs: 1626109120
    nsecs: 676667110
  frame_id: ''
state: 
  voltage_input: 11.4
  temperature_pcb: 0.0
  current_motor: 60.09
  current_input: 8.23
  current_q: 60.01
  speed: 4527.0
  duty_cycle: 0.159
  charge_drawn: 227.0
  charge_regen: 0.0
  energy_drawn: 0.0
  energy_regen: 0.0
  displacement: 2640.0
  distance_traveled: 20430.0
  fault_code: 0
---
header: 
  seq: 143296
  stamp: 
    secs: 1626109120
    nsecs: 696734683
  frame_id: ''
state: 
  voltage_input: 11.4
  temperature_pcb: 0.0
  current_motor: 59.97
  current_input: 8.37
  current_q: 59.96
  speed: 4811.0
  duty_cycle: 0.164
  charge_drawn: 227.0
  charge_regen: 0.0
  energy_drawn: 0.0
  energy_regen: 0.0
  displacement: 2651.0
  distance_traveled: 20441.0
  fault_code: 0
---
header: 
  seq: 143297
  stamp: 
    secs: 1626109120
    nsecs: 718283468
  frame_id: ''
state: 
  voltage_input: 11.5
  temperature_pcb: 0.0
  current_motor: 60.04
  current_input: 8.59
  current_q: 59.87
  speed: 5112.0
  duty_cycle: 0.17
  charge_drawn: 228.0
  charge_regen: 0.0
  energy_drawn: 0.0
  energy_regen: 0.0
  displacement: 2664.0
  distance_traveled: 20454.0
  fault_code: 0
---
header: 
  seq: 143298
  stamp: 
    secs: 1626109120
    nsecs: 736601188
  frame_id: ''
state: 
  voltage_input: 11.5
  temperature_pcb: 0.0
  current_motor: 59.96
  current_input: 9.0
  current_q: 59.98
  speed: 5418.0
  duty_cycle: 0.175
  charge_drawn: 228.0
  charge_regen: 0.0
  energy_drawn: 0.0
  energy_regen: 0.0
  displacement: 2675.0
  distance_traveled: 20465.0
  fault_code: 0
---
header: 
  seq: 143299
  stamp: 
    secs: 1626109120
    nsecs: 756829069
  frame_id: ''
state: 
  voltage_input: 11.4
  temperature_pcb: 0.0
  current_motor: 60.19
  current_input: 9.15
  current_q: 60.08
  speed: 5709.0
  duty_cycle: 0.178
  charge_drawn: 229.0
  charge_regen: 0.0
  energy_drawn: 0.0
  energy_regen: 0.0
  displacement: 2688.0
  distance_traveled: 20478.0
  fault_code: 0
---
header: 
  seq: 143300
  stamp: 
    secs: 1626109120
    nsecs: 776586128
  frame_id: ''
state: 
  voltage_input: 11.4
  temperature_pcb: 0.0
  current_motor: 59.87
  current_input: 9.46
  current_q: 59.89
  speed: 6038.0
  duty_cycle: 0.184
  charge_drawn: 229.0
  charge_regen: 0.0
  energy_drawn: 0.0
  energy_regen: 0.0
  displacement: 2702.0
  distance_traveled: 20492.0
  fault_code: 0
---
header: 
  seq: 143301
  stamp: 
    secs: 1626109120
    nsecs: 796787448
  frame_id: ''
state: 
  voltage_input: 11.4
  temperature_pcb: 0.0
  current_motor: 59.92
  current_input: 9.71
  current_q: 59.96
  speed: 6369.0
  duty_cycle: 0.19
  charge_drawn: 230.0
  charge_regen: 0.0
  energy_drawn: 0.0
  energy_regen: 0.0
  displacement: 2717.0
  distance_traveled: 20507.0
  fault_code: 0
---
header: 
  seq: 143302
  stamp: 
    secs: 1626109120
    nsecs: 817221729
  frame_id: ''
state: 
  voltage_input: 11.4
  temperature_pcb: 0.0
  current_motor: 60.15
  current_input: 10.0
  current_q: 60.09
  speed: 6683.0
  duty_cycle: 0.193
  charge_drawn: 230.0
  charge_regen: 0.0
  energy_drawn: 0.0
  energy_regen: 0.0
  displacement: 2732.0
  distance_traveled: 20522.0
  fault_code: 0
---
header: 
  seq: 143303
  stamp: 
    secs: 1626109120
    nsecs: 836465729
  frame_id: ''
state: 
  voltage_input: 11.4
  temperature_pcb: 0.0
  current_motor: 60.24
  current_input: 10.07
  current_q: 60.13
  speed: 6939.0
  duty_cycle: 0.194
  charge_drawn: 231.0
  charge_regen: 0.0
  energy_drawn: 0.0
  energy_regen: 0.0
  displacement: 2747.0
  distance_traveled: 20537.0
  fault_code: 0
---
header: 
  seq: 143304
  stamp: 
    secs: 1626109120
    nsecs: 857051257
  frame_id: ''
state: 
  voltage_input: 11.4
  temperature_pcb: 0.0
  current_motor: 59.8
  current_input: 10.14
  current_q: 59.69
  speed: 7190.0
  duty_cycle: 0.203
  charge_drawn: 231.0
  charge_regen: 0.0
  energy_drawn: 0.0
  energy_regen: 0.0
  displacement: 2763.0
  distance_traveled: 20553.0
  fault_code: 0
---
header: 
  seq: 143305
  stamp: 
    secs: 1626109120
    nsecs: 879432782
  frame_id: ''
state: 
  voltage_input: 11.4
  temperature_pcb: 0.0
  current_motor: 59.97
  current_input: 10.61
  current_q: 59.97
  speed: 7526.0
  duty_cycle: 0.208
  charge_drawn: 232.0
  charge_regen: 0.0
  energy_drawn: 0.0
  energy_regen: 0.0
  displacement: 2782.0
  distance_traveled: 20572.0
  fault_code: 0
---
header: 
  seq: 143306
  stamp: 
    secs: 1626109120
    nsecs: 896913388
  frame_id: ''
state: 
  voltage_input: 11.4
  temperature_pcb: 0.0
  current_motor: 59.97
  current_input: 10.92
  current_q: 59.92
  speed: 7821.0
  duty_cycle: 0.213
  charge_drawn: 232.0
  charge_regen: 0.0
  energy_drawn: 0.0
  energy_regen: 0.0
  displacement: 2797.0
  distance_traveled: 20587.0
  fault_code: 0
---
header: 
  seq: 143307
  stamp: 
    secs: 1626109120
    nsecs: 916964971
  frame_id: ''
state: 
  voltage_input: 11.4
  temperature_pcb: 0.0
  current_motor: 60.19
  current_input: 11.19
  current_q: 60.15
  speed: 8141.0
  duty_cycle: 0.215
  charge_drawn: 233.0
  charge_regen: 0.0
  energy_drawn: 0.0
  energy_regen: 0.0
  displacement: 2816.0
  distance_traveled: 20606.0
  fault_code: 0
---
header: 
  seq: 143308
  stamp: 
    secs: 1626109120
    nsecs: 937779243
  frame_id: ''
state: 
  voltage_input: 11.4
  temperature_pcb: 0.0
  current_motor: 59.98
  current_input: 11.23
  current_q: 59.98
  speed: 8412.0
  duty_cycle: 0.22
  charge_drawn: 234.0
  charge_regen: 0.0
  energy_drawn: 0.0
  energy_regen: 0.0
  displacement: 2834.0
  distance_traveled: 20624.0
  fault_code: 0
---
header: 
  seq: 143309
  stamp: 
    secs: 1626109120
    nsecs: 957117146
  frame_id: ''
state: 
  voltage_input: 11.4
  temperature_pcb: 0.0
  current_motor: 59.78
  current_input: 11.5
  current_q: 59.83
  speed: 8704.0
  duty_cycle: 0.226
  charge_drawn: 234.0
  charge_regen: 0.0
  energy_drawn: 0.0
  energy_regen: 0.0
  displacement: 2853.0
  distance_traveled: 20643.0
  fault_code: 0
---
header: 
  seq: 143310
  stamp: 
    secs: 1626109120
    nsecs: 978009490
  frame_id: ''
state: 
  voltage_input: 11.4
  temperature_pcb: 0.0
  current_motor: 60.15
  current_input: 11.84
  current_q: 60.04
  speed: 9020.0
  duty_cycle: 0.23
  charge_drawn: 235.0
  charge_regen: 0.0
  energy_drawn: 0.0
  energy_regen: 0.0
  displacement: 2873.0
  distance_traveled: 20663.0
  fault_code: 0
---
header: 
  seq: 143311
  stamp: 
    secs: 1626109120
    nsecs: 996662097
  frame_id: ''
state: 
  voltage_input: 11.4
  temperature_pcb: 0.0
  current_motor: 60.13
  current_input: 12.05
  current_q: 60.12
  speed: 9298.0
  duty_cycle: 0.232
  charge_drawn: 236.0
  charge_regen: 0.0
  energy_drawn: 0.0
  energy_regen: 0.0
  displacement: 2893.0
  distance_traveled: 20683.0
  fault_code: 0
---
header: 
  seq: 143312
  stamp: 
    secs: 1626109121
    nsecs:  16893051
  frame_id: ''
state: 
  voltage_input: 11.5
  temperature_pcb: 0.0
  current_motor: 60.01
  current_input: 12.21
  current_q: 59.97
  speed: 9582.0
  duty_cycle: 0.236
  charge_drawn: 236.0
  charge_regen: 0.0
  energy_drawn: 0.0
  energy_regen: 0.0
  displacement: 2914.0
  distance_traveled: 20704.0
  fault_code: 0
---
header: 
  seq: 143313
  stamp: 
    secs: 1626109121
    nsecs:  36792242
  frame_id: ''
state: 
  voltage_input: 11.4
  temperature_pcb: 0.0
  current_motor: 59.86
  current_input: 12.39
  current_q: 59.85
  speed: 9857.0
  duty_cycle: 0.242
  charge_drawn: 237.0
  charge_regen: 0.0
  energy_drawn: 0.0
  energy_regen: 0.0
  displacement: 2935.0
  distance_traveled: 20725.0
  fault_code: 0
---
header: 
  seq: 143314
  stamp: 
    secs: 1626109121
    nsecs:  56754348
  frame_id: ''
state: 
  voltage_input: 11.4
  temperature_pcb: 0.0
  current_motor: 60.09
  current_input: 12.67
  current_q: 60.01
  speed: 10141.0
  duty_cycle: 0.246
  charge_drawn: 238.0
  charge_regen: 0.0
  energy_drawn: 0.0
  energy_regen: 0.0
  displacement: 2957.0
  distance_traveled: 20747.0
  fault_code: 0
---
header: 
  seq: 143315
  stamp: 
    secs: 1626109121
    nsecs:  78492503
  frame_id: ''
state: 
  voltage_input: 11.4
  temperature_pcb: 0.0
  current_motor: 59.78
  current_input: 12.92
  current_q: 59.7
  speed: 10472.0
  duty_cycle: 0.256
  charge_drawn: 239.0
  charge_regen: 0.0
  energy_drawn: 0.0
  energy_regen: 0.0
  displacement: 2980.0
  distance_traveled: 20770.0
  fault_code: 0
---
header: 
  seq: 143316
  stamp: 
    secs: 1626109121
    nsecs:  96602780
  frame_id: ''
state: 
  voltage_input: 11.4
  temperature_pcb: 0.0
  current_motor: 60.3
  current_input: 13.37
  current_q: 60.33
  speed: 10777.0
  duty_cycle: 0.255
  charge_drawn: 239.0
  charge_regen: 0.0
  energy_drawn: 0.0
  energy_regen: 0.0
  displacement: 3003.0
  distance_traveled: 20793.0
  fault_code: 0
---
header: 
  seq: 143317
  stamp: 
    secs: 1626109121
    nsecs: 116689466
  frame_id: ''
state: 
  voltage_input: 11.5
  temperature_pcb: 0.0
  current_motor: 59.98
  current_input: 13.33
  current_q: 59.91
  speed: 11045.0
  duty_cycle: 0.26
  charge_drawn: 240.0
  charge_regen: 0.0
  energy_drawn: 0.0
  energy_regen: 0.0
  displacement: 3026.0
  distance_traveled: 20816.0
  fault_code: 0
---
header: 
  seq: 143318
  stamp: 
    secs: 1626109121
    nsecs: 137027396
  frame_id: ''
state: 
  voltage_input: 11.4
  temperature_pcb: 0.0
  current_motor: 60.06
  current_input: 13.66
  current_q: 60.15
  speed: 11332.0
  duty_cycle: 0.262
  charge_drawn: 240.0
  charge_regen: 0.0
  energy_drawn: 0.0
  energy_regen: 0.0
  displacement: 3051.0
  distance_traveled: 20841.0
  fault_code: 0
---
header: 
  seq: 143319
  stamp: 
    secs: 1626109121
    nsecs: 157950103
  frame_id: ''
state: 
  voltage_input: 11.4
  temperature_pcb: 0.0
  current_motor: 59.69
  current_input: 13.91
  current_q: 59.65
  speed: 11678.0
  duty_cycle: 0.272
  charge_drawn: 242.0
  charge_regen: 0.0
  energy_drawn: 0.0
  energy_regen: 0.0
  displacement: 3077.0
  distance_traveled: 20867.0
  fault_code: 0
---
header: 
  seq: 143320
  stamp: 
    secs: 1626109121
    nsecs: 177343733
  frame_id: ''
state: 
  voltage_input: 11.4
  temperature_pcb: 0.0
  current_motor: 60.37
  current_input: 14.17
  current_q: 60.24
  speed: 11951.0
  duty_cycle: 0.273
  charge_drawn: 242.0
  charge_regen: 0.0
  energy_drawn: 0.0
  energy_regen: 0.0
  displacement: 3102.0
  distance_traveled: 20892.0
  fault_code: 0
---
header: 
  seq: 143321
  stamp: 
    secs: 1626109121
    nsecs: 196448986
  frame_id: ''
state: 
  voltage_input: 11.4
  temperature_pcb: 0.0
  current_motor: 59.99
  current_input: 14.32
  current_q: 59.99
  speed: 12217.0
  duty_cycle: 0.276
  charge_drawn: 243.0
  charge_regen: 0.0
  energy_drawn: 0.0
  energy_regen: 0.0
  displacement: 3127.0
  distance_traveled: 20917.0
  fault_code: 0
---
header: 
  seq: 143322
  stamp: 
    secs: 1626109121
    nsecs: 216659523
  frame_id: ''
state: 
  voltage_input: 11.4
  temperature_pcb: 0.0
  current_motor: 59.89
  current_input: 14.36
  current_q: 59.81
  speed: 12458.0
  duty_cycle: 0.283
  charge_drawn: 244.0
  charge_regen: 0.0
  energy_drawn: 0.0
  energy_regen: 0.0
  displacement: 3153.0
  distance_traveled: 20943.0
  fault_code: 0
---
header: 
  seq: 143323
  stamp: 
    secs: 1626109121
    nsecs: 236762823
  frame_id: ''
state: 
  voltage_input: 11.4
  temperature_pcb: 0.0
  current_motor: 59.72
  current_input: 14.85
  current_q: 59.76
  speed: 12797.0
  duty_cycle: 0.291
  charge_drawn: 244.0
  charge_regen: 0.0
  energy_drawn: 0.0
  energy_regen: 0.0
  displacement: 3181.0
  distance_traveled: 20971.0
  fault_code: 0
---
header: 
  seq: 143324
  stamp: 
    secs: 1626109121
    nsecs: 257216427
  frame_id: ''
state: 
  voltage_input: 11.5
  temperature_pcb: 0.0
  current_motor: 60.11
  current_input: 15.34
  current_q: 60.13
  speed: 13180.0
  duty_cycle: 0.294
  charge_drawn: 245.0
  charge_regen: 0.0
  energy_drawn: 0.0
  energy_regen: 0.0
  displacement: 3210.0
  distance_traveled: 21000.0
  fault_code: 0
---
header: 
  seq: 143325
  stamp: 
    secs: 1626109121
    nsecs: 276912498
  frame_id: ''
state: 
  voltage_input: 11.4
  temperature_pcb: 0.0
  current_motor: 60.24
  current_input: 15.33
  current_q: 60.2
  speed: 13444.0
  duty_cycle: 0.295
  charge_drawn: 246.0
  charge_regen: 0.0
  energy_drawn: 0.0
  energy_regen: 0.0
  displacement: 3238.0
  distance_traveled: 21028.0
  fault_code: 0
---
header: 
  seq: 143326
  stamp: 
    secs: 1626109121
    nsecs: 297276677
  frame_id: ''
state: 
  voltage_input: 11.4
  temperature_pcb: 0.0
  current_motor: 60.04
  current_input: 15.49
  current_q: 59.93
  speed: 13723.0
  duty_cycle: 0.3
  charge_drawn: 247.0
  charge_regen: 0.0
  energy_drawn: 0.0
  energy_regen: 0.0
  displacement: 3268.0
  distance_traveled: 21058.0
  fault_code: 0
---
header: 
  seq: 143327
  stamp: 
    secs: 1626109121
    nsecs: 316701765
  frame_id: ''
state: 
  voltage_input: 11.4
  temperature_pcb: 0.0
  current_motor: 60.0
  current_input: 15.56
  current_q: 60.03
  speed: 13935.0
  duty_cycle: 0.303
  charge_drawn: 248.0
  charge_regen: 0.0
  energy_drawn: 0.0
  energy_regen: 0.0
  displacement: 3296.0
  distance_traveled: 21086.0
  fault_code: 0
---
header: 
  seq: 143328
  stamp: 
    secs: 1626109121
    nsecs: 337482601
  frame_id: ''
state: 
  voltage_input: 11.4
  temperature_pcb: 0.0
  current_motor: 59.83
  current_input: 15.9
  current_q: 59.83
  speed: 14234.0
  duty_cycle: 0.31
  charge_drawn: 249.0
  charge_regen: 0.0
  energy_drawn: 0.0
  energy_regen: 0.0
  displacement: 3327.0
  distance_traveled: 21117.0
  fault_code: 0
---
header: 
  seq: 143329
  stamp: 
    secs: 1626109121
    nsecs: 356752797
  frame_id: ''
state: 
  voltage_input: 11.4
  temperature_pcb: 0.0
  current_motor: 60.1
  current_input: 16.22
  current_q: 60.09
  speed: 14519.0
  duty_cycle: 0.312
  charge_drawn: 250.0
  charge_regen: 0.0
  energy_drawn: 0.0
  energy_regen: 0.0
  displacement: 3357.0
  distance_traveled: 21147.0
  fault_code: 0
---
header: 
  seq: 143330
  stamp: 
    secs: 1626109121
    nsecs: 376283351
  frame_id: ''
state: 
  voltage_input: 11.4
  temperature_pcb: 0.0
  current_motor: 59.93
  current_input: 16.38
  current_q: 59.89
  speed: 14811.0
  duty_cycle: 0.318
  charge_drawn: 251.0
  charge_regen: 0.0
  energy_drawn: 0.0
  energy_regen: 0.0
  displacement: 3388.0
  distance_traveled: 21178.0
  fault_code: 0
---
header: 
  seq: 143331
  stamp: 
    secs: 1626109121
    nsecs: 397037937
  frame_id: ''
state: 
  voltage_input: 11.3
  temperature_pcb: 0.0
  current_motor: 60.25
  current_input: 16.54
  current_q: 60.27
  speed: 15043.0
  duty_cycle: 0.317
  charge_drawn: 251.0
  charge_regen: 0.0
  energy_drawn: 0.0
  energy_regen: 0.0
  displacement: 3420.0
  distance_traveled: 21210.0
  fault_code: 0
---
header: 
  seq: 143332
  stamp: 
    secs: 1626109121
    nsecs: 417845126
  frame_id: ''
state: 
  voltage_input: 11.4
  temperature_pcb: 0.0
  current_motor: 59.64
  current_input: 16.64
  current_q: 59.46
  speed: 15333.0
  duty_cycle: 0.33
  charge_drawn: 252.0
  charge_regen: 0.0
  energy_drawn: 0.0
  energy_regen: 0.0
  displacement: 3452.0
  distance_traveled: 21242.0
  fault_code: 0
---
header: 
  seq: 143333
  stamp: 
    secs: 1626109121
    nsecs: 438580338
  frame_id: ''
state: 
  voltage_input: 11.4
  temperature_pcb: 0.0
  current_motor: 60.12
  current_input: 17.25
  current_q: 60.18
  speed: 15675.0
  duty_cycle: 0.332
  charge_drawn: 253.0
  charge_regen: 0.0
  energy_drawn: 0.0
  energy_regen: 0.0
  displacement: 3487.0
  distance_traveled: 21277.0
  fault_code: 0
---
header: 
  seq: 143334
  stamp: 
    secs: 1626109121
    nsecs: 456425830
  frame_id: ''
state: 
  voltage_input: 11.4
  temperature_pcb: 0.0
  current_motor: 59.87
  current_input: 17.3
  current_q: 59.79
  speed: 15963.0
  duty_cycle: 0.339
  charge_drawn: 254.0
  charge_regen: 0.0
  energy_drawn: 0.0
  energy_regen: 0.0
  displacement: 3518.0
  distance_traveled: 21308.0
  fault_code: 0
---
header: 
  seq: 143335
  stamp: 
    secs: 1626109121
    nsecs: 477345204
  frame_id: ''
state: 
  voltage_input: 11.3
  temperature_pcb: 0.0
  current_motor: 60.47
  current_input: 17.62
  current_q: 60.46
  speed: 16223.0
  duty_cycle: 0.335
  charge_drawn: 255.0
  charge_regen: 0.0
  energy_drawn: 0.0
  energy_regen: 0.0
  displacement: 3553.0
  distance_traveled: 21343.0
  fault_code: 0
---
header: 
  seq: 143336
  stamp: 
    secs: 1626109121
    nsecs: 496566547
  frame_id: ''
state: 
  voltage_input: 11.4
  temperature_pcb: 0.0
  current_motor: 59.67
  current_input: 17.46
  current_q: 59.68
  speed: 16452.0
  duty_cycle: 0.343
  charge_drawn: 256.0
  charge_regen: 0.0
  energy_drawn: 0.0
  energy_regen: 0.0
  displacement: 3587.0
  distance_traveled: 21377.0
  fault_code: 0
---
header: 
  seq: 143337
  stamp: 
    secs: 1626109121
    nsecs: 516454644
  frame_id: ''
state: 
  voltage_input: 11.4
  temperature_pcb: 0.0
  current_motor: 60.39
  current_input: 17.84
  current_q: 60.4
  speed: 16657.0
  duty_cycle: 0.34
  charge_drawn: 257.0
  charge_regen: 0.0
  energy_drawn: 0.0
  energy_regen: 0.0
  displacement: 3621.0
  distance_traveled: 21411.0
  fault_code: 0
---
header: 
  seq: 143338
  stamp: 
    secs: 1626109121
    nsecs: 537425266
  frame_id: ''
state: 
  voltage_input: 11.4
  temperature_pcb: 0.0
  current_motor: 59.86
  current_input: 17.94
  current_q: 59.8
  speed: 16923.0
  duty_cycle: 0.347
  charge_drawn: 258.0
  charge_regen: 0.0
  energy_drawn: 0.0
  energy_regen: 0.0
  displacement: 3658.0
  distance_traveled: 21448.0
  fault_code: 0
---
header: 
  seq: 143339
  stamp: 
    secs: 1626109121
    nsecs: 556939467
  frame_id: ''
state: 
  voltage_input: 11.4
  temperature_pcb: 0.0
  current_motor: 60.01
  current_input: 18.03
  current_q: 59.95
  speed: 17115.0
  duty_cycle: 0.35
  charge_drawn: 259.0
  charge_regen: 0.0
  energy_drawn: 0.0
  energy_regen: 0.0
  displacement: 3692.0
  distance_traveled: 21482.0
  fault_code: 0
---
header: 
  seq: 143340
  stamp: 
    secs: 1626109121
    nsecs: 577081829
  frame_id: ''
state: 
  voltage_input: 11.3
  temperature_pcb: 0.0
  current_motor: 59.59
  current_input: 18.3
  current_q: 59.59
  speed: 17412.0
  duty_cycle: 0.362
  charge_drawn: 260.0
  charge_regen: 0.0
  energy_drawn: 0.0
  energy_regen: 0.0
  displacement: 3729.0
  distance_traveled: 21519.0
  fault_code: 0
---
header: 
  seq: 143341
  stamp: 
    secs: 1626109121
    nsecs: 596121197
  frame_id: ''
state: 
  voltage_input: 11.4
  temperature_pcb: 0.0
  current_motor: 60.38
  current_input: 18.62
  current_q: 60.35
  speed: 17621.0
  duty_cycle: 0.359
  charge_drawn: 261.0
  charge_regen: 0.0
  energy_drawn: 0.0
  energy_regen: 0.0
  displacement: 3764.0
  distance_traveled: 21554.0
  fault_code: 0
---
header: 
  seq: 143342
  stamp: 
    secs: 1626109121
    nsecs: 618722248
  frame_id: ''
state: 
  voltage_input: 11.4
  temperature_pcb: 0.0
  current_motor: 60.19
  current_input: 18.83
  current_q: 60.19
  speed: 17894.0
  duty_cycle: 0.359
  charge_drawn: 262.0
  charge_regen: 0.0
  energy_drawn: 0.0
  energy_regen: 0.0
  displacement: 3806.0
  distance_traveled: 21596.0
  fault_code: 0
---
header: 
  seq: 143343
  stamp: 
    secs: 1626109121
    nsecs: 635872236
  frame_id: ''
state: 
  voltage_input: 11.4
  temperature_pcb: 0.0
  current_motor: 59.73
  current_input: 18.73
  current_q: 59.67
  speed: 18082.0
  duty_cycle: 0.367
  charge_drawn: 263.0
  charge_regen: 0.0
  energy_drawn: 0.0
  energy_regen: 0.0
  displacement: 3838.0
  distance_traveled: 21628.0
  fault_code: 0
---
header: 
  seq: 143344
  stamp: 
    secs: 1626109121
    nsecs: 658634481
  frame_id: ''
state: 
  voltage_input: 11.4
  temperature_pcb: 0.0
  current_motor: 60.15
  current_input: 19.29
  current_q: 60.18
  speed: 18369.0
  duty_cycle: 0.367
  charge_drawn: 265.0
  charge_regen: 0.0
  energy_drawn: 0.0
  energy_regen: 0.0
  displacement: 3878.0
  distance_traveled: 21668.0
  fault_code: 0
---
header: 
  seq: 143345
  stamp: 
    secs: 1626109121
    nsecs: 676725071
  frame_id: ''
state: 
  voltage_input: 11.4
  temperature_pcb: 0.0
  current_motor: 59.62
  current_input: 19.22
  current_q: 59.58
  speed: 18633.0
  duty_cycle: 0.378
  charge_drawn: 266.0
  charge_regen: 0.0
  energy_drawn: 0.0
  energy_regen: 0.0
  displacement: 3916.0
  distance_traveled: 21706.0
  fault_code: 0
---
header: 
  seq: 143346
  stamp: 
    secs: 1626109121
    nsecs: 697413981
  frame_id: ''
state: 
  voltage_input: 11.4
  temperature_pcb: 0.0
  current_motor: 60.17
  current_input: 19.46
  current_q: 60.04
  speed: 18850.0
  duty_cycle: 0.381
  charge_drawn: 267.0
  charge_regen: 0.0
  energy_drawn: 0.0
  energy_regen: 0.0
  displacement: 3957.0
  distance_traveled: 21747.0
  fault_code: 0
---
header: 
  seq: 143347
  stamp: 
    secs: 1626109121
    nsecs: 716840476
  frame_id: ''
state: 
  voltage_input: 11.4
  temperature_pcb: 0.0
  current_motor: 59.76
  current_input: 19.88
  current_q: 59.86
  speed: 19163.0
  duty_cycle: 0.387
  charge_drawn: 268.0
  charge_regen: 0.0
  energy_drawn: 0.0
  energy_regen: 0.0
  displacement: 3996.0
  distance_traveled: 21786.0
  fault_code: 0
---
header: 
  seq: 143348
  stamp: 
    secs: 1626109121
    nsecs: 736816175
  frame_id: ''
state: 
  voltage_input: 11.3
  temperature_pcb: 0.0
  current_motor: 60.12
  current_input: 19.93
  current_q: 60.06
  speed: 19393.0
  duty_cycle: 0.389
  charge_drawn: 269.0
  charge_regen: 0.0
  energy_drawn: 0.0
  energy_regen: 0.0
  displacement: 4036.0
  distance_traveled: 21826.0
  fault_code: 0
---
header: 
  seq: 143349
  stamp: 
    secs: 1626109121
    nsecs: 756367926
  frame_id: ''
state: 
  voltage_input: 11.4
  temperature_pcb: 0.0
  current_motor: 60.52
  current_input: 20.31
  current_q: 60.46
  speed: 19622.0
  duty_cycle: 0.385
  charge_drawn: 270.0
  charge_regen: 0.0
  energy_drawn: 0.0
  energy_regen: 0.0
  displacement: 4075.0
  distance_traveled: 21865.0
  fault_code: 0
---
header: 
  seq: 143350
  stamp: 
    secs: 1626109121
    nsecs: 776534923
  frame_id: ''
state: 
  voltage_input: 11.3
  temperature_pcb: 0.0
  current_motor: 59.46
  current_input: 20.25
  current_q: 59.51
  speed: 19912.0
  duty_cycle: 0.398
  charge_drawn: 271.0
  charge_regen: 0.0
  energy_drawn: 0.0
  energy_regen: 0.0
  displacement: 4117.0
  distance_traveled: 21907.0
  fault_code: 0
---
header: 
  seq: 143351
  stamp: 
    secs: 1626109121
    nsecs: 796935456
  frame_id: ''
state: 
  voltage_input: 11.4
  temperature_pcb: 0.0
  current_motor: 60.65
  current_input: 20.89
  current_q: 60.84
  speed: 20158.0
  duty_cycle: 0.387
  charge_drawn: 272.0
  charge_regen: 0.0
  energy_drawn: 0.0
  energy_regen: 0.0
  displacement: 4159.0
  distance_traveled: 21949.0
  fault_code: 0
---
header: 
  seq: 143352
  stamp: 
    secs: 1626109121
    nsecs: 816631422
  frame_id: ''
state: 
  voltage_input: 11.4
  temperature_pcb: 0.0
  current_motor: 63.28
  current_input: 18.52
  current_q: 62.96
  speed: 19295.0
  duty_cycle: 0.326
  charge_drawn: 273.0
  charge_regen: 0.0
  energy_drawn: 0.0
