header: 
  seq: 36364
  stamp: 
    secs: 1625861160
    nsecs: 963434909
  frame_id: ''
state: 
  voltage_input: 11.6
  temperature_pcb: 0.0
  current_motor: 0.0
  current_input: 0.0
  current_q: 0.0
  speed: 0.0
  duty_cycle: 0.0
  charge_drawn: 28.0
  charge_regen: 0.0
  energy_drawn: 0.0
  energy_regen: 0.0
  displacement: 2727.0
  distance_traveled: 3361.0
  fault_code: 0
---
header: 
  seq: 36365
  stamp: 
    secs: 1625861160
    nsecs: 982997921
  frame_id: ''
state: 
  voltage_input: 11.6
  temperature_pcb: 0.0
  current_motor: 0.0
  current_input: 0.0
  current_q: 0.0
  speed: 1.0
  duty_cycle: 0.0
  charge_drawn: 28.0
  charge_regen: 0.0
  energy_drawn: 0.0
  energy_regen: 0.0
  displacement: 2727.0
  distance_traveled: 3361.0
  fault_code: 0
---
header: 
  seq: 36366
  stamp: 
    secs: 1625861161
    nsecs:   3367033
  frame_id: ''
state: 
  voltage_input: 11.6
  temperature_pcb: 0.0
  current_motor: 0.0
  current_input: 0.0
  current_q: 0.0
  speed: 0.0
  duty_cycle: 0.0
  charge_drawn: 28.0
  charge_regen: 0.0
  energy_drawn: 0.0
  energy_regen: 0.0
  displacement: 2727.0
  distance_traveled: 3361.0
  fault_code: 0
---
header: 
  seq: 36367
  stamp: 
    secs: 1625861161
    nsecs:  23305674
  frame_id: ''
state: 
  voltage_input: 11.6
  temperature_pcb: 0.0
  current_motor: 0.0
  current_input: 0.0
  current_q: 0.0
  speed: 1.0
  duty_cycle: 0.0
  charge_drawn: 28.0
  charge_regen: 0.0
  energy_drawn: 0.0
  energy_regen: 0.0
  displacement: 2727.0
  distance_traveled: 3361.0
  fault_code: 0
---
header: 
  seq: 36368
  stamp: 
    secs: 1625861161
    nsecs:  43309939
  frame_id: ''
state: 
  voltage_input: 11.7
  temperature_pcb: 0.0
  current_motor: 0.0
  current_input: 0.0
  current_q: 0.0
  speed: 1.0
  duty_cycle: 0.0
  charge_drawn: 28.0
  charge_regen: 0.0
  energy_drawn: 0.0
  energy_regen: 0.0
  displacement: 2727.0
  distance_traveled: 3361.0
  fault_code: 0
---
header: 
  seq: 36369
  stamp: 
    secs: 1625861161
    nsecs:  63370508
  frame_id: ''
state: 
  voltage_input: 11.7
  temperature_pcb: 0.0
  current_motor: 0.0
  current_input: 0.0
  current_q: 0.0
  speed: 2.0
  duty_cycle: 0.0
  charge_drawn: 28.0
  charge_regen: 0.0
  energy_drawn: 0.0
  energy_regen: 0.0
  displacement: 2727.0
  distance_traveled: 3361.0
  fault_code: 0
---
header: 
  seq: 36370
  stamp: 
    secs: 1625861161
    nsecs:  82971020
  frame_id: ''
state: 
  voltage_input: 11.7
  temperature_pcb: 0.0
  current_motor: 0.0
  current_input: 0.0
  current_q: 0.0
  speed: 2.0
  duty_cycle: 0.0
  charge_drawn: 28.0
  charge_regen: 0.0
  energy_drawn: 0.0
  energy_regen: 0.0
  displacement: 2727.0
  distance_traveled: 3361.0
  fault_code: 0
---
header: 
  seq: 36371
  stamp: 
    secs: 1625861161
    nsecs: 103377685
  frame_id: ''
state: 
  voltage_input: 11.7
  temperature_pcb: 0.0
  current_motor: 0.0
  current_input: 0.0
  current_q: 0.0
  speed: 1.0
  duty_cycle: 0.0
  charge_drawn: 28.0
  charge_regen: 0.0
  energy_drawn: 0.0
  energy_regen: 0.0
  displacement: 2727.0
  distance_traveled: 3361.0
  fault_code: 0
---
header: 
  seq: 36372
  stamp: 
    secs: 1625861161
    nsecs: 123381742
  frame_id: ''
state: 
  voltage_input: 11.6
  temperature_pcb: 0.0
  current_motor: 0.0
  current_input: 0.0
  current_q: 0.0
  speed: 0.0
  duty_cycle: 0.0
  charge_drawn: 28.0
  charge_regen: 0.0
  energy_drawn: 0.0
  energy_regen: 0.0
  displacement: 2727.0
  distance_traveled: 3361.0
  fault_code: 0
---
header: 
  seq: 36373
  stamp: 
    secs: 1625861161
    nsecs: 143379237
  frame_id: ''
state: 
  voltage_input: 11.6
  temperature_pcb: 0.0
  current_motor: 0.0
  current_input: 0.0
  current_q: 0.0
  speed: 0.0
  duty_cycle: 0.0
  charge_drawn: 28.0
  charge_regen: 0.0
  energy_drawn: 0.0
  energy_regen: 0.0
  displacement: 2727.0
  distance_traveled: 3361.0
  fault_code: 0
---
header: 
  seq: 36374
  stamp: 
    secs: 1625861161
    nsecs: 163565015
  frame_id: ''
state: 
  voltage_input: 11.6
  temperature_pcb: 0.0
  current_motor: 0.0
  current_input: 0.0
  current_q: 0.0
  speed: 0.0
  duty_cycle: 0.0
  charge_drawn: 28.0
  charge_regen: 0.0
  energy_drawn: 0.0
  energy_regen: 0.0
  displacement: 2727.0
  distance_traveled: 3361.0
  fault_code: 0
---
header: 
  seq: 36375
  stamp: 
    secs: 1625861161
    nsecs: 183378602
  frame_id: ''
state: 
  voltage_input: 11.6
  temperature_pcb: 0.0
  current_motor: 0.0
  current_input: 0.0
  current_q: 0.0
  speed: -1.0
  duty_cycle: 0.0
  charge_drawn: 28.0
  charge_regen: 0.0
  energy_drawn: 0.0
  energy_regen: 0.0
  displacement: 2727.0
  distance_traveled: 3361.0
  fault_code: 0
---
header: 
  seq: 36376
  stamp: 
    secs: 1625861161
    nsecs: 203423128
  frame_id: ''
state: 
  voltage_input: 11.6
  temperature_pcb: 0.0
  current_motor: 0.0
  current_input: 0.0
  current_q: 0.0
  speed: -1.0
  duty_cycle: 0.0
  charge_drawn: 28.0
  charge_regen: 0.0
  energy_drawn: 0.0
  energy_regen: 0.0
  displacement: 2727.0
  distance_traveled: 3361.0
  fault_code: 0
---
header: 
  seq: 36377
  stamp: 
    secs: 1625861161
    nsecs: 223098433
  frame_id: ''
state: 
  voltage_input: 11.6
  temperature_pcb: 0.0
  current_motor: 0.0
  current_input: 0.0
  current_q: 0.0
  speed: -1.0
  duty_cycle: 0.0
  charge_drawn: 28.0
  charge_regen: 0.0
  energy_drawn: 0.0
  energy_regen: 0.0
  displacement: 2727.0
  distance_traveled: 3361.0
  fault_code: 0
---
header: 
  seq: 36378
  stamp: 
    secs: 1625861161
    nsecs: 243947601
  frame_id: ''
state: 
  voltage_input: 11.7
  temperature_pcb: 0.0
  current_motor: 0.0
  current_input: 0.0
  current_q: 0.0
  speed: -3.0
  duty_cycle: 0.0
  charge_drawn: 28.0
  charge_regen: 0.0
  energy_drawn: 0.0
  energy_regen: 0.0
  displacement: 2727.0
  distance_traveled: 3361.0
  fault_code: 0
---
header: 
  seq: 36379
  stamp: 
    secs: 1625861161
    nsecs: 263084204
  frame_id: ''
state: 
  voltage_input: 11.6
  temperature_pcb: 0.0
  current_motor: 0.0
  current_input: 0.0
  current_q: 0.0
  speed: -1.0
  duty_cycle: 0.0
  charge_drawn: 28.0
  charge_regen: 0.0
  energy_drawn: 0.0
  energy_regen: 0.0
  displacement: 2727.0
  distance_traveled: 3361.0
  fault_code: 0
---
header: 
  seq: 36380
  stamp: 
    secs: 1625861161
    nsecs: 283048053
  frame_id: ''
state: 
  voltage_input: 11.6
  temperature_pcb: 0.0
  current_motor: 0.0
  current_input: 0.0
  current_q: 0.0
  speed: 0.0
  duty_cycle: 0.0
  charge_drawn: 28.0
  charge_regen: 0.0
  energy_drawn: 0.0
  energy_regen: 0.0
  displacement: 2727.0
  distance_traveled: 3361.0
  fault_code: 0
---
header: 
  seq: 36381
  stamp: 
    secs: 1625861161
    nsecs: 303776126
  frame_id: ''
state: 
  voltage_input: 11.7
  temperature_pcb: 0.0
  current_motor: 0.0
  current_input: 0.0
  current_q: 0.0
  speed: 0.0
  duty_cycle: 0.0
  charge_drawn: 28.0
  charge_regen: 0.0
  energy_drawn: 0.0
  energy_regen: 0.0
  displacement: 2727.0
  distance_traveled: 3361.0
  fault_code: 0
---
header: 
  seq: 36382
  stamp: 
    secs: 1625861161
    nsecs: 323170595
  frame_id: ''
state: 
  voltage_input: 11.7
  temperature_pcb: 0.0
  current_motor: 0.0
  current_input: 0.0
  current_q: 0.0
  speed: -1.0
  duty_cycle: 0.0
  charge_drawn: 28.0
  charge_regen: 0.0
  energy_drawn: 0.0
  energy_regen: 0.0
  displacement: 2727.0
  distance_traveled: 3361.0
  fault_code: 0
---
header: 
  seq: 36383
  stamp: 
    secs: 1625861161
    nsecs: 343179965
  frame_id: ''
state: 
  voltage_input: 11.6
  temperature_pcb: 0.0
  current_motor: 0.0
  current_input: 0.0
  current_q: 0.0
  speed: -1.0
  duty_cycle: 0.0
  charge_drawn: 28.0
  charge_regen: 0.0
  energy_drawn: 0.0
  energy_regen: 0.0
  displacement: 2727.0
  distance_traveled: 3361.0
  fault_code: 0
---
header: 
  seq: 36384
  stamp: 
    secs: 1625861161
    nsecs: 363126418
  frame_id: ''
state: 
  voltage_input: 11.7
  temperature_pcb: 0.0
  current_motor: 0.0
  current_input: 0.0
  current_q: 0.0
  speed: 0.0
  duty_cycle: 0.0
  charge_drawn: 28.0
  charge_regen: 0.0
  energy_drawn: 0.0
  energy_regen: 0.0
  displacement: 2727.0
  distance_traveled: 3361.0
  fault_code: 0
---
header: 
  seq: 36385
  stamp: 
    secs: 1625861161
    nsecs: 383195788
  frame_id: ''
state: 
  voltage_input: 11.7
  temperature_pcb: 0.0
  current_motor: 0.0
  current_input: 0.0
  current_q: 0.0
  speed: -1.0
  duty_cycle: 0.0
  charge_drawn: 28.0
  charge_regen: 0.0
  energy_drawn: 0.0
  energy_regen: 0.0
  displacement: 2727.0
  distance_traveled: 3361.0
  fault_code: 0
---
header: 
  seq: 36386
  stamp: 
    secs: 1625861161
    nsecs: 403176564
  frame_id: ''
state: 
  voltage_input: 11.7
  temperature_pcb: 0.0
  current_motor: 0.0
  current_input: 0.0
  current_q: 0.0
  speed: -2.0
  duty_cycle: 0.0
  charge_drawn: 28.0
  charge_regen: 0.0
  energy_drawn: 0.0
  energy_regen: 0.0
  displacement: 2727.0
  distance_traveled: 3361.0
  fault_code: 0
---
header: 
  seq: 36387
  stamp: 
    secs: 1625861161
    nsecs: 423127757
  frame_id: ''
state: 
  voltage_input: 11.7
  temperature_pcb: 0.0
  current_motor: 0.0
  current_input: 0.0
  current_q: 0.0
  speed: -1.0
  duty_cycle: 0.0
  charge_drawn: 28.0
  charge_regen: 0.0
  energy_drawn: 0.0
  energy_regen: 0.0
  displacement: 2727.0
  distance_traveled: 3361.0
  fault_code: 0
---
header: 
  seq: 36388
  stamp: 
    secs: 1625861161
    nsecs: 443033845
  frame_id: ''
state: 
  voltage_input: 11.7
  temperature_pcb: 0.0
  current_motor: 0.0
  current_input: 0.0
  current_q: 0.0
  speed: 0.0
  duty_cycle: 0.0
  charge_drawn: 28.0
  charge_regen: 0.0
  energy_drawn: 0.0
  energy_regen: 0.0
  displacement: 2727.0
  distance_traveled: 3361.0
  fault_code: 0
---
header: 
  seq: 36389
  stamp: 
    secs: 1625861161
    nsecs: 463378582
  frame_id: ''
state: 
  voltage_input: 11.7
  temperature_pcb: 0.0
  current_motor: 0.0
  current_input: 0.0
  current_q: 0.0
  speed: 1.0
  duty_cycle: 0.0
  charge_drawn: 28.0
  charge_regen: 0.0
  energy_drawn: 0.0
  energy_regen: 0.0
  displacement: 2727.0
  distance_traveled: 3361.0
  fault_code: 0
---
header: 
  seq: 36390
  stamp: 
    secs: 1625861161
    nsecs: 483215971
  frame_id: ''
state: 
  voltage_input: 11.6
  temperature_pcb: 0.0
  current_motor: 0.0
  current_input: 0.0
  current_q: 0.0
  speed: 0.0
  duty_cycle: 0.0
  charge_drawn: 28.0
  charge_regen: 0.0
  energy_drawn: 0.0
  energy_regen: 0.0
  displacement: 2727.0
  distance_traveled: 3361.0
  fault_code: 0
---
header: 
  seq: 36391
  stamp: 
    secs: 1625861161
    nsecs: 503153101
  frame_id: ''
state: 
  voltage_input: 11.6
  temperature_pcb: 0.0
  current_motor: 0.0
  current_input: 0.0
  current_q: 0.0
  speed: 1.0
  duty_cycle: 0.0
  charge_drawn: 28.0
  charge_regen: 0.0
  energy_drawn: 0.0
  energy_regen: 0.0
  displacement: 2727.0
  distance_traveled: 3361.0
  fault_code: 0
---
header: 
  seq: 36392
  stamp: 
    secs: 1625861161
    nsecs: 523121637
  frame_id: ''
state: 
  voltage_input: 11.6
  temperature_pcb: 0.0
  current_motor: 0.0
  current_input: 0.0
  current_q: 0.0
  speed: 0.0
  duty_cycle: 0.0
  charge_drawn: 28.0
  charge_regen: 0.0
  energy_drawn: 0.0
  energy_regen: 0.0
  displacement: 2727.0
  distance_traveled: 3361.0
  fault_code: 0
---
header: 
  seq: 36393
  stamp: 
    secs: 1625861161
    nsecs: 542936318
  frame_id: ''
state: 
  voltage_input: 11.6
  temperature_pcb: 0.0
  current_motor: 0.0
  current_input: 0.0
  current_q: 0.0
  speed: -1.0
  duty_cycle: 0.0
  charge_drawn: 28.0
  charge_regen: 0.0
  energy_drawn: 0.0
  energy_regen: 0.0
  displacement: 2727.0
  distance_traveled: 3361.0
  fault_code: 0
---
header: 
  seq: 36394
  stamp: 
    secs: 1625861161
    nsecs: 563556786
  frame_id: ''
state: 
  voltage_input: 11.6
  temperature_pcb: 0.0
  current_motor: 0.0
  current_input: 0.0
  current_q: 0.0
  speed: -1.0
  duty_cycle: 0.0
  charge_drawn: 28.0
  charge_regen: 0.0
  energy_drawn: 0.0
  energy_regen: 0.0
  displacement: 2727.0
  distance_traveled: 3361.0
  fault_code: 0
---
header: 
  seq: 36395
  stamp: 
    secs: 1625861161
    nsecs: 583665324
  frame_id: ''
state: 
  voltage_input: 11.6
  temperature_pcb: 0.0
  current_motor: 0.0
  current_input: 0.0
  current_q: 0.0
  speed: -1.0
  duty_cycle: 0.0
  charge_drawn: 28.0
  charge_regen: 0.0
  energy_drawn: 0.0
  energy_regen: 0.0
  displacement: 2727.0
  distance_traveled: 3361.0
  fault_code: 0
---
header: 
  seq: 36396
  stamp: 
    secs: 1625861161
    nsecs: 604036884
  frame_id: ''
state: 
  voltage_input: 11.6
  temperature_pcb: 0.0
  current_motor: 0.0
  current_input: 0.0
  current_q: 0.0
  speed: 0.0
  duty_cycle: 0.0
  charge_drawn: 28.0
  charge_regen: 0.0
  energy_drawn: 0.0
  energy_regen: 0.0
  displacement: 2727.0
  distance_traveled: 3361.0
  fault_code: 0
---
header: 
  seq: 36397
  stamp: 
    secs: 1625861161
    nsecs: 624016254
  frame_id: ''
state: 
  voltage_input: 11.6
  temperature_pcb: 0.0
  current_motor: 0.0
  current_input: 0.0
  current_q: 0.0
  speed: 0.0
  duty_cycle: 0.0
  charge_drawn: 28.0
  charge_regen: 0.0
  energy_drawn: 0.0
  energy_regen: 0.0
  displacement: 2727.0
  distance_traveled: 3361.0
  fault_code: 0
---
header: 
  seq: 36398
  stamp: 
    secs: 1625861161
    nsecs: 644510523
  frame_id: ''
state: 
  voltage_input: 11.7
  temperature_pcb: 0.0
  current_motor: 0.0
  current_input: 0.0
  current_q: 0.0
  speed: 0.0
  duty_cycle: 0.0
  charge_drawn: 28.0
  charge_regen: 0.0
  energy_drawn: 0.0
  energy_regen: 0.0
  displacement: 2727.0
  distance_traveled: 3361.0
  fault_code: 0
---
header: 
  seq: 36399
  stamp: 
    secs: 1625861161
    nsecs: 663176393
  frame_id: ''
state: 
  voltage_input: 11.6
  temperature_pcb: 0.0
  current_motor: 0.0
  current_input: 0.0
  current_q: 0.0
  speed: 0.0
  duty_cycle: 0.0
  charge_drawn: 28.0
  charge_regen: 0.0
  energy_drawn: 0.0
  energy_regen: 0.0
  displacement: 2727.0
  distance_traveled: 3361.0
  fault_code: 0
---
header: 
  seq: 36400
  stamp: 
    secs: 1625861161
    nsecs: 683429932
  frame_id: ''
state: 
  voltage_input: 11.6
  temperature_pcb: 0.0
  current_motor: 0.0
  current_input: 0.0
  current_q: 0.0
  speed: 0.0
  duty_cycle: 0.0
  charge_drawn: 28.0
  charge_regen: 0.0
  energy_drawn: 0.0
  energy_regen: 0.0
  displacement: 2727.0
  distance_traveled: 3361.0
  fault_code: 0
---
header: 
  seq: 36401
  stamp: 
    secs: 1625861161
    nsecs: 703296853
  frame_id: ''
state: 
  voltage_input: 11.6
  temperature_pcb: 0.0
  current_motor: 0.0
  current_input: 0.0
  current_q: 0.0
  speed: 0.0
  duty_cycle: 0.0
  charge_drawn: 28.0
  charge_regen: 0.0
  energy_drawn: 0.0
  energy_regen: 0.0
  displacement: 2727.0
  distance_traveled: 3361.0
  fault_code: 0
---
header: 
  seq: 36402
  stamp: 
    secs: 1625861161
    nsecs: 723361640
  frame_id: ''
state: 
  voltage_input: 11.6
  temperature_pcb: 0.0
  current_motor: 0.0
  current_input: 0.0
  current_q: 0.0
  speed: 0.0
  duty_cycle: 0.0
  charge_drawn: 28.0
  charge_regen: 0.0
  energy_drawn: 0.0
  energy_regen: 0.0
  displacement: 2727.0
  distance_traveled: 3361.0
  fault_code: 0
---
header: 
  seq: 36403
  stamp: 
    secs: 1625861161
    nsecs: 743160175
  frame_id: ''
state: 
  voltage_input: 11.6
  temperature_pcb: 0.0
  current_motor: 0.0
  current_input: 0.0
  current_q: 0.0
  speed: 1.0
  duty_cycle: 0.0
  charge_drawn: 28.0
  charge_regen: 0.0
  energy_drawn: 0.0
  energy_regen: 0.0
  displacement: 2727.0
  distance_traveled: 3361.0
  fault_code: 0
---
header: 
  seq: 36404
  stamp: 
    secs: 1625861161
    nsecs: 763538870
  frame_id: ''
state: 
  voltage_input: 11.6
  temperature_pcb: 0.0
  current_motor: 0.0
  current_input: 0.0
  current_q: 0.0
  speed: 0.0
  duty_cycle: 0.0
  charge_drawn: 28.0
  charge_regen: 0.0
  energy_drawn: 0.0
  energy_regen: 0.0
  displacement: 2727.0
  distance_traveled: 3361.0
  fault_code: 0
---
header: 
  seq: 36405
  stamp: 
    secs: 1625861161
    nsecs: 783631991
  frame_id: ''
state: 
  voltage_input: 11.6
  temperature_pcb: 0.0
  current_motor: 0.0
  current_input: 0.0
  current_q: 0.0
  speed: 0.0
  duty_cycle: 0.0
  charge_drawn: 28.0
  charge_regen: 0.0
  energy_drawn: 0.0
  energy_regen: 0.0
  displacement: 2727.0
  distance_traveled: 3361.0
  fault_code: 0
---
header: 
  seq: 36406
  stamp: 
    secs: 1625861161
    nsecs: 803769903
  frame_id: ''
state: 
  voltage_input: 11.6
  temperature_pcb: 0.0
  current_motor: 0.0
  current_input: 0.0
  current_q: 0.0
  speed: 0.0
  duty_cycle: 0.0
  charge_drawn: 28.0
  charge_regen: 0.0
  energy_drawn: 0.0
  energy_regen: 0.0
  displacement: 2727.0
  distance_traveled: 3361.0
  fault_code: 0
---
header: 
  seq: 36407
  stamp: 
    secs: 1625861161
    nsecs: 823221092
  frame_id: ''
state: 
  voltage_input: 11.6
  temperature_pcb: 0.0
  current_motor: 0.0
  current_input: 0.0
  current_q: 0.0
  speed: 0.0
  duty_cycle: 0.0
  charge_drawn: 28.0
  charge_regen: 0.0
  energy_drawn: 0.0
  energy_regen: 0.0
  displacement: 2727.0
  distance_traveled: 3361.0
  fault_code: 0
---
header: 
  seq: 36408
  stamp: 
    secs: 1625861161
    nsecs: 843473432
  frame_id: ''
state: 
  voltage_input: 11.6
  temperature_pcb: 0.0
  current_motor: 0.0
  current_input: 0.0
  current_q: 0.0
  speed: 0.0
  duty_cycle: 0.0
  charge_drawn: 28.0
  charge_regen: 0.0
  energy_drawn: 0.0
  energy_regen: 0.0
  displacement: 2727.0
  distance_traveled: 3361.0
  fault_code: 0
---
header: 
  seq: 36409
  stamp: 
    secs: 1625861161
    nsecs: 864268537
  frame_id: ''
state: 
  voltage_input: 11.6
  temperature_pcb: 0.0
  current_motor: 0.0
  current_input: 0.0
  current_q: 0.0
  speed: 0.0
  duty_cycle: -0.001
  charge_drawn: 28.0
  charge_regen: 0.0
  energy_drawn: 0.0
  energy_regen: 0.0
  displacement: 2727.0
  distance_traveled: 3361.0
  fault_code: 0
---
header: 
  seq: 36410
  stamp: 
    secs: 1625861161
    nsecs: 884520201
  frame_id: ''
state: 
  voltage_input: 11.7
  temperature_pcb: 0.0
  current_motor: 0.0
  current_input: 0.0
  current_q: 0.0
  speed: 0.0
  duty_cycle: 0.0
  charge_drawn: 28.0
  charge_regen: 0.0
  energy_drawn: 0.0
  energy_regen: 0.0
  displacement: 2727.0
  distance_traveled: 3361.0
  fault_code: 0
---
header: 
  seq: 36411
  stamp: 
    secs: 1625861161
    nsecs: 904562019
  frame_id: ''
state: 
  voltage_input: 11.6
  temperature_pcb: 0.0
  current_motor: 0.0
  current_input: 0.0
  current_q: 0.0
  speed: 0.0
  duty_cycle: 0.0
  charge_drawn: 28.0
  charge_regen: 0.0
  energy_drawn: 0.0
  energy_regen: 0.0
  displacement: 2727.0
  distance_traveled: 3361.0
  fault_code: 0
---
header: 
  seq: 36412
  stamp: 
    secs: 1625861161
    nsecs: 923944978
  frame_id: ''
state: 
  voltage_input: 11.6
  temperature_pcb: 0.0
  current_motor: 0.0
  current_input: 0.0
  current_q: 0.0
  speed: 0.0
  duty_cycle: 0.0
  charge_drawn: 28.0
  charge_regen: 0.0
  energy_drawn: 0.0
  energy_regen: 0.0
  displacement: 2727.0
  distance_traveled: 3361.0
  fault_code: 0
---
header: 
  seq: 36413
  stamp: 
    secs: 1625861161
    nsecs: 943280436
  frame_id: ''
state: 
  voltage_input: 11.6
  temperature_pcb: 0.0
  current_motor: 0.0
  current_input: 0.0
  current_q: 0.0
  speed: 1.0
  duty_cycle: 0.0
  charge_drawn: 28.0
  charge_regen: 0.0
  energy_drawn: 0.0
  energy_regen: 0.0
  displacement: 2727.0
  distance_traveled: 3361.0
  fault_code: 0
---
header: 
  seq: 36414
  stamp: 
    secs: 1625861161
    nsecs: 963930853
  frame_id: ''
state: 
  voltage_input: 11.6
  temperature_pcb: 0.0
  current_motor: 0.0
  current_input: 0.0
  current_q: 0.0
  speed: 0.0
  duty_cycle: 0.0
  charge_drawn: 28.0
  charge_regen: 0.0
  energy_drawn: 0.0
  energy_regen: 0.0
  displacement: 2727.0
  distance_traveled: 3361.0
  fault_code: 0
---
header: 
  seq: 36415
  stamp: 
    secs: 1625861161
    nsecs: 983883712
  frame_id: ''
state: 
  voltage_input: 11.6
  temperature_pcb: 0.0
  current_motor: 0.0
  current_input: 0.0
  current_q: 0.0
  speed: 0.0
  duty_cycle: 0.0
  charge_drawn: 28.0
  charge_regen: 0.0
  energy_drawn: 0.0
  energy_regen: 0.0
  displacement: 2727.0
  distance_traveled: 3361.0
  fault_code: 0
---
header: 
  seq: 36416
  stamp: 
    secs: 1625861162
    nsecs:   3914905
  frame_id: ''
state: 
  voltage_input: 11.6
  temperature_pcb: 0.0
  current_motor: 0.0
  current_input: 0.0
  current_q: 0.0
  speed: 0.0
  duty_cycle: 0.0
  charge_drawn: 28.0
  charge_regen: 0.0
  energy_drawn: 0.0
  energy_regen: 0.0
  displacement: 2727.0
  distance_traveled: 3361.0
  fault_code: 0
---
header: 
  seq: 36417
  stamp: 
    secs: 1625861162
    nsecs:  23634221
  frame_id: ''
state: 
  voltage_input: 11.6
  temperature_pcb: 0.0
  current_motor: 2.19
  current_input: 0.05
  current_q: 2.7
  speed: 214.0
  duty_cycle: 0.026
  charge_drawn: 28.0
  charge_regen: 0.0
  energy_drawn: 0.0
  energy_regen: 0.0
  displacement: 2728.0
  distance_traveled: 3362.0
  fault_code: 0
---
header: 
  seq: 36418
  stamp: 
    secs: 1625861162
    nsecs:  44160938
  frame_id: ''
state: 
  voltage_input: 11.6
  temperature_pcb: 0.0
  current_motor: 13.68
  current_input: 0.37
  current_q: 13.54
  speed: 171.0
  duty_cycle: 0.049
  charge_drawn: 28.0
  charge_regen: 0.0
  energy_drawn: 0.0
  energy_regen: 0.0
  displacement: 2728.0
  distance_traveled: 3362.0
  fault_code: 0
---
header: 
  seq: 36419
  stamp: 
    secs: 1625861162
    nsecs:  63530251
  frame_id: ''
state: 
  voltage_input: 11.7
  temperature_pcb: 0.0
  current_motor: 17.12
  current_input: 0.43
  current_q: 16.83
  speed: 164.0
  duty_cycle: 0.022
  charge_drawn: 28.0
  charge_regen: 0.0
  energy_drawn: 0.0
  energy_regen: 0.0
  displacement: 2729.0
  distance_traveled: 3363.0
  fault_code: 0
---
header: 
  seq: 36420
  stamp: 
    secs: 1625861162
    nsecs:  83972541
  frame_id: ''
state: 
  voltage_input: 11.6
  temperature_pcb: 0.0
  current_motor: 14.8
  current_input: 0.33
  current_q: 14.66
  speed: 175.0
  duty_cycle: 0.026
  charge_drawn: 28.0
  charge_regen: 0.0
  energy_drawn: 0.0
  energy_regen: 0.0
  displacement: 2729.0
  distance_traveled: 3363.0
  fault_code: 0
---
header: 
  seq: 36421
  stamp: 
    secs: 1625861162
    nsecs: 104117485
  frame_id: ''
state: 
  voltage_input: 11.6
  temperature_pcb: 0.0
  current_motor: 15.16
  current_input: 0.33
  current_q: 15.15
  speed: 204.0
  duty_cycle: 0.024
  charge_drawn: 28.0
  charge_regen: 0.0
  energy_drawn: 0.0
  energy_regen: 0.0
  displacement: 2730.0
  distance_traveled: 3364.0
  fault_code: 0
---
header: 
  seq: 36422
  stamp: 
    secs: 1625861162
    nsecs: 125162488
  frame_id: ''
state: 
  voltage_input: 11.7
  temperature_pcb: 0.0
  current_motor: 14.52
  current_input: 0.35
  current_q: 14.58
  speed: 242.0
  duty_cycle: 0.034
  charge_drawn: 28.0
  charge_regen: 0.0
  energy_drawn: 0.0
  energy_regen: 0.0
  displacement: 2730.0
  distance_traveled: 3364.0
  fault_code: 0
---
header: 
  seq: 36423
  stamp: 
    secs: 1625861162
    nsecs: 143964140
  frame_id: ''
state: 
  voltage_input: 11.6
  temperature_pcb: 0.0
  current_motor: 15.64
  current_input: 0.34
  current_q: 15.42
  speed: 282.0
  duty_cycle: 0.025
  charge_drawn: 28.0
  charge_regen: 0.0
  energy_drawn: 0.0
  energy_regen: 0.0
  displacement: 2731.0
  distance_traveled: 3365.0
  fault_code: 0
---
header: 
  seq: 36424
  stamp: 
    secs: 1625861162
    nsecs: 164058302
  frame_id: ''
state: 
  voltage_input: 11.6
  temperature_pcb: 0.0
  current_motor: 15.0
  current_input: 0.32
  current_q: 14.94
  speed: 306.0
  duty_cycle: 0.026
  charge_drawn: 28.0
  charge_regen: 0.0
  energy_drawn: 0.0
  energy_regen: 0.0
  displacement: 2732.0
  distance_traveled: 3366.0
  fault_code: 0
---
header: 
  seq: 36425
  stamp: 
    secs: 1625861162
    nsecs: 184236476
  frame_id: ''
state: 
  voltage_input: 11.6
  temperature_pcb: 0.0
  current_motor: 14.22
  current_input: 0.41
  current_q: 14.25
  speed: 541.0
  duty_cycle: 0.041
  charge_drawn: 28.0
  charge_regen: 0.0
  energy_drawn: 0.0
  energy_regen: 0.0
  displacement: 2734.0
  distance_traveled: 3368.0
  fault_code: 0
---
header: 
  seq: 36426
  stamp: 
    secs: 1625861162
    nsecs: 203798811
  frame_id: ''
state: 
  voltage_input: 11.6
  temperature_pcb: 0.0
  current_motor: 16.03
  current_input: 0.42
  current_q: 15.95
  speed: 512.0
  duty_cycle: 0.025
  charge_drawn: 28.0
  charge_regen: 0.0
  energy_drawn: 0.0
  energy_regen: 0.0
  displacement: 2735.0
  distance_traveled: 3369.0
  fault_code: 0
---
header: 
  seq: 36427
  stamp: 
    secs: 1625861162
    nsecs: 223855264
  frame_id: ''
state: 
  voltage_input: 11.6
  temperature_pcb: 0.0
  current_motor: 15.02
  current_input: 0.32
  current_q: 15.03
  speed: 433.0
  duty_cycle: 0.024
  charge_drawn: 28.0
  charge_regen: 0.0
  energy_drawn: 0.0
  energy_regen: 0.0
  displacement: 2736.0
  distance_traveled: 3370.0
  fault_code: 0
---
header: 
  seq: 36428
  stamp: 
    secs: 1625861162
    nsecs: 244682297
  frame_id: ''
state: 
  voltage_input: 11.6
  temperature_pcb: 0.0
  current_motor: 14.87
  current_input: 0.32
  current_q: 14.85
  speed: 378.0
  duty_cycle: 0.025
  charge_drawn: 28.0
  charge_regen: 0.0
  energy_drawn: 0.0
  energy_regen: 0.0
  displacement: 2736.0
  distance_traveled: 3370.0
  fault_code: 0
---
header: 
  seq: 36429
  stamp: 
    secs: 1625861162
    nsecs: 263941713
  frame_id: ''
state: 
  voltage_input: 11.6
  temperature_pcb: 0.0
  current_motor: 14.91
  current_input: 0.39
  current_q: 14.9
  speed: 471.0
  duty_cycle: 0.032
  charge_drawn: 28.0
  charge_regen: 0.0
  energy_drawn: 0.0
  energy_regen: 0.0
  displacement: 2737.0
  distance_traveled: 3371.0
  fault_code: 0
---
header: 
  seq: 36430
  stamp: 
    secs: 1625861162
    nsecs: 284863330
  frame_id: ''
state: 
  voltage_input: 11.6
  temperature_pcb: 0.0
  current_motor: 14.94
  current_input: 0.33
  current_q: 14.42
  speed: 493.0
  duty_cycle: 0.04
  charge_drawn: 28.0
  charge_regen: 0.0
  energy_drawn: 0.0
  energy_regen: 0.0
  displacement: 2739.0
  distance_traveled: 3373.0
  fault_code: 0
---
header: 
  seq: 36431
  stamp: 
    secs: 1625861162
    nsecs: 304621656
  frame_id: ''
state: 
  voltage_input: 11.6
  temperature_pcb: 0.0
  current_motor: 16.04
  current_input: 0.61
  current_q: 15.68
  speed: 941.0
  duty_cycle: 0.033
  charge_drawn: 28.0
  charge_regen: 0.0
  energy_drawn: 0.0
  energy_regen: 0.0
  displacement: 2743.0
  distance_traveled: 3377.0
  fault_code: 0
---
header: 
  seq: 36432
  stamp: 
    secs: 1625861162
    nsecs: 324766860
  frame_id: ''
state: 
  voltage_input: 11.6
  temperature_pcb: 0.0
  current_motor: 15.47
  current_input: 0.32
  current_q: 15.26
  speed: 739.0
  duty_cycle: 0.026
  charge_drawn: 28.0
  charge_regen: 0.0
  energy_drawn: 0.0
  energy_regen: 0.0
  displacement: 2743.0
  distance_traveled: 3377.0
  fault_code: 0
---
header: 
  seq: 36433
  stamp: 
    secs: 1625861162
    nsecs: 344042006
  frame_id: ''
state: 
  voltage_input: 11.5
  temperature_pcb: 0.0
  current_motor: 15.01
  current_input: 0.31
  current_q: 14.96
  speed: 594.0
  duty_cycle: 0.025
  charge_drawn: 28.0
  charge_regen: 0.0
  energy_drawn: 0.0
  energy_regen: 0.0
  displacement: 2744.0
  distance_traveled: 3378.0
  fault_code: 0
---
header: 
  seq: 36434
  stamp: 
    secs: 1625861162
    nsecs: 364458098
  frame_id: ''
state: 
  voltage_input: 11.6
  temperature_pcb: 0.0
  current_motor: 14.86
  current_input: 0.32
  current_q: 14.86
  speed: 501.0
  duty_cycle: 0.025
  charge_drawn: 28.0
  charge_regen: 0.0
  energy_drawn: 0.0
  energy_regen: 0.0
  displacement: 2744.0
  distance_traveled: 3378.0
  fault_code: 0
---
header: 
  seq: 36435
  stamp: 
    secs: 1625861162
    nsecs: 385891957
  frame_id: ''
state: 
  voltage_input: 11.6
  temperature_pcb: 0.0
  current_motor: 15.27
  current_input: 0.39
  current_q: 15.16
  speed: 536.0
  duty_cycle: 0.027
  charge_drawn: 28.0
  charge_regen: 0.0
  energy_drawn: 0.0
  energy_regen: 0.0
  displacement: 2746.0
  distance_traveled: 3380.0
  fault_code: 0
---
header: 
  seq: 36436
  stamp: 
    secs: 1625861162
    nsecs: 404612516
  frame_id: ''
state: 
  voltage_input: 11.6
  temperature_pcb: 0.0
  current_motor: 14.55
  current_input: 0.32
  current_q: 14.28
  speed: 492.0
  duty_cycle: 0.034
  charge_drawn: 28.0
  charge_regen: 0.0
  energy_drawn: 0.0
  energy_regen: 0.0
  displacement: 2746.0
  distance_traveled: 3380.0
  fault_code: 0
---
header: 
  seq: 36437
  stamp: 
    secs: 1625861162
    nsecs: 423878651
  frame_id: ''
state: 
  voltage_input: 11.6
  temperature_pcb: 0.0
  current_motor: 14.88
  current_input: 0.63
  current_q: 14.57
  speed: 998.0
  duty_cycle: 0.046
  charge_drawn: 28.0
  charge_regen: 0.0
  energy_drawn: 0.0
  energy_regen: 0.0
  displacement: 2751.0
  distance_traveled: 3385.0
  fault_code: 0
---
header: 
  seq: 36438
  stamp: 
    secs: 1625861162
    nsecs: 445773139
  frame_id: ''
state: 
  voltage_input: 11.6
  temperature_pcb: 0.0
  current_motor: 16.43
  current_input: 0.37
  current_q: 16.26
  speed: 782.0
  duty_cycle: 0.023
  charge_drawn: 28.0
  charge_regen: 0.0
  energy_drawn: 0.0
  energy_regen: 0.0
  displacement: 2751.0
  distance_traveled: 3385.0
  fault_code: 0
---
header: 
  seq: 36439
  stamp: 
    secs: 1625861162
    nsecs: 464577708
  frame_id: ''
state: 
  voltage_input: 11.6
  temperature_pcb: 0.0
  current_motor: 14.78
  current_input: 0.32
  current_q: 14.8
  speed: 642.0
  duty_cycle: 0.024
  charge_drawn: 28.0
  charge_regen: 0.0
  energy_drawn: 0.0
  energy_regen: 0.0
  displacement: 2752.0
  distance_traveled: 3386.0
  fault_code: 0
---
header: 
  seq: 36440
  stamp: 
    secs: 1625861162
    nsecs: 484214263
  frame_id: ''
state: 
  voltage_input: 11.6
  temperature_pcb: 0.0
  current_motor: 15.24
  current_input: 0.39
  current_q: 15.12
  speed: 699.0
  duty_cycle: 0.029
  charge_drawn: 28.0
  charge_regen: 0.0
  energy_drawn: 0.0
  energy_regen: 0.0
  displacement: 2754.0
  distance_traveled: 3388.0
  fault_code: 0
---
header: 
  seq: 36441
  stamp: 
    secs: 1625861162
    nsecs: 504325248
  frame_id: ''
state: 
  voltage_input: 11.6
  temperature_pcb: 0.0
  current_motor: 14.42
  current_input: 0.31
  current_q: 14.0
  speed: 640.0
  duty_cycle: 0.04
  charge_drawn: 28.0
  charge_regen: 0.0
  energy_drawn: 0.0
  energy_regen: 0.0
  displacement: 2755.0
  distance_traveled: 3389.0
  fault_code: 0
---
header: 
  seq: 36442
  stamp: 
    secs: 1625861162
    nsecs: 523969459
  frame_id: ''
state: 
  voltage_input: 11.7
  temperature_pcb: 0.0
  current_motor: 16.01
  current_input: 0.61
  current_q: 15.73
  speed: 1030.0
  duty_cycle: 0.032
  charge_drawn: 28.0
  charge_regen: 0.0
  energy_drawn: 0.0
  energy_regen: 0.0
  displacement: 2759.0
  distance_traveled: 3393.0
  fault_code: 0
---
header: 
  seq: 36443
  stamp: 
    secs: 1625861162
    nsecs: 543960652
  frame_id: ''
state: 
  voltage_input: 11.6
  temperature_pcb: 0.0
  current_motor: 15.35
  current_input: 0.32
  current_q: 15.18
  speed: 807.0
  duty_cycle: 0.026
  charge_drawn: 29.0
  charge_regen: 0.0
  energy_drawn: 0.0
  energy_regen: 0.0
  displacement: 2759.0
  distance_traveled: 3393.0
  fault_code: 0
---
header: 
  seq: 36444
  stamp: 
    secs: 1625861162
    nsecs: 564502473
  frame_id: ''
state: 
  voltage_input: 11.6
  temperature_pcb: 0.0
  current_motor: 14.98
  current_input: 0.32
  current_q: 14.95
  speed: 645.0
  duty_cycle: 0.024
  charge_drawn: 29.0
  charge_regen: 0.0
  energy_drawn: 0.0
  energy_regen: 0.0
  displacement: 2760.0
  distance_traveled: 3394.0
  fault_code: 0
---
header: 
  seq: 36445
  stamp: 
    secs: 1625861162
    nsecs: 585005233
  frame_id: ''
state: 
  voltage_input: 11.6
  temperature_pcb: 0.0
  current_motor: 14.43
  current_input: 0.32
  current_q: 14.33
  speed: 583.0
  duty_cycle: 0.034
  charge_drawn: 29.0
  charge_regen: 0.0
  energy_drawn: 0.0
  energy_regen: 0.0
  displacement: 2760.0
  distance_traveled: 3394.0
  fault_code: 0
---
header: 
  seq: 36446
  stamp: 
    secs: 1625861162
    nsecs: 604454025
  frame_id: ''
state: 
  voltage_input: 11.6
  temperature_pcb: 0.0
  current_motor: 15.55
  current_input: 0.39
  current_q: 15.2
  speed: 580.0
  duty_cycle: 0.031
  charge_drawn: 29.0
  charge_regen: 0.0
  energy_drawn: 0.0
  energy_regen: 0.0
  displacement: 2762.0
  distance_traveled: 3396.0
  fault_code: 0
---
header: 
  seq: 36447
  stamp: 
    secs: 1625861162
    nsecs: 624321675
  frame_id: ''
state: 
  voltage_input: 11.6
  temperature_pcb: 0.0
  current_motor: 15.42
  current_input: 0.5
  current_q: 14.88
  speed: 1004.0
  duty_cycle: 0.04
  charge_drawn: 29.0
  charge_regen: 0.0
  energy_drawn: 0.0
  energy_regen: 0.0
  displacement: 2766.0
  distance_traveled: 3400.0
  fault_code: 0
---
header: 
  seq: 36448
  stamp: 
    secs: 1625861162
    nsecs: 643855677
  frame_id: ''
state: 
  voltage_input: 11.6
  temperature_pcb: 0.0
  current_motor: 15.76
  current_input: 0.34
  current_q: 15.61
  speed: 788.0
  duty_cycle: 0.027
  charge_drawn: 29.0
  charge_regen: 0.0
  energy_drawn: 0.0
  energy_regen: 0.0
  displacement: 2766.0
  distance_traveled: 3400.0
  fault_code: 0
---
header: 
  seq: 36449
  stamp: 
    secs: 1625861162
    nsecs: 663897339
  frame_id: ''
state: 
  voltage_input: 11.6
  temperature_pcb: 0.0
  current_motor: 14.94
  current_input: 0.32
  current_q: 14.92
  speed: 633.0
  duty_cycle: 0.025
  charge_drawn: 29.0
  charge_regen: 0.0
  energy_drawn: 0.0
  energy_regen: 0.0
  displacement: 2767.0
  distance_traveled: 3401.0
  fault_code: 0
---
header: 
  seq: 36450
  stamp: 
    secs: 1625861162
    nsecs: 685283646
  frame_id: ''
state: 
  voltage_input: 11.7
  temperature_pcb: 0.0
  current_motor: 14.33
  current_input: 0.33
  current_q: 14.18
  speed: 591.0
  duty_cycle: 0.037
  charge_drawn: 29.0
  charge_regen: 0.0
  energy_drawn: 0.0
  energy_regen: 0.0
  displacement: 2768.0
  distance_traveled: 3402.0
  fault_code: 0
---
header: 
  seq: 36451
  stamp: 
    secs: 1625861162
    nsecs: 704689314
  frame_id: ''
state: 
  voltage_input: 11.6
  temperature_pcb: 0.0
  current_motor: 15.76
  current_input: 0.38
  current_q: 15.44
  speed: 567.0
  duty_cycle: 0.032
  charge_drawn: 29.0
  charge_regen: 0.0
  energy_drawn: 0.0
  energy_regen: 0.0
  displacement: 2769.0
  distance_traveled: 3403.0
  fault_code: 0
---
header: 
  seq: 36452
  stamp: 
    secs: 1625861162
    nsecs: 724881550
  frame_id: ''
state: 
  voltage_input: 11.6
  temperature_pcb: 0.0
  current_motor: 15.3
  current_input: 0.52
  current_q: 14.86
  speed: 996.0
  duty_cycle: 0.039
  charge_drawn: 29.0
  charge_regen: 0.0
  energy_drawn: 0.0
  energy_regen: 0.0
  displacement: 2773.0
  distance_traveled: 3407.0
  fault_code: 0
---
header: 
  seq: 36453
  stamp: 
    secs: 1625861162
    nsecs: 743864610
  frame_id: ''
state: 
  voltage_input: 11.6
  temperature_pcb: 0.0
  current_motor: 15.73
  current_input: 0.33
  current_q: 15.57
  speed: 770.0
  duty_cycle: 0.026
  charge_drawn: 29.0
  charge_regen: 0.0
  energy_drawn: 0.0
  energy_regen: 0.0
  displacement: 2773.0
  distance_traveled: 3407.0
  fault_code: 0
---
header: 
  seq: 36454
  stamp: 
    secs: 1625861162
    nsecs: 764540964
  frame_id: ''
state: 
  voltage_input: 11.7
  temperature_pcb: 0.0
  current_motor: 14.94
  current_input: 0.32
  current_q: 14.91
  speed: 622.0
  duty_cycle: 0.025
  charge_drawn: 29.0
  charge_regen: 0.0
  energy_drawn: 0.0
  energy_regen: 0.0
  displacement: 2774.0
  distance_traveled: 3408.0
  fault_code: 0
---
header: 
  seq: 36455
  stamp: 
    secs: 1625861162
    nsecs: 784823357
  frame_id: ''
state: 
  voltage_input: 11.6
  temperature_pcb: 0.0
  current_motor: 14.67
  current_input: 0.33
  current_q: 14.61
  speed: 546.0
  duty_cycle: 0.03
  charge_drawn: 29.0
  charge_regen: 0.0
  energy_drawn: 0.0
  energy_regen: 0.0
  displacement: 2775.0
  distance_traveled: 3409.0
  fault_code: 0
---
header: 
  seq: 36456
  stamp: 
    secs: 1625861162
    nsecs: 803629488
  frame_id: ''
state: 
  voltage_input: 11.7
  temperature_pcb: 0.0
  current_motor: 15.39
  current_input: 0.37
  current_q: 14.99
  speed: 532.0
  duty_cycle: 0.03
  charge_drawn: 29.0
  charge_regen: 0.0
  energy_drawn: 0.0
  energy_regen: 0.0
  displacement: 2776.0
  distance_traveled: 3412.0
  fault_code: 0
---
header: 
  seq: 36457
  stamp: 
    secs: 1625861162
    nsecs: 823166251
  frame_id: ''
state: 
  voltage_input: 11.6
  temperature_pcb: 0.0
  current_motor: 14.5
  current_input: 0.5
  current_q: 14.21
  speed: 973.0
  duty_cycle: 0.051
  charge_drawn: 29.0
  charge_regen: 0.0
  energy_drawn: 0.0
  energy_regen: 0.0
  displacement: 2780.0
  distance_traveled: 3416.0
  fault_code: 0
---
header: 
  seq: 36458
  stamp: 
    secs: 1625861162
    nsecs: 844175784
  frame_id: ''
state: 
  voltage_input: 11.6
  temperature_pcb: 0.0
  current_motor: 16.51
  current_input: 0.39
  current_q: 16.27
  speed: 744.0
  duty_cycle: 0.024
  charge_drawn: 29.0
  charge_regen: 0.0
  energy_drawn: 0.0
  energy_regen: 0.0
  displacement: 2780.0
  distance_traveled: 3416.0
  fault_code: 0
---
header: 
  seq: 36459
  stamp: 
    secs: 1625861162
    nsecs: 863800516
  frame_id: ''
state: 
  voltage_input: 11.7
  temperature_pcb: 0.0
  current_motor: 14.9
  current_input: 0.32
  current_q: 14.88
  speed: 608.0
  duty_cycle: 0.024
  charge_drawn: 29.0
  charge_regen: 0.0
  energy_drawn: 0.0
  energy_regen: 0.0
  displacement: 2781.0
  distance_traveled: 3417.0
  fault_code: 0
---
header: 
  seq: 36460
  stamp: 
    secs: 1625861162
    nsecs: 884445464
  frame_id: ''
state: 
  voltage_input: 11.6
  temperature_pcb: 0.0
  current_motor: 14.75
  current_input: 0.32
  current_q: 14.74
  speed: 522.0
  duty_cycle: 0.027
  charge_drawn: 29.0
  charge_regen: 0.0
  energy_drawn: 0.0
  energy_regen: 0.0
  displacement: 2781.0
  distance_traveled: 3417.0
  fault_code: 0
---
header: 
  seq: 36461
  stamp: 
    secs: 1625861162
    nsecs: 904025611
  frame_id: ''
state: 
  voltage_input: 11.6
  temperature_pcb: 0.0
  current_motor: 15.64
  current_input: 0.39
  current_q: 15.29
  speed: 539.0
  duty_cycle: 0.024
  charge_drawn: 29.0
  charge_regen: 0.0
  energy_drawn: 0.0
  energy_regen: 0.0
  displacement: 2782.0
  distance_traveled: 3418.0
  fault_code: 0
---
header: 
  seq: 36462
  stamp: 
    secs: 1625861162
    nsecs: 924616861
  frame_id: ''
state: 
  voltage_input: 11.7
  temperature_pcb: 0.0
  current_motor: 14.31
  current_input: 0.44
  current_q: 13.8
  speed: 956.0
  duty_cycle: 0.05
  charge_drawn: 29.0
  charge_regen: 0.0
  energy_drawn: 0.0
  energy_regen: 0.0
  displacement: 2787.0
  distance_traveled: 3423.0
  fault_code: 0
---
header: 
  seq: 36463
  stamp: 
    secs: 1625861162
    nsecs: 943741016
  frame_id: ''
state: 
  voltage_input: 11.7
  temperature_pcb: 0.0
  current_motor: 16.8
  current_input: 0.44
  current_q: 16.68
  speed: 798.0
  duty_cycle: 0.021
  charge_drawn: 29.0
  charge_regen: 0.0
  energy_drawn: 0.0
  energy_regen: 0.0
  displacement: 2787.0
  distance_traveled: 3423.0
  fault_code: 0
---
header: 
  seq: 36464
  stamp: 
    secs: 1625861162
    nsecs: 964534714
  frame_id: ''
state: 
  voltage_input: 11.6
  temperature_pcb: 0.0
  current_motor: 14.65
  current_input: 0.31
  current_q: 14.63
  speed: 642.0
  duty_cycle: 0.025
  charge_drawn: 29.0
  charge_regen: 0.0
  energy_drawn: 0.0
  energy_regen: 0.0
  displacement: 2788.0
  distance_traveled: 3424.0
  fault_code: 0
---
header: 
  seq: 36465
  stamp: 
    secs: 1625861162
    nsecs: 984977369
  frame_id: ''
state: 
  voltage_input: 11.6
  temperature_pcb: 0.0
  current_motor: 13.84
  current_input: 0.33
  current_q: 13.69
  speed: 654.0
  duty_cycle: 0.044
  charge_drawn: 29.0
  charge_regen: 0.0
  energy_drawn: 0.0
  energy_regen: 0.0
  displacement: 2789.0
  distance_traveled: 3425.0
  fault_code: 0
---
header: 
  seq: 36466
  stamp: 
    secs: 1625861163
    nsecs:   3326466
  frame_id: ''
state: 
  voltage_input: 11.6
  temperature_pcb: 0.0
  current_motor: 16.25
  current_input: 0.39
  current_q: 15.86
  speed: 597.0
  duty_cycle: 0.033
  charge_drawn: 29.0
  charge_regen: 0.0
  energy_drawn: 0.0
  energy_regen: 0.0
  displacement: 2790.0
  distance_traveled: 3426.0
  fault_code: 0
---
header: 
  seq: 36467
  stamp: 
    secs: 1625861163
    nsecs:  24490272
  frame_id: ''
state: 
  voltage_input: 11.7
  temperature_pcb: 0.0
  current_motor: 15.65
  current_input: 0.52
  current_q: 15.3
  speed: 1005.0
  duty_cycle: 0.032
  charge_drawn: 29.0
  charge_regen: 0.0
  energy_drawn: 0.0
  energy_regen: 0.0
  displacement: 2794.0
  distance_traveled: 3430.0
  fault_code: 0
---
header: 
  seq: 36468
  stamp: 
    secs: 1625861163
    nsecs:  43881928
  frame_id: ''
state: 
  voltage_input: 11.6
  temperature_pcb: 0.0
  current_motor: 15.38
  current_input: 0.31
  current_q: 15.15
  speed: 779.0
  duty_cycle: 0.026
  charge_drawn: 29.0
  charge_regen: 0.0
  energy_drawn: 0.0
  energy_regen: 0.0
  displacement: 2795.0
  distance_traveled: 3431.0
  fault_code: 0
---
header: 
  seq: 36469
  stamp: 
    secs: 1625861163
    nsecs:  66173868
  frame_id: ''
state: 
  voltage_input: 11.6
  temperature_pcb: 0.0
  current_motor: 14.84
  current_input: 0.33
  current_q: 14.8
  speed: 639.0
  duty_cycle: 0.027
  charge_drawn: 29.0
  charge_regen: 0.0
  energy_drawn: 0.0
  energy_regen: 0.0
  displacement: 2795.0
  distance_traveled: 3431.0
  fault_code: 0
---
header: 
  seq: 36470
  stamp: 
    secs: 1625861163
    nsecs:  84544788
  frame_id: ''
state: 
  voltage_input: 11.7
  temperature_pcb: 0.0
  current_motor: 15.94
  current_input: 0.4
  current_q: 15.65
  speed: 632.0
  duty_cycle: 0.022
  charge_drawn: 29.0
  charge_regen: 0.0
  energy_drawn: 0.0
  energy_regen: 0.0
  displacement: 2796.0
  distance_traveled: 3432.0
  fault_code: 0
---
header: 
  seq: 36471
  stamp: 
    secs: 1625861163
    nsecs: 104999213
  frame_id: ''
state: 
  voltage_input: 11.6
  temperature_pcb: 0.0
  current_motor: 14.28
  current_input: 0.42
  current_q: 13.69
  speed: 1006.0
  duty_cycle: 0.046
  charge_drawn: 29.0
  charge_regen: 0.0
  energy_drawn: 0.0
  energy_regen: 0.0
  displacement: 2800.0
  distance_traveled: 3436.0
  fault_code: 0
---
header: 
  seq: 36472
  stamp: 
    secs: 1625861163
    nsecs: 124494725
  frame_id: ''
state: 
  voltage_input: 11.7
  temperature_pcb: 0.0
  current_motor: 16.47
  current_input: 0.44
  current_q: 16.23
  speed: 852.0
  duty_cycle: 0.022
  charge_drawn: 29.0
  charge_regen: 0.0
  energy_drawn: 0.0
  energy_regen: 0.0
  displacement: 2801.0
  distance_traveled: 3437.0
  fault_code: 0
---
header: 
  seq: 36473
  stamp: 
    secs: 1625861163
    nsecs: 144717065
  frame_id: ''
state: 
  voltage_input: 11.6
  temperature_pcb: 0.0
  current_motor: 14.77
  current_input: 0.31
  current_q: 14.74
  speed: 685.0
  duty_cycle: 0.024
  charge_drawn: 29.0
  charge_regen: 0.0
  energy_drawn: 0.0
  energy_regen: 0.0
  displacement: 2802.0
  distance_traveled: 3438.0
  fault_code: 0
---
header: 
  seq: 36474
  stamp: 
    secs: 1625861163
    nsecs: 165907069
  frame_id: ''
state: 
  voltage_input: 11.7
  temperature_pcb: 0.0
  current_motor: 14.77
  current_input: 0.32
  current_q: 14.78
  speed: 567.0
  duty_cycle: 0.026
  charge_drawn: 29.0
  charge_regen: 0.0
  energy_drawn: 0.0
  energy_regen: 0.0
  displacement: 2802.0
  distance_traveled: 3438.0
  fault_code: 0
---
header: 
  seq: 36475
  stamp: 
    secs: 1625861163
    nsecs: 185486332
  frame_id: ''
state: 
  voltage_input: 11.6
  temperature_pcb: 0.0
  current_motor: 15.43
  current_input: 0.4
  current_q: 15.31
  speed: 598.0
  duty_cycle: 0.027
  charge_drawn: 29.0
  charge_regen: 0.0
  energy_drawn: 0.0
  energy_regen: 0.0
  displacement: 2803.0
  distance_traveled: 3439.0
  fault_code: 0
---
header: 
  seq: 36476
  stamp: 
    secs: 1625861163
    nsecs: 203939023
  frame_id: ''
state: 
  voltage_input: 11.6
  temperature_pcb: 0.0
  current_motor: 14.18
  current_input: 0.33
  current_q: 13.82
  speed: 653.0
  duty_cycle: 0.044
  charge_drawn: 29.0
  charge_regen: 0.0
  energy_drawn: 0.0
  energy_regen: 0.0
  displacement: 2805.0
  distance_traveled: 3441.0
  fault_code: 0
---
header: 
  seq: 36477
  stamp: 
    secs: 1625861163
    nsecs: 224879181
  frame_id: ''
state: 
  voltage_input: 11.6
  temperature_pcb: 0.0
  current_motor: 16.56
  current_input: 0.59
  current_q: 16.13
  speed: 962.0
  duty_cycle: 0.027
  charge_drawn: 29.0
  charge_regen: 0.0
  energy_drawn: 0.0
  energy_regen: 0.0
  displacement: 2809.0
  distance_traveled: 3445.0
  fault_code: 0
---
header: 
  seq: 36478
  stamp: 
    secs: 1625861163
    nsecs: 244638341
  frame_id: ''
state: 
  voltage_input: 11.6
  temperature_pcb: 0.0
  current_motor: 15.07
  current_input: 0.32
  current_q: 14.98
  speed: 762.0
  duty_cycle: 0.025
  charge_drawn: 29.0
  charge_regen: 0.0
  energy_drawn: 0.0
  energy_regen: 0.0
  displacement: 2809.0
  distance_traveled: 3445.0
  fault_code: 0
---
header: 
  seq: 36479
  stamp: 
    secs: 1625861163
    nsecs: 263954164
  frame_id: ''
state: 
  voltage_input: 11.7
  temperature_pcb: 0.0
  current_motor: 14.89
  current_input: 0.31
  current_q: 14.87
  speed: 619.0
  duty_cycle: 0.025
  charge_drawn: 29.0
  charge_regen: 0.0
  energy_drawn: 0.0
  energy_regen: 0.0
  displacement: 2810.0
  distance_traveled: 3446.0
  fault_code: 0
---
header: 
  seq: 36480
  stamp: 
    secs: 1625861163
    nsecs: 284204577
  frame_id: ''
state: 
  voltage_input: 11.6
  temperature_pcb: 0.0
  current_motor: 14.79
  current_input: 0.32
  current_q: 14.78
  speed: 529.0
  duty_cycle: 0.027
  charge_drawn: 29.0
  charge_regen: 0.0
  energy_drawn: 0.0
  energy_regen: 0.0
  displacement: 2810.0
  distance_traveled: 3446.0
  fault_code: 0
---
header: 
  seq: 36481
  stamp: 
    secs: 1625861163
    nsecs: 303700193
  frame_id: ''
state: 
  voltage_input: 11.6
  temperature_pcb: 0.0
  current_motor: 15.6
  current_input: 0.38
  current_q: 15.15
  speed: 535.0
  duty_cycle: 0.025
  charge_drawn: 29.0
  charge_regen: 0.0
  energy_drawn: 0.0
  energy_regen: 0.0
  displacement: 2811.0
  distance_traveled: 3447.0
  fault_code: 0
---
header: 
  seq: 36482
  stamp: 
    secs: 1625861163
    nsecs: 324212015
  frame_id: ''
state: 
  voltage_input: 11.6
  temperature_pcb: 0.0
  current_motor: 14.18
  current_input: 0.45
  current_q: 13.67
  speed: 977.0
  duty_cycle: 0.055
  charge_drawn: 29.0
  charge_regen: 0.0
  energy_drawn: 0.0
  energy_regen: 0.0
  displacement: 2816.0
  distance_traveled: 3452.0
  fault_code: 0
---
header: 
  seq: 36483
  stamp: 
    secs: 1625861163
    nsecs: 344846546
  frame_id: ''
state: 
  voltage_input: 11.6
  temperature_pcb: 0.0
  current_motor: 16.79
  current_input: 0.5
  current_q: 16.65
  speed: 862.0
  duty_cycle: 0.024
  charge_drawn: 29.0
  charge_regen: 0.0
  energy_drawn: 0.0
  energy_regen: 0.0
  displacement: 2817.0
  distance_traveled: 3453.0
  fault_code: 0
---
header: 
  seq: 36484
  stamp: 
    secs: 1625861163
    nsecs: 364527840
  frame_id: ''
state: 
  voltage_input: 11.6
  temperature_pcb: 0.0
  current_motor: 14.83
  current_input: 0.33
  current_q: 14.86
  speed: 711.0
  duty_cycle: 0.024
  charge_drawn: 29.0
  charge_regen: 0.0
  energy_drawn: 0.0
  energy_regen: 0.0
  displacement: 2818.0
  distance_traveled: 3454.0
  fault_code: 0
---
header: 
  seq: 36485
  stamp: 
    secs: 1625861163
    nsecs: 384563669
  frame_id: ''
state: 
  voltage_input: 11.7
  temperature_pcb: 0.0
  current_motor: 14.78
  current_input: 0.32
  current_q: 14.76
  speed: 594.0
  duty_cycle: 0.026
  charge_drawn: 29.0
  charge_regen: 0.0
  energy_drawn: 0.0
  energy_regen: 0.0
  displacement: 2818.0
  distance_traveled: 3454.0
  fault_code: 0
---
header: 
  seq: 36486
  stamp: 
    secs: 1625861163
    nsecs: 404887208
  frame_id: ''
state: 
  voltage_input: 11.6
  temperature_pcb: 0.0
  current_motor: 15.33
  current_input: 0.4
  current_q: 15.21
  speed: 629.0
  duty_cycle: 0.03
  charge_drawn: 29.0
  charge_regen: 0.0
  energy_drawn: 0.0
  energy_regen: 0.0
  displacement: 2819.0
  distance_traveled: 3455.0
  fault_code: 0
---
header: 
  seq: 36487
  stamp: 
    secs: 1625861163
    nsecs: 424611940
  frame_id: ''
state: 
  voltage_input: 11.7
  temperature_pcb: 0.0
  current_motor: 14.44
  current_input: 0.34
  current_q: 14.02
  speed: 660.0
  duty_cycle: 0.041
  charge_drawn: 29.0
  charge_regen: 0.0
  energy_drawn: 0.0
  energy_regen: 0.0
  displacement: 2821.0
  distance_traveled: 3457.0
  fault_code: 0
---
header: 
  seq: 36488
  stamp: 
    secs: 1625861163
    nsecs: 444261620
  frame_id: ''
state: 
  voltage_input: 11.6
  temperature_pcb: 0.0
  current_motor: 16.09
  current_input: 0.61
  current_q: 15.73
  speed: 1043.0
  duty_cycle: 0.033
  charge_drawn: 29.0
  charge_regen: 0.0
  energy_drawn: 0.0
  energy_regen: 0.0
  displacement: 2825.0
  distance_traveled: 3461.0
  fault_code: 0
---
header: 
  seq: 36489
  stamp: 
    secs: 1625861163
    nsecs: 463792965
  frame_id: ''
state: 
  voltage_input: 11.6
  temperature_pcb: 0.0
  current_motor: 15.35
  current_input: 0.3
  current_q: 15.11
  speed: 791.0
  duty_cycle: 0.028
  charge_drawn: 29.0
  charge_regen: 0.0
  energy_drawn: 0.0
  energy_regen: 0.0
  displacement: 2825.0
  distance_traveled: 3461.0
  fault_code: 0
---
header: 
  seq: 36490
  stamp: 
    secs: 1625861163
    nsecs: 484736509
  frame_id: ''
state: 
  voltage_input: 11.6
  temperature_pcb: 0.0
  current_motor: 15.05
  current_input: 0.31
  current_q: 15.02
  speed: 628.0
  duty_cycle: 0.025
  charge_drawn: 30.0
  charge_regen: 0.0
  energy_drawn: 0.0
  energy_regen: 0.0
  displacement: 2826.0
  distance_traveled: 3462.0
  fault_code: 0
---
header: 
  seq: 36491
  stamp: 
    secs: 1625861163
    nsecs: 503766809
  frame_id: ''
state: 
  voltage_input: 11.7
  temperature_pcb: 0.0
  current_motor: 14.84
  current_input: 0.32
  current_q: 14.83
  speed: 533.0
  duty_cycle: 0.026
  charge_drawn: 30.0
  charge_regen: 0.0
  energy_drawn: 0.0
  energy_regen: 0.0
  displacement: 2826.0
  distance_traveled: 3462.0
  fault_code: 0
---
header: 
  seq: 36492
  stamp: 
    secs: 1625861163
    nsecs: 524150140
  frame_id: ''
state: 
  voltage_input: 11.7
  temperature_pcb: 0.0
  current_motor: 15.49
  current_input: 0.39
  current_q: 15.37
  speed: 552.0
  duty_cycle: 0.025
  charge_drawn: 30.0
  charge_regen: 0.0
  energy_drawn: 0.0
  energy_regen: 0.0
  displacement: 2828.0
  distance_traveled: 3464.0
  fault_code: 0
---
header: 
  seq: 36493
  stamp: 
    secs: 1625861163
    nsecs: 544147635
  frame_id: ''
state: 
  voltage_input: 11.5
  temperature_pcb: 0.0
  current_motor: 13.82
  current_input: 0.34
  current_q: 13.4
  speed: 738.0
  duty_cycle: 0.05
  charge_drawn: 30.0
  charge_regen: 0.0
  energy_drawn: 0.0
  energy_regen: 0.0
  displacement: 2830.0
  distance_traveled: 3468.0
  fault_code: 0
---
header: 
  seq: 36494
  stamp: 
    secs: 1625861163
    nsecs: 564162578
  frame_id: ''
state: 
  voltage_input: 11.6
  temperature_pcb: 0.0
  current_motor: 16.65
  current_input: 0.67
  current_q: 16.28
  speed: 1043.0
  duty_cycle: 0.033
  charge_drawn: 30.0
  charge_regen: 0.0
  energy_drawn: 0.0
  energy_regen: 0.0
  displacement: 2834.0
  distance_traveled: 3472.0
  fault_code: 0
---
header: 
  seq: 36495
  stamp: 
    secs: 1625861163
    nsecs: 584699296
  frame_id: ''
state: 
  voltage_input: 11.6
  temperature_pcb: 0.0
  current_motor: 15.36
  current_input: 0.33
  current_q: 15.17
  speed: 819.0
  duty_cycle: 0.027
  charge_drawn: 30.0
  charge_regen: 0.0
  energy_drawn: 0.0
  energy_regen: 0.0
  displacement: 2834.0
  distance_traveled: 3472.0
  fault_code: 0
---
header: 
  seq: 36496
  stamp: 
    secs: 1625861163
    nsecs: 604530800
  frame_id: ''
state: 
  voltage_input: 11.6
  temperature_pcb: 0.0
  current_motor: 15.06
  current_input: 0.32
  current_q: 15.03
  speed: 656.0
  duty_cycle: 0.024
  charge_drawn: 30.0
  charge_regen: 0.0
  energy_drawn: 0.0
  energy_regen: 0.0
  displacement: 2835.0
  distance_traveled: 3473.0
  fault_code: 0
---
header: 
  seq: 36497
  stamp: 
    secs: 1625861163
    nsecs: 623752976
  frame_id: ''
state: 
  voltage_input: 11.6
  temperature_pcb: 0.0
  current_motor: 14.82
  current_input: 0.32
  current_q: 14.81
  speed: 549.0
  duty_cycle: 0.025
  charge_drawn: 30.0
  charge_regen: 0.0
  energy_drawn: 0.0
  energy_regen: 0.0
  displacement: 2835.0
  distance_traveled: 3473.0
  fault_code: 0
---
header: 
  seq: 36498
  stamp: 
    secs: 1625861163
    nsecs: 643830732
  frame_id: ''
state: 
  voltage_input: 11.7
  temperature_pcb: 0.0
  current_motor: 14.87
  current_input: 0.39
  current_q: 14.88
  speed: 605.0
  duty_cycle: 0.032
  charge_drawn: 30.0
  charge_regen: 0.0
  energy_drawn: 0.0
  energy_regen: 0.0
  displacement: 2837.0
  distance_traveled: 3475.0
  fault_code: 0
---
header: 
  seq: 36499
  stamp: 
    secs: 1625861163
    nsecs: 665108028
  frame_id: ''
state: 
  voltage_input: 11.6
  temperature_pcb: 0.0
  current_motor: 14.79
  current_input: 0.33
  current_q: 14.3
  speed: 597.0
  duty_cycle: 0.041
  charge_drawn: 30.0
  charge_regen: 0.0
  energy_drawn: 0.0
  energy_regen: 0.0
  displacement: 2838.0
  distance_traveled: 3478.0
  fault_code: 0
---
header: 
  seq: 36500
  stamp: 
    secs: 1625861163
    nsecs: 684047911
  frame_id: ''
state: 
  voltage_input: 11.6
  temperature_pcb: 0.0
  current_motor: 15.59
  current_input: 0.67
  current_q: 15.25
  speed: 1079.0
  duty_cycle: 0.042
  charge_drawn: 30.0
  charge_regen: 0.0
  energy_drawn: 0.0
  energy_regen: 0.0
  displacement: 2843.0
  distance_traveled: 3483.0
  fault_code: 0
---
header: 
  seq: 36501
  stamp: 
    secs: 1625861163
    nsecs: 704939787
  frame_id: ''
state: 
  voltage_input: 11.7
  temperature_pcb: 0.0
  current_motor: 15.92
  current_input: 0.36
  current_q: 15.65
  speed: 862.0
  duty_cycle: 0.029
  charge_drawn: 30.0
  charge_regen: 0.0
  energy_drawn: 0.0
  energy_regen: 0.0
  displacement: 2843.0
  distance_traveled: 3483.0
  fault_code: 0
---
header: 
  seq: 36502
  stamp: 
    secs: 1625861163
    nsecs: 723648106
  frame_id: ''
state: 
  voltage_input: 11.7
  temperature_pcb: 0.0
  current_motor: 15.15
  current_input: 0.33
  current_q: 15.15
  speed: 700.0
  duty_cycle: 0.024
  charge_drawn: 30.0
  charge_regen: 0.0
  energy_drawn: 0.0
  energy_regen: 0.0
  displacement: 2844.0
  distance_traveled: 3484.0
  fault_code: 0
---
header: 
  seq: 36503
  stamp: 
    secs: 1625861163
    nsecs: 744629254
  frame_id: ''
state: 
  voltage_input: 11.6
  temperature_pcb: 0.0
  current_motor: 14.83
  current_input: 0.31
  current_q: 14.81
  speed: 569.0
  duty_cycle: 0.025
  charge_drawn: 30.0
  charge_regen: 0.0
  energy_drawn: 0.0
  energy_regen: 0.0
  displacement: 2844.0
  distance_traveled: 3484.0
  fault_code: 0
---
header: 
  seq: 36504
  stamp: 
    secs: 1625861163
    nsecs: 764655968
  frame_id: ''
state: 
  voltage_input: 11.6
  temperature_pcb: 0.0
  current_motor: 13.99
  current_input: 0.34
  current_q: 13.85
  speed: 579.0
  duty_cycle: 0.043
  charge_drawn: 30.0
  charge_regen: 0.0
  energy_drawn: 0.0
  energy_regen: 0.0
  displacement: 2845.0
  distance_traveled: 3485.0
  fault_code: 0
---
header: 
  seq: 36505
  stamp: 
    secs: 1625861163
    nsecs: 784207417
  frame_id: ''
state: 
  voltage_input: 11.6
  temperature_pcb: 0.0
  current_motor: 16.15
  current_input: 0.38
  current_q: 15.93
  speed: 511.0
  duty_cycle: 0.029
  charge_drawn: 30.0
  charge_regen: 0.0
  energy_drawn: 0.0
  energy_regen: 0.0
  displacement: 2846.0
  distance_traveled: 3488.0
  fault_code: 0
---
header: 
  seq: 36506
  stamp: 
    secs: 1625861163
    nsecs: 804799917
  frame_id: ''
state: 
  voltage_input: 11.7
  temperature_pcb: 0.0
  current_motor: 14.35
  current_input: 0.47
  current_q: 13.62
  speed: 1017.0
  duty_cycle: 0.06
  charge_drawn: 30.0
  charge_regen: 0.0
  energy_drawn: 0.0
  energy_regen: 0.0
  displacement: 2851.0
  distance_traveled: 3493.0
  fault_code: 0
---
header: 
  seq: 36507
  stamp: 
    secs: 1625861163
    nsecs: 823980374
  frame_id: ''
state: 
  voltage_input: 11.6
  temperature_pcb: 0.0
  current_motor: 17.27
  current_input: 0.61
  current_q: 17.2
  speed: 984.0
  duty_cycle: 0.022
  charge_drawn: 30.0
  charge_regen: 0.0
  energy_drawn: 0.0
  energy_regen: 0.0
  displacement: 2853.0
  distance_traveled: 3495.0
  fault_code: 0
---
header: 
  seq: 36508
  stamp: 
    secs: 1625861163
    nsecs: 845386057
  frame_id: ''
state: 
  voltage_input: 11.6
  temperature_pcb: 0.0
  current_motor: 14.69
  current_input: 0.34
  current_q: 14.71
  speed: 817.0
  duty_cycle: 0.025
  charge_drawn: 30.0
  charge_regen: 0.0
  energy_drawn: 0.0
  energy_regen: 0.0
  displacement: 2853.0
  distance_traveled: 3495.0
  fault_code: 0
---
header: 
  seq: 36509
  stamp: 
    secs: 1625861163
    nsecs: 864914798
  frame_id: ''
state: 
  voltage_input: 11.7
  temperature_pcb: 0.0
  current_motor: 14.87
  current_input: 0.32
  current_q: 14.84
  speed: 661.0
  duty_cycle: 0.025
  charge_drawn: 30.0
  charge_regen: 0.0
  energy_drawn: 0.0
  energy_regen: 0.0
  displacement: 2854.0
  distance_traveled: 3496.0
  fault_code: 0
---
header: 
  seq: 36510
  stamp: 
    secs: 1625861163
    nsecs: 885232139
  frame_id: ''
state: 
  voltage_input: 11.6
  temperature_pcb: 0.0
  current_motor: 14.82
  current_input: 0.33
  current_q: 14.82
  speed: 564.0
  duty_cycle: 0.026
  charge_drawn: 30.0
  charge_regen: 0.0
  energy_drawn: 0.0
  energy_regen: 0.0
  displacement: 2854.0
  distance_traveled: 3496.0
  fault_code: 0
---
header: 
  seq: 36511
  stamp: 
    secs: 1625861163
    nsecs: 904708432
  frame_id: ''
state: 
  voltage_input: 11.6
  temperature_pcb: 0.0
  current_motor: 15.57
  current_input: 0.39
  current_q: 15.4
  speed: 576.0
  duty_cycle: 0.025
  charge_drawn: 30.0
  charge_regen: 0.0
  energy_drawn: 0.0
  energy_regen: 0.0
  displacement: 2856.0
  distance_traveled: 3498.0
  fault_code: 0
---
header: 
  seq: 36512
  stamp: 
    secs: 1625861163
    nsecs: 924734625
  frame_id: ''
state: 
  voltage_input: 11.7
  temperature_pcb: 0.0
  current_motor: 14.05
  current_input: 0.34
  current_q: 13.69
  speed: 713.0
  duty_cycle: 0.046
  charge_drawn: 30.0
  charge_regen: 0.0
  energy_drawn: 0.0
  energy_regen: 0.0
  displacement: 2858.0
  distance_traveled: 3500.0
  fault_code: 0
---
header: 
  seq: 36513
  stamp: 
    secs: 1625861163
    nsecs: 944579150
  frame_id: ''
state: 
  voltage_input: 11.7
  temperature_pcb: 0.0
  current_motor: 14.89
  current_input: 0.65
  current_q: 14.5
  speed: 1157.0
  duty_cycle: 0.057
  charge_drawn: 30.0
  charge_regen: 0.0
  energy_drawn: 0.0
  energy_regen: 0.0
  displacement: 2863.0
  distance_traveled: 3505.0
  fault_code: 0
---
header: 
  seq: 36514
  stamp: 
    secs: 1625861163
    nsecs: 964689145
  frame_id: ''
state: 
  voltage_input: 11.6
  temperature_pcb: 0.0
  current_motor: 17.07
  current_input: 0.45
  current_q: 16.81
  speed: 954.0
  duty_cycle: 0.025
  charge_drawn: 30.0
  charge_regen: 0.0
  energy_drawn: 0.0
  energy_regen: 0.0
  displacement: 2863.0
  distance_traveled: 3505.0
  fault_code: 0
---
header: 
  seq: 36515
  stamp: 
    secs: 1625861163
    nsecs: 984701588
  frame_id: ''
state: 
  voltage_input: 11.6
  temperature_pcb: 0.0
  current_motor: 14.93
  current_input: 0.38
  current_q: 15.0
  speed: 836.0
  duty_cycle: 0.024
  charge_drawn: 30.0
  charge_regen: 0.0
  energy_drawn: 0.0
  energy_regen: 0.0
  displacement: 2864.0
  distance_traveled: 3506.0
  fault_code: 0
---
header: 
  seq: 36516
  stamp: 
    secs: 1625861164
    nsecs:   4795803
  frame_id: ''
state: 
  voltage_input: 11.6
  temperature_pcb: 0.0
  current_motor: 14.81
  current_input: 0.3
  current_q: 14.75
  speed: 665.0
  duty_cycle: 0.025
  charge_drawn: 30.0
  charge_regen: 0.0
  energy_drawn: 0.0
  energy_regen: 0.0
  displacement: 2865.0
  distance_traveled: 3507.0
  fault_code: 0
---
header: 
  seq: 36517
  stamp: 
    secs: 1625861164
    nsecs:  24181418
  frame_id: ''
state: 
  voltage_input: 11.6
  temperature_pcb: 0.0
  current_motor: 14.83
  current_input: 0.32
  current_q: 14.82
  speed: 564.0
  duty_cycle: 0.026
  charge_drawn: 30.0
  charge_regen: 0.0
  energy_drawn: 0.0
  energy_regen: 0.0
  displacement: 2865.0
