header: 
  seq: 75347
  stamp: 
    secs: 1626279989
    nsecs: 200753343
  frame_id: ''
state: 
  voltage_input: 11.5
  temperature_pcb: 0.0
  current_motor: 0.0
  current_input: 0.0
  current_q: 0.0
  speed: -1.0
  duty_cycle: 0.0
  charge_drawn: 226.0
  charge_regen: 0.0
  energy_drawn: 0.0
  energy_regen: 0.0
  displacement: 12388.0
  distance_traveled: 43198.0
  fault_code: 0
---
header: 
  seq: 75348
  stamp: 
    secs: 1626279989
    nsecs: 218694636
  frame_id: ''
state: 
  voltage_input: 11.5
  temperature_pcb: 0.0
  current_motor: 0.0
  current_input: 0.0
  current_q: 0.0
  speed: 0.0
  duty_cycle: 0.0
  charge_drawn: 226.0
  charge_regen: 0.0
  energy_drawn: 0.0
  energy_regen: 0.0
  displacement: 12388.0
  distance_traveled: 43198.0
  fault_code: 0
---
header: 
  seq: 75349
  stamp: 
    secs: 1626279989
    nsecs: 238893011
  frame_id: ''
state: 
  voltage_input: 11.5
  temperature_pcb: 0.0
  current_motor: 0.0
  current_input: 0.0
  current_q: 0.0
  speed: 0.0
  duty_cycle: 0.0
  charge_drawn: 226.0
  charge_regen: 0.0
  energy_drawn: 0.0
  energy_regen: 0.0
  displacement: 12388.0
  distance_traveled: 43198.0
  fault_code: 0
---
header: 
  seq: 75350
  stamp: 
    secs: 1626279989
    nsecs: 258777837
  frame_id: ''
state: 
  voltage_input: 11.5
  temperature_pcb: 0.0
  current_motor: 0.0
  current_input: 0.0
  current_q: 0.0
  speed: 0.0
  duty_cycle: 0.0
  charge_drawn: 226.0
  charge_regen: 0.0
  energy_drawn: 0.0
  energy_regen: 0.0
  displacement: 12388.0
  distance_traveled: 43198.0
  fault_code: 0
---
header: 
  seq: 75351
  stamp: 
    secs: 1626279989
    nsecs: 278670164
  frame_id: ''
state: 
  voltage_input: 11.5
  temperature_pcb: 0.0
  current_motor: 0.0
  current_input: 0.0
  current_q: 0.0
  speed: 1.0
  duty_cycle: 0.0
  charge_drawn: 226.0
  charge_regen: 0.0
  energy_drawn: 0.0
  energy_regen: 0.0
  displacement: 12388.0
  distance_traveled: 43198.0
  fault_code: 0
---
header: 
  seq: 75352
  stamp: 
    secs: 1626279989
    nsecs: 298775828
  frame_id: ''
state: 
  voltage_input: 11.5
  temperature_pcb: 0.0
  current_motor: 0.0
  current_input: 0.0
  current_q: 0.0
  speed: 2.0
  duty_cycle: 0.0
  charge_drawn: 226.0
  charge_regen: 0.0
  energy_drawn: 0.0
  energy_regen: 0.0
  displacement: 12388.0
  distance_traveled: 43198.0
  fault_code: 0
---
header: 
  seq: 75353
  stamp: 
    secs: 1626279989
    nsecs: 319696876
  frame_id: ''
state: 
  voltage_input: 11.5
  temperature_pcb: 0.0
  current_motor: 0.0
  current_input: 0.0
  current_q: 0.0
  speed: 1.0
  duty_cycle: 0.0
  charge_drawn: 226.0
  charge_regen: 0.0
  energy_drawn: 0.0
  energy_regen: 0.0
  displacement: 12388.0
  distance_traveled: 43198.0
  fault_code: 0
---
header: 
  seq: 75354
  stamp: 
    secs: 1626279989
    nsecs: 338831581
  frame_id: ''
state: 
  voltage_input: 11.6
  temperature_pcb: 0.0
  current_motor: 0.0
  current_input: 0.0
  current_q: 0.0
  speed: 0.0
  duty_cycle: 0.0
  charge_drawn: 226.0
  charge_regen: 0.0
  energy_drawn: 0.0
  energy_regen: 0.0
  displacement: 12388.0
  distance_traveled: 43198.0
  fault_code: 0
---
header: 
  seq: 75355
  stamp: 
    secs: 1626279989
    nsecs: 358833493
  frame_id: ''
state: 
  voltage_input: 11.6
  temperature_pcb: 0.0
  current_motor: 0.0
  current_input: 0.0
  current_q: 0.0
  speed: 2.0
  duty_cycle: 0.0
  charge_drawn: 226.0
  charge_regen: 0.0
  energy_drawn: 0.0
  energy_regen: 0.0
  displacement: 12388.0
  distance_traveled: 43198.0
  fault_code: 0
---
header: 
  seq: 75356
  stamp: 
    secs: 1626279989
    nsecs: 378935304
  frame_id: ''
state: 
  voltage_input: 11.5
  temperature_pcb: 0.0
  current_motor: 0.0
  current_input: 0.0
  current_q: 0.0
  speed: 0.0
  duty_cycle: 0.0
  charge_drawn: 226.0
  charge_regen: 0.0
  energy_drawn: 0.0
  energy_regen: 0.0
  displacement: 12388.0
  distance_traveled: 43198.0
  fault_code: 0
---
header: 
  seq: 75357
  stamp: 
    secs: 1626279989
    nsecs: 398857995
  frame_id: ''
state: 
  voltage_input: 11.5
  temperature_pcb: 0.0
  current_motor: 0.0
  current_input: 0.0
  current_q: 0.0
  speed: 0.0
  duty_cycle: 0.0
  charge_drawn: 226.0
  charge_regen: 0.0
  energy_drawn: 0.0
  energy_regen: 0.0
  displacement: 12388.0
  distance_traveled: 43198.0
  fault_code: 0
---
header: 
  seq: 75358
  stamp: 
    secs: 1626279989
    nsecs: 419106684
  frame_id: ''
state: 
  voltage_input: 11.6
  temperature_pcb: 0.0
  current_motor: 0.0
  current_input: 0.0
  current_q: 0.0
  speed: 0.0
  duty_cycle: 0.0
  charge_drawn: 226.0
  charge_regen: 0.0
  energy_drawn: 0.0
  energy_regen: 0.0
  displacement: 12388.0
  distance_traveled: 43198.0
  fault_code: 0
---
header: 
  seq: 75359
  stamp: 
    secs: 1626279989
    nsecs: 438832028
  frame_id: ''
state: 
  voltage_input: 11.5
  temperature_pcb: 0.0
  current_motor: 0.0
  current_input: 0.0
  current_q: 0.0
  speed: 1.0
  duty_cycle: 0.0
  charge_drawn: 226.0
  charge_regen: 0.0
  energy_drawn: 0.0
  energy_regen: 0.0
  displacement: 12388.0
  distance_traveled: 43198.0
  fault_code: 0
---
header: 
  seq: 75360
  stamp: 
    secs: 1626279989
    nsecs: 458902952
  frame_id: ''
state: 
  voltage_input: 11.6
  temperature_pcb: 0.0
  current_motor: 0.0
  current_input: 0.0
  current_q: 0.0
  speed: 0.0
  duty_cycle: 0.0
  charge_drawn: 226.0
  charge_regen: 0.0
  energy_drawn: 0.0
  energy_regen: 0.0
  displacement: 12388.0
  distance_traveled: 43198.0
  fault_code: 0
---
header: 
  seq: 75361
  stamp: 
    secs: 1626279989
    nsecs: 478874707
  frame_id: ''
state: 
  voltage_input: 11.5
  temperature_pcb: 0.0
  current_motor: 0.0
  current_input: 0.0
  current_q: 0.0
  speed: 0.0
  duty_cycle: 0.0
  charge_drawn: 226.0
  charge_regen: 0.0
  energy_drawn: 0.0
  energy_regen: 0.0
  displacement: 12388.0
  distance_traveled: 43198.0
  fault_code: 0
---
header: 
  seq: 75362
  stamp: 
    secs: 1626279989
    nsecs: 498798388
  frame_id: ''
state: 
  voltage_input: 11.5
  temperature_pcb: 0.0
  current_motor: 0.0
  current_input: 0.0
  current_q: 0.0
  speed: -1.0
  duty_cycle: 0.0
  charge_drawn: 226.0
  charge_regen: 0.0
  energy_drawn: 0.0
  energy_regen: 0.0
  displacement: 12388.0
  distance_traveled: 43198.0
  fault_code: 0
---
header: 
  seq: 75363
  stamp: 
    secs: 1626279989
    nsecs: 518949106
  frame_id: ''
state: 
  voltage_input: 11.6
  temperature_pcb: 0.0
  current_motor: 0.0
  current_input: 0.0
  current_q: 0.0
  speed: 0.0
  duty_cycle: 0.0
  charge_drawn: 226.0
  charge_regen: 0.0
  energy_drawn: 0.0
  energy_regen: 0.0
  displacement: 12388.0
  distance_traveled: 43198.0
  fault_code: 0
---
header: 
  seq: 75364
  stamp: 
    secs: 1626279989
    nsecs: 538827422
  frame_id: ''
state: 
  voltage_input: 11.5
  temperature_pcb: 0.0
  current_motor: 0.0
  current_input: 0.0
  current_q: 0.0
  speed: -1.0
  duty_cycle: 0.0
  charge_drawn: 226.0
  charge_regen: 0.0
  energy_drawn: 0.0
  energy_regen: 0.0
  displacement: 12388.0
  distance_traveled: 43198.0
  fault_code: 0
---
header: 
  seq: 75365
  stamp: 
    secs: 1626279989
    nsecs: 558717352
  frame_id: ''
state: 
  voltage_input: 11.5
  temperature_pcb: 0.0
  current_motor: 0.0
  current_input: 0.0
  current_q: 0.0
  speed: 1.0
  duty_cycle: 0.0
  charge_drawn: 226.0
  charge_regen: 0.0
  energy_drawn: 0.0
  energy_regen: 0.0
  displacement: 12388.0
  distance_traveled: 43198.0
  fault_code: 0
---
header: 
  seq: 75366
  stamp: 
    secs: 1626279989
    nsecs: 578796923
  frame_id: ''
state: 
  voltage_input: 11.5
  temperature_pcb: 0.0
  current_motor: 0.0
  current_input: 0.0
  current_q: 0.0
  speed: 3.0
  duty_cycle: 0.0
  charge_drawn: 226.0
  charge_regen: 0.0
  energy_drawn: 0.0
  energy_regen: 0.0
  displacement: 12388.0
  distance_traveled: 43198.0
  fault_code: 0
---
header: 
  seq: 75367
  stamp: 
    secs: 1626279989
    nsecs: 598627373
  frame_id: ''
state: 
  voltage_input: 11.5
  temperature_pcb: 0.0
  current_motor: 0.0
  current_input: 0.0
  current_q: 0.0
  speed: 3.0
  duty_cycle: 0.0
  charge_drawn: 226.0
  charge_regen: 0.0
  energy_drawn: 0.0
  energy_regen: 0.0
  displacement: 12388.0
  distance_traveled: 43198.0
  fault_code: 0
---
header: 
  seq: 75368
  stamp: 
    secs: 1626279989
    nsecs: 618773194
  frame_id: ''
state: 
  voltage_input: 11.6
  temperature_pcb: 0.0
  current_motor: 0.0
  current_input: 0.0
  current_q: 0.0
  speed: 0.0
  duty_cycle: 0.0
  charge_drawn: 226.0
  charge_regen: 0.0
  energy_drawn: 0.0
  energy_regen: 0.0
  displacement: 12388.0
  distance_traveled: 43198.0
  fault_code: 0
---
header: 
  seq: 75369
  stamp: 
    secs: 1626279989
    nsecs: 638835733
  frame_id: ''
state: 
  voltage_input: 11.5
  temperature_pcb: 0.0
  current_motor: 0.0
  current_input: 0.0
  current_q: 0.0
  speed: 0.0
  duty_cycle: 0.0
  charge_drawn: 226.0
  charge_regen: 0.0
  energy_drawn: 0.0
  energy_regen: 0.0
  displacement: 12388.0
  distance_traveled: 43198.0
  fault_code: 0
---
header: 
  seq: 75370
  stamp: 
    secs: 1626279989
    nsecs: 659228383
  frame_id: ''
state: 
  voltage_input: 11.6
  temperature_pcb: 0.0
  current_motor: 0.0
  current_input: 0.0
  current_q: 0.0
  speed: 0.0
  duty_cycle: 0.0
  charge_drawn: 226.0
  charge_regen: 0.0
  energy_drawn: 0.0
  energy_regen: 0.0
  displacement: 12388.0
  distance_traveled: 43198.0
  fault_code: 0
---
header: 
  seq: 75371
  stamp: 
    secs: 1626279989
    nsecs: 678811328
  frame_id: ''
state: 
  voltage_input: 11.5
  temperature_pcb: 0.0
  current_motor: 0.0
  current_input: 0.0
  current_q: 0.0
  speed: -1.0
  duty_cycle: 0.0
  charge_drawn: 226.0
  charge_regen: 0.0
  energy_drawn: 0.0
  energy_regen: 0.0
  displacement: 12388.0
  distance_traveled: 43198.0
  fault_code: 0
---
header: 
  seq: 75372
  stamp: 
    secs: 1626279989
    nsecs: 698800062
  frame_id: ''
state: 
  voltage_input: 11.5
  temperature_pcb: 0.0
  current_motor: 0.0
  current_input: 0.0
  current_q: 0.0
  speed: 0.0
  duty_cycle: 0.0
  charge_drawn: 226.0
  charge_regen: 0.0
  energy_drawn: 0.0
  energy_regen: 0.0
  displacement: 12388.0
  distance_traveled: 43198.0
  fault_code: 0
---
header: 
  seq: 75373
  stamp: 
    secs: 1626279989
    nsecs: 718641242
  frame_id: ''
state: 
  voltage_input: 11.5
  temperature_pcb: 0.0
  current_motor: 0.0
  current_input: 0.0
  current_q: 0.0
  speed: 1.0
  duty_cycle: 0.0
  charge_drawn: 226.0
  charge_regen: 0.0
  energy_drawn: 0.0
  energy_regen: 0.0
  displacement: 12388.0
  distance_traveled: 43198.0
  fault_code: 0
---
header: 
  seq: 75374
  stamp: 
    secs: 1626279989
    nsecs: 738767115
  frame_id: ''
state: 
  voltage_input: 11.5
  temperature_pcb: 0.0
  current_motor: 0.0
  current_input: 0.0
  current_q: 0.0
  speed: 0.0
  duty_cycle: 0.0
  charge_drawn: 226.0
  charge_regen: 0.0
  energy_drawn: 0.0
  energy_regen: 0.0
  displacement: 12388.0
  distance_traveled: 43198.0
  fault_code: 0
---
header: 
  seq: 75375
  stamp: 
    secs: 1626279989
    nsecs: 758748402
  frame_id: ''
state: 
  voltage_input: 11.5
  temperature_pcb: 0.0
  current_motor: 0.0
  current_input: 0.0
  current_q: 0.0
  speed: 0.0
  duty_cycle: 0.0
  charge_drawn: 226.0
  charge_regen: 0.0
  energy_drawn: 0.0
  energy_regen: 0.0
  displacement: 12388.0
  distance_traveled: 43198.0
  fault_code: 0
---
header: 
  seq: 75376
  stamp: 
    secs: 1626279989
    nsecs: 778999226
  frame_id: ''
state: 
  voltage_input: 11.5
  temperature_pcb: 0.0
  current_motor: 0.0
  current_input: 0.0
  current_q: 0.0
  speed: 0.0
  duty_cycle: 0.0
  charge_drawn: 226.0
  charge_regen: 0.0
  energy_drawn: 0.0
  energy_regen: 0.0
  displacement: 12388.0
  distance_traveled: 43198.0
  fault_code: 0
---
header: 
  seq: 75377
  stamp: 
    secs: 1626279989
    nsecs: 799230154
  frame_id: ''
state: 
  voltage_input: 11.5
  temperature_pcb: 0.0
  current_motor: 0.0
  current_input: 0.0
  current_q: 0.0
  speed: -2.0
  duty_cycle: 0.0
  charge_drawn: 226.0
  charge_regen: 0.0
  energy_drawn: 0.0
  energy_regen: 0.0
  displacement: 12388.0
  distance_traveled: 43198.0
  fault_code: 0
---
header: 
  seq: 75378
  stamp: 
    secs: 1626279989
    nsecs: 818996696
  frame_id: ''
state: 
  voltage_input: 11.5
  temperature_pcb: 0.0
  current_motor: 0.0
  current_input: 0.0
  current_q: 0.0
  speed: 0.0
  duty_cycle: 0.0
  charge_drawn: 226.0
  charge_regen: 0.0
  energy_drawn: 0.0
  energy_regen: 0.0
  displacement: 12388.0
  distance_traveled: 43198.0
  fault_code: 0
---
header: 
  seq: 75379
  stamp: 
    secs: 1626279989
    nsecs: 838750270
  frame_id: ''
state: 
  voltage_input: 11.5
  temperature_pcb: 0.0
  current_motor: 0.0
  current_input: 0.0
  current_q: 0.0
  speed: -1.0
  duty_cycle: 0.0
  charge_drawn: 226.0
  charge_regen: 0.0
  energy_drawn: 0.0
  energy_regen: 0.0
  displacement: 12388.0
  distance_traveled: 43198.0
  fault_code: 0
---
header: 
  seq: 75380
  stamp: 
    secs: 1626279989
    nsecs: 858798537
  frame_id: ''
state: 
  voltage_input: 11.6
  temperature_pcb: 0.0
  current_motor: 0.0
  current_input: 0.0
  current_q: 0.0
  speed: -3.0
  duty_cycle: 0.0
  charge_drawn: 226.0
  charge_regen: 0.0
  energy_drawn: 0.0
  energy_regen: 0.0
  displacement: 12388.0
  distance_traveled: 43198.0
  fault_code: 0
---
header: 
  seq: 75381
  stamp: 
    secs: 1626279989
    nsecs: 879119884
  frame_id: ''
state: 
  voltage_input: 11.5
  temperature_pcb: 0.0
  current_motor: 0.0
  current_input: 0.0
  current_q: 0.0
  speed: -2.0
  duty_cycle: 0.0
  charge_drawn: 226.0
  charge_regen: 0.0
  energy_drawn: 0.0
  energy_regen: 0.0
  displacement: 12388.0
  distance_traveled: 43198.0
  fault_code: 0
---
header: 
  seq: 75382
  stamp: 
    secs: 1626279989
    nsecs: 899093514
  frame_id: ''
state: 
  voltage_input: 11.5
  temperature_pcb: 0.0
  current_motor: 0.0
  current_input: 0.0
  current_q: 0.0
  speed: -1.0
  duty_cycle: 0.0
  charge_drawn: 226.0
  charge_regen: 0.0
  energy_drawn: 0.0
  energy_regen: 0.0
  displacement: 12388.0
  distance_traveled: 43198.0
  fault_code: 0
---
header: 
  seq: 75383
  stamp: 
    secs: 1626279989
    nsecs: 918799430
  frame_id: ''
state: 
  voltage_input: 11.5
  temperature_pcb: 0.0
  current_motor: 0.0
  current_input: 0.0
  current_q: 0.0
  speed: -1.0
  duty_cycle: 0.0
  charge_drawn: 226.0
  charge_regen: 0.0
  energy_drawn: 0.0
  energy_regen: 0.0
  displacement: 12388.0
  distance_traveled: 43198.0
  fault_code: 0
---
header: 
  seq: 75384
  stamp: 
    secs: 1626279989
    nsecs: 938939210
  frame_id: ''
state: 
  voltage_input: 11.6
  temperature_pcb: 0.0
  current_motor: 0.0
  current_input: 0.0
  current_q: 0.0
  speed: 0.0
  duty_cycle: 0.0
  charge_drawn: 226.0
  charge_regen: 0.0
  energy_drawn: 0.0
  energy_regen: 0.0
  displacement: 12388.0
  distance_traveled: 43198.0
  fault_code: 0
---
header: 
  seq: 75385
  stamp: 
    secs: 1626279989
    nsecs: 958762264
  frame_id: ''
state: 
  voltage_input: 11.6
  temperature_pcb: 0.0
  current_motor: 0.0
  current_input: 0.0
  current_q: 0.0
  speed: -1.0
  duty_cycle: 0.0
  charge_drawn: 226.0
  charge_regen: 0.0
  energy_drawn: 0.0
  energy_regen: 0.0
  displacement: 12388.0
  distance_traveled: 43198.0
  fault_code: 0
---
header: 
  seq: 75386
  stamp: 
    secs: 1626279989
    nsecs: 979552267
  frame_id: ''
state: 
  voltage_input: 11.5
  temperature_pcb: 0.0
  current_motor: 0.0
  current_input: 0.0
  current_q: 0.0
  speed: -1.0
  duty_cycle: 0.0
  charge_drawn: 226.0
  charge_regen: 0.0
  energy_drawn: 0.0
  energy_regen: 0.0
  displacement: 12388.0
  distance_traveled: 43198.0
  fault_code: 0
---
header: 
  seq: 75387
  stamp: 
    secs: 1626279989
    nsecs: 998743536
  frame_id: ''
state: 
  voltage_input: 11.5
  temperature_pcb: 0.0
  current_motor: 0.0
  current_input: 0.0
  current_q: 0.0
  speed: -1.0
  duty_cycle: 0.0
  charge_drawn: 226.0
  charge_regen: 0.0
  energy_drawn: 0.0
  energy_regen: 0.0
  displacement: 12388.0
  distance_traveled: 43198.0
  fault_code: 0
---
header: 
  seq: 75388
  stamp: 
    secs: 1626279990
    nsecs:  18668832
  frame_id: ''
state: 
  voltage_input: 11.5
  temperature_pcb: 0.0
  current_motor: 0.0
  current_input: 0.0
  current_q: 0.0
  speed: -3.0
  duty_cycle: 0.0
  charge_drawn: 226.0
  charge_regen: 0.0
  energy_drawn: 0.0
  energy_regen: 0.0
  displacement: 12388.0
  distance_traveled: 43198.0
  fault_code: 0
---
header: 
  seq: 75389
  stamp: 
    secs: 1626279990
    nsecs:  38748037
  frame_id: ''
state: 
  voltage_input: 11.6
  temperature_pcb: 0.0
  current_motor: 0.0
  current_input: 0.0
  current_q: 0.0
  speed: -1.0
  duty_cycle: 0.0
  charge_drawn: 226.0
  charge_regen: 0.0
  energy_drawn: 0.0
  energy_regen: 0.0
  displacement: 12388.0
  distance_traveled: 43198.0
  fault_code: 0
---
header: 
  seq: 75390
  stamp: 
    secs: 1626279990
    nsecs:  58897765
  frame_id: ''
state: 
  voltage_input: 11.5
  temperature_pcb: 0.0
  current_motor: 0.0
  current_input: 0.0
  current_q: 0.0
  speed: -2.0
  duty_cycle: 0.0
  charge_drawn: 226.0
  charge_regen: 0.0
  energy_drawn: 0.0
  energy_regen: 0.0
  displacement: 12388.0
  distance_traveled: 43198.0
  fault_code: 0
---
header: 
  seq: 75391
  stamp: 
    secs: 1626279990
    nsecs:  78880979
  frame_id: ''
state: 
  voltage_input: 11.6
  temperature_pcb: 0.0
  current_motor: 0.0
  current_input: 0.0
  current_q: 0.0
  speed: -1.0
  duty_cycle: 0.0
  charge_drawn: 226.0
  charge_regen: 0.0
  energy_drawn: 0.0
  energy_regen: 0.0
  displacement: 12388.0
  distance_traveled: 43198.0
  fault_code: 0
---
header: 
  seq: 75392
  stamp: 
    secs: 1626279990
    nsecs:  99251754
  frame_id: ''
state: 
  voltage_input: 11.4
  temperature_pcb: 0.0
  current_motor: 0.0
  current_input: 0.0
  current_q: 0.0
  speed: 0.0
  duty_cycle: 0.0
  charge_drawn: 226.0
  charge_regen: 0.0
  energy_drawn: 0.0
  energy_regen: 0.0
  displacement: 12388.0
  distance_traveled: 43198.0
  fault_code: 0
---
header: 
  seq: 75393
  stamp: 
    secs: 1626279990
    nsecs: 121361579
  frame_id: ''
state: 
  voltage_input: 11.5
  temperature_pcb: 0.0
  current_motor: 0.0
  current_input: 0.0
  current_q: 0.0
  speed: -1.0
  duty_cycle: 0.0
  charge_drawn: 226.0
  charge_regen: 0.0
  energy_drawn: 0.0
  energy_regen: 0.0
  displacement: 12388.0
  distance_traveled: 43198.0
  fault_code: 0
---
header: 
  seq: 75394
  stamp: 
    secs: 1626279990
    nsecs: 138768640
  frame_id: ''
state: 
  voltage_input: 11.5
  temperature_pcb: 0.0
  current_motor: 0.0
  current_input: 0.0
  current_q: 0.0
  speed: 0.0
  duty_cycle: 0.0
  charge_drawn: 226.0
  charge_regen: 0.0
  energy_drawn: 0.0
  energy_regen: 0.0
  displacement: 12388.0
  distance_traveled: 43198.0
  fault_code: 0
---
header: 
  seq: 75395
  stamp: 
    secs: 1626279990
    nsecs: 158688467
  frame_id: ''
state: 
  voltage_input: 11.5
  temperature_pcb: 0.0
  current_motor: 0.0
  current_input: 0.0
  current_q: 0.0
  speed: -1.0
  duty_cycle: 0.0
  charge_drawn: 226.0
  charge_regen: 0.0
  energy_drawn: 0.0
  energy_regen: 0.0
  displacement: 12388.0
  distance_traveled: 43198.0
  fault_code: 0
---
header: 
  seq: 75396
  stamp: 
    secs: 1626279990
    nsecs: 178727151
  frame_id: ''
state: 
  voltage_input: 11.6
  temperature_pcb: 0.0
  current_motor: 0.0
  current_input: 0.0
  current_q: 0.0
  speed: 1.0
  duty_cycle: 0.0
  charge_drawn: 226.0
  charge_regen: 0.0
  energy_drawn: 0.0
  energy_regen: 0.0
  displacement: 12388.0
  distance_traveled: 43198.0
  fault_code: 0
---
header: 
  seq: 75397
  stamp: 
    secs: 1626279990
    nsecs: 199036727
  frame_id: ''
state: 
  voltage_input: 11.6
  temperature_pcb: 0.0
  current_motor: 0.0
  current_input: 0.0
  current_q: 0.0
  speed: 0.0
  duty_cycle: 0.0
  charge_drawn: 226.0
  charge_regen: 0.0
  energy_drawn: 0.0
  energy_regen: 0.0
  displacement: 12388.0
  distance_traveled: 43198.0
  fault_code: 0
---
header: 
  seq: 75398
  stamp: 
    secs: 1626279990
    nsecs: 219117651
  frame_id: ''
state: 
  voltage_input: 11.5
  temperature_pcb: 0.0
  current_motor: 0.0
  current_input: 0.0
  current_q: 0.0
  speed: 0.0
  duty_cycle: 0.0
  charge_drawn: 226.0
  charge_regen: 0.0
  energy_drawn: 0.0
  energy_regen: 0.0
  displacement: 12388.0
  distance_traveled: 43198.0
  fault_code: 0
---
header: 
  seq: 75399
  stamp: 
    secs: 1626279990
    nsecs: 238703877
  frame_id: ''
state: 
  voltage_input: 11.5
  temperature_pcb: 0.0
  current_motor: 0.0
  current_input: 0.0
  current_q: 0.0
  speed: 1.0
  duty_cycle: 0.0
  charge_drawn: 226.0
  charge_regen: 0.0
  energy_drawn: 0.0
  energy_regen: 0.0
  displacement: 12388.0
  distance_traveled: 43198.0
  fault_code: 0
---
header: 
  seq: 75400
  stamp: 
    secs: 1626279990
    nsecs: 259394867
  frame_id: ''
state: 
  voltage_input: 11.5
  temperature_pcb: 0.0
  current_motor: 0.0
  current_input: 0.0
  current_q: 0.0
  speed: 3.0
  duty_cycle: 0.0
  charge_drawn: 226.0
  charge_regen: 0.0
  energy_drawn: 0.0
  energy_regen: 0.0
  displacement: 12388.0
  distance_traveled: 43198.0
  fault_code: 0
---
header: 
  seq: 75401
  stamp: 
    secs: 1626279990
    nsecs: 279568762
  frame_id: ''
state: 
  voltage_input: 11.5
  temperature_pcb: 0.0
  current_motor: 0.0
  current_input: 0.0
  current_q: 0.0
  speed: 5.0
  duty_cycle: 0.0
  charge_drawn: 226.0
  charge_regen: 0.0
  energy_drawn: 0.0
  energy_regen: 0.0
  displacement: 12388.0
  distance_traveled: 43198.0
  fault_code: 0
---
header: 
  seq: 75402
  stamp: 
    secs: 1626279990
    nsecs: 300164490
  frame_id: ''
state: 
  voltage_input: 11.6
  temperature_pcb: 0.0
  current_motor: 0.0
  current_input: 0.0
  current_q: 0.0
  speed: 6.0
  duty_cycle: 0.0
  charge_drawn: 226.0
  charge_regen: 0.0
  energy_drawn: 0.0
  energy_regen: 0.0
  displacement: 12388.0
  distance_traveled: 43198.0
  fault_code: 0
---
header: 
  seq: 75403
  stamp: 
    secs: 1626279990
    nsecs: 319064815
  frame_id: ''
state: 
  voltage_input: 11.5
  temperature_pcb: 0.0
  current_motor: 0.0
  current_input: 0.0
  current_q: 0.0
  speed: 6.0
  duty_cycle: 0.0
  charge_drawn: 226.0
  charge_regen: 0.0
  energy_drawn: 0.0
  energy_regen: 0.0
  displacement: 12388.0
  distance_traveled: 43198.0
  fault_code: 0
---
header: 
  seq: 75404
  stamp: 
    secs: 1626279990
    nsecs: 338760314
  frame_id: ''
state: 
  voltage_input: 11.5
  temperature_pcb: 0.0
  current_motor: 0.0
  current_input: 0.0
  current_q: 0.0
  speed: 8.0
  duty_cycle: 0.0
  charge_drawn: 226.0
  charge_regen: 0.0
  energy_drawn: 0.0
  energy_regen: 0.0
  displacement: 12388.0
  distance_traveled: 43198.0
  fault_code: 0
---
header: 
  seq: 75405
  stamp: 
    secs: 1626279990
    nsecs: 359271040
  frame_id: ''
state: 
  voltage_input: 11.5
  temperature_pcb: 0.0
  current_motor: 0.0
  current_input: 0.0
  current_q: 0.0
  speed: 6.0
  duty_cycle: 0.0
  charge_drawn: 226.0
  charge_regen: 0.0
  energy_drawn: 0.0
  energy_regen: 0.0
  displacement: 12388.0
  distance_traveled: 43198.0
  fault_code: 0
---
header: 
  seq: 75406
  stamp: 
    secs: 1626279990
    nsecs: 378852057
  frame_id: ''
state: 
  voltage_input: 11.5
  temperature_pcb: 0.0
  current_motor: 0.0
  current_input: 0.0
  current_q: 0.0
  speed: 5.0
  duty_cycle: 0.0
  charge_drawn: 226.0
  charge_regen: 0.0
  energy_drawn: 0.0
  energy_regen: 0.0
  displacement: 12388.0
  distance_traveled: 43198.0
  fault_code: 0
---
header: 
  seq: 75407
  stamp: 
    secs: 1626279990
    nsecs: 398718601
  frame_id: ''
state: 
  voltage_input: 11.5
  temperature_pcb: 0.0
  current_motor: 0.0
  current_input: 0.0
  current_q: 0.0
  speed: 4.0
  duty_cycle: 0.0
  charge_drawn: 226.0
  charge_regen: 0.0
  energy_drawn: 0.0
  energy_regen: 0.0
  displacement: 12388.0
  distance_traveled: 43198.0
  fault_code: 0
---
header: 
  seq: 75408
  stamp: 
    secs: 1626279990
    nsecs: 419340319
  frame_id: ''
state: 
  voltage_input: 11.5
  temperature_pcb: 0.0
  current_motor: 0.0
  current_input: 0.0
  current_q: 0.0
  speed: 2.0
  duty_cycle: 0.0
  charge_drawn: 226.0
  charge_regen: 0.0
  energy_drawn: 0.0
  energy_regen: 0.0
  displacement: 12388.0
  distance_traveled: 43198.0
  fault_code: 0
---
header: 
  seq: 75409
  stamp: 
    secs: 1626279990
    nsecs: 440514237
  frame_id: ''
state: 
  voltage_input: 11.5
  temperature_pcb: 0.0
  current_motor: 0.0
  current_input: 0.0
  current_q: 0.0
  speed: 2.0
  duty_cycle: 0.0
  charge_drawn: 226.0
  charge_regen: 0.0
  energy_drawn: 0.0
  energy_regen: 0.0
  displacement: 12388.0
  distance_traveled: 43198.0
  fault_code: 0
---
header: 
  seq: 75410
  stamp: 
    secs: 1626279990
    nsecs: 461197779
  frame_id: ''
state: 
  voltage_input: 11.6
  temperature_pcb: 0.0
  current_motor: 0.0
  current_input: 0.0
  current_q: 0.0
  speed: 1.0
  duty_cycle: 0.0
  charge_drawn: 226.0
  charge_regen: 0.0
  energy_drawn: 0.0
  energy_regen: 0.0
  displacement: 12388.0
  distance_traveled: 43198.0
  fault_code: 0
---
header: 
  seq: 75411
  stamp: 
    secs: 1626279990
    nsecs: 479725908
  frame_id: ''
state: 
  voltage_input: 11.5
  temperature_pcb: 0.0
  current_motor: 0.0
  current_input: 0.0
  current_q: 0.0
  speed: 0.0
  duty_cycle: 0.0
  charge_drawn: 226.0
  charge_regen: 0.0
  energy_drawn: 0.0
  energy_regen: 0.0
  displacement: 12388.0
  distance_traveled: 43198.0
  fault_code: 0
---
header: 
  seq: 75412
  stamp: 
    secs: 1626279990
    nsecs: 499641933
  frame_id: ''
state: 
  voltage_input: 11.5
  temperature_pcb: 0.0
  current_motor: 0.0
  current_input: 0.0
  current_q: 0.0
  speed: 0.0
  duty_cycle: 0.0
  charge_drawn: 226.0
  charge_regen: 0.0
  energy_drawn: 0.0
  energy_regen: 0.0
  displacement: 12388.0
  distance_traveled: 43198.0
  fault_code: 0
---
header: 
  seq: 75413
  stamp: 
    secs: 1626279990
    nsecs: 521924887
  frame_id: ''
state: 
  voltage_input: 11.5
  temperature_pcb: 0.0
  current_motor: 0.0
  current_input: 0.0
  current_q: 0.0
  speed: 3.0
  duty_cycle: 0.0
  charge_drawn: 226.0
  charge_regen: 0.0
  energy_drawn: 0.0
  energy_regen: 0.0
  displacement: 12388.0
  distance_traveled: 43198.0
  fault_code: 0
---
header: 
  seq: 75414
  stamp: 
    secs: 1626279990
    nsecs: 539875502
  frame_id: ''
state: 
  voltage_input: 11.5
  temperature_pcb: 0.0
  current_motor: 0.0
  current_input: 0.0
  current_q: 0.0
  speed: 3.0
  duty_cycle: 0.0
  charge_drawn: 226.0
  charge_regen: 0.0
  energy_drawn: 0.0
  energy_regen: 0.0
  displacement: 12388.0
  distance_traveled: 43198.0
  fault_code: 0
---
header: 
  seq: 75415
  stamp: 
    secs: 1626279990
    nsecs: 559535011
  frame_id: ''
state: 
  voltage_input: 11.5
  temperature_pcb: 0.0
  current_motor: 0.0
  current_input: 0.0
  current_q: 0.0
  speed: 1.0
  duty_cycle: 0.0
  charge_drawn: 226.0
  charge_regen: 0.0
  energy_drawn: 0.0
  energy_regen: 0.0
  displacement: 12388.0
  distance_traveled: 43198.0
  fault_code: 0
---
header: 
  seq: 75416
  stamp: 
    secs: 1626279990
    nsecs: 579647446
  frame_id: ''
state: 
  voltage_input: 11.5
  temperature_pcb: 0.0
  current_motor: 0.0
  current_input: 0.0
  current_q: 0.0
  speed: 1.0
  duty_cycle: 0.0
  charge_drawn: 226.0
  charge_regen: 0.0
  energy_drawn: 0.0
  energy_regen: 0.0
  displacement: 12388.0
  distance_traveled: 43198.0
  fault_code: 0
---
header: 
  seq: 75417
  stamp: 
    secs: 1626279990
    nsecs: 600071504
  frame_id: ''
state: 
  voltage_input: 11.6
  temperature_pcb: 0.0
  current_motor: 0.0
  current_input: 0.0
  current_q: 0.0
  speed: 0.0
  duty_cycle: -0.001
  charge_drawn: 226.0
  charge_regen: 0.0
  energy_drawn: 0.0
  energy_regen: 0.0
  displacement: 12388.0
  distance_traveled: 43198.0
  fault_code: 0
---
header: 
  seq: 75418
  stamp: 
    secs: 1626279990
    nsecs: 620750254
  frame_id: ''
state: 
  voltage_input: 11.5
  temperature_pcb: 0.0
  current_motor: 0.0
  current_input: 0.0
  current_q: 0.0
  speed: -2.0
  duty_cycle: 0.0
  charge_drawn: 226.0
  charge_regen: 0.0
  energy_drawn: 0.0
  energy_regen: 0.0
  displacement: 12388.0
  distance_traveled: 43198.0
  fault_code: 0
---
header: 
  seq: 75419
  stamp: 
    secs: 1626279990
    nsecs: 639748237
  frame_id: ''
state: 
  voltage_input: 11.5
  temperature_pcb: 0.0
  current_motor: 0.0
  current_input: 0.0
  current_q: 0.0
  speed: 0.0
  duty_cycle: 0.0
  charge_drawn: 226.0
  charge_regen: 0.0
  energy_drawn: 0.0
  energy_regen: 0.0
  displacement: 12388.0
  distance_traveled: 43198.0
  fault_code: 0
---
header: 
  seq: 75420
  stamp: 
    secs: 1626279990
    nsecs: 659299097
  frame_id: ''
state: 
  voltage_input: 11.5
  temperature_pcb: 0.0
  current_motor: 23.43
  current_input: 2.21
  current_q: 23.6
  speed: 551.0
  duty_cycle: 0.094
  charge_drawn: 227.0
  charge_regen: 0.0
  energy_drawn: 0.0
  energy_regen: 0.0
  displacement: 12392.0
  distance_traveled: 43202.0
  fault_code: 0
---
header: 
  seq: 75421
  stamp: 
    secs: 1626279990
    nsecs: 680352804
  frame_id: ''
state: 
  voltage_input: 11.5
  temperature_pcb: 0.0
  current_motor: 37.54
  current_input: 2.87
  current_q: 36.56
  speed: 824.0
  duty_cycle: 0.104
  charge_drawn: 227.0
  charge_regen: 0.0
  energy_drawn: 0.0
  energy_regen: 0.0
  displacement: 12395.0
  distance_traveled: 43207.0
  fault_code: 0
---
header: 
  seq: 75422
  stamp: 
    secs: 1626279990
    nsecs: 699569907
  frame_id: ''
state: 
  voltage_input: 11.5
  temperature_pcb: 0.0
  current_motor: 60.89
  current_input: 4.45
  current_q: 60.69
  speed: 761.0
  duty_cycle: 0.094
  charge_drawn: 227.0
  charge_regen: 0.0
  energy_drawn: 0.0
  energy_regen: 0.0
  displacement: 12396.0
  distance_traveled: 43208.0
  fault_code: 0
---
header: 
  seq: 75423
  stamp: 
    secs: 1626279990
    nsecs: 721063051
  frame_id: ''
state: 
  voltage_input: 11.5
  temperature_pcb: 0.0
  current_motor: 60.28
  current_input: 4.83
  current_q: 60.41
  speed: 857.0
  duty_cycle: 0.088
  charge_drawn: 227.0
  charge_regen: 0.0
  energy_drawn: 0.0
  energy_regen: 0.0
  displacement: 12399.0
  distance_traveled: 43211.0
  fault_code: 0
---
header: 
  seq: 75424
  stamp: 
    secs: 1626279990
    nsecs: 740347186
  frame_id: ''
state: 
  voltage_input: 11.5
  temperature_pcb: 0.0
  current_motor: 59.61
  current_input: 4.9
  current_q: 59.55
  speed: 998.0
  duty_cycle: 0.097
  charge_drawn: 227.0
  charge_regen: 0.0
  energy_drawn: 0.0
  energy_regen: 0.0
  displacement: 12402.0
  distance_traveled: 43214.0
  fault_code: 0
---
header: 
  seq: 75425
  stamp: 
    secs: 1626279990
    nsecs: 759336419
  frame_id: ''
state: 
  voltage_input: 11.5
  temperature_pcb: 0.0
  current_motor: 59.95
  current_input: 5.1
  current_q: 59.87
  speed: 1141.0
  duty_cycle: 0.101
  charge_drawn: 228.0
  charge_regen: 0.0
  energy_drawn: 0.0
  energy_regen: 0.0
  displacement: 12405.0
  distance_traveled: 43217.0
  fault_code: 0
---
header: 
  seq: 75426
  stamp: 
    secs: 1626279990
    nsecs: 779394427
  frame_id: ''
state: 
  voltage_input: 11.5
  temperature_pcb: 0.0
  current_motor: 59.91
  current_input: 5.31
  current_q: 59.76
  speed: 1326.0
  duty_cycle: 0.107
  charge_drawn: 228.0
  charge_regen: 0.0
  energy_drawn: 0.0
  energy_regen: 0.0
  displacement: 12408.0
  distance_traveled: 43220.0
  fault_code: 0
---
header: 
  seq: 75427
  stamp: 
    secs: 1626279990
    nsecs: 800820017
  frame_id: ''
state: 
  voltage_input: 11.6
  temperature_pcb: 0.0
  current_motor: 59.98
  current_input: 5.58
  current_q: 60.08
  speed: 1553.0
  duty_cycle: 0.109
  charge_drawn: 228.0
  charge_regen: 0.0
  energy_drawn: 0.0
  energy_regen: 0.0
  displacement: 12413.0
  distance_traveled: 43225.0
  fault_code: 0
---
header: 
  seq: 75428
  stamp: 
    secs: 1626279990
    nsecs: 821951226
  frame_id: ''
state: 
  voltage_input: 11.5
  temperature_pcb: 0.0
  current_motor: 60.11
  current_input: 5.77
  current_q: 60.0
  speed: 1775.0
  duty_cycle: 0.112
  charge_drawn: 229.0
  charge_regen: 0.0
  energy_drawn: 0.0
  energy_regen: 0.0
  displacement: 12418.0
  distance_traveled: 43230.0
  fault_code: 0
---
header: 
  seq: 75429
  stamp: 
    secs: 1626279990
    nsecs: 840185910
  frame_id: ''
state: 
  voltage_input: 11.5
  temperature_pcb: 0.0
  current_motor: 59.95
  current_input: 6.06
  current_q: 59.92
  speed: 2008.0
  duty_cycle: 0.116
  charge_drawn: 229.0
  charge_regen: 0.0
  energy_drawn: 0.0
  energy_regen: 0.0
  displacement: 12423.0
  distance_traveled: 43235.0
  fault_code: 0
---
header: 
  seq: 75430
  stamp: 
    secs: 1626279990
    nsecs: 860636426
  frame_id: ''
state: 
  voltage_input: 11.6
  temperature_pcb: 0.0
  current_motor: 60.08
  current_input: 6.31
  current_q: 59.96
  speed: 2281.0
  duty_cycle: 0.121
  charge_drawn: 229.0
  charge_regen: 0.0
  energy_drawn: 0.0
  energy_regen: 0.0
  displacement: 12429.0
  distance_traveled: 43241.0
  fault_code: 0
---
header: 
  seq: 75431
  stamp: 
    secs: 1626279990
    nsecs: 880183849
  frame_id: ''
state: 
  voltage_input: 11.6
  temperature_pcb: 0.0
  current_motor: 59.92
  current_input: 6.48
  current_q: 59.77
  speed: 2547.0
  duty_cycle: 0.128
  charge_drawn: 230.0
  charge_regen: 0.0
  energy_drawn: 0.0
  energy_regen: 0.0
  displacement: 12435.0
  distance_traveled: 43247.0
  fault_code: 0
---
header: 
  seq: 75432
  stamp: 
    secs: 1626279990
    nsecs: 900625303
  frame_id: ''
state: 
  voltage_input: 11.5
  temperature_pcb: 0.0
  current_motor: 59.43
  current_input: 6.65
  current_q: 59.41
  speed: 2826.0
  duty_cycle: 0.125
  charge_drawn: 230.0
  charge_regen: 0.0
  energy_drawn: 0.0
  energy_regen: 0.0
  displacement: 12443.0
  distance_traveled: 43255.0
  fault_code: 0
---
header: 
  seq: 75433
  stamp: 
    secs: 1626279990
    nsecs: 920050118
  frame_id: ''
state: 
  voltage_input: 11.4
  temperature_pcb: 0.0
  current_motor: 57.37
  current_input: 6.41
  current_q: 57.08
  speed: 3070.0
  duty_cycle: 0.131
  charge_drawn: 230.0
  charge_regen: 0.0
  energy_drawn: 0.0
  energy_regen: 0.0
  displacement: 12450.0
  distance_traveled: 43262.0
  fault_code: 0
---
header: 
  seq: 75434
  stamp: 
    secs: 1626279990
    nsecs: 939529519
  frame_id: ''
state: 
  voltage_input: 11.5
  temperature_pcb: 0.0
  current_motor: 52.62
  current_input: 5.81
  current_q: 52.28
  speed: 3328.0
  duty_cycle: 0.125
  charge_drawn: 231.0
  charge_regen: 0.0
  energy_drawn: 0.0
  energy_regen: 0.0
  displacement: 12458.0
  distance_traveled: 43270.0
  fault_code: 0
---
header: 
  seq: 75435
  stamp: 
    secs: 1626279990
    nsecs: 959965607
  frame_id: ''
state: 
  voltage_input: 11.5
  temperature_pcb: 0.0
  current_motor: 46.67
  current_input: 5.0
  current_q: 46.71
  speed: 3564.0
  duty_cycle: 0.12
  charge_drawn: 231.0
  charge_regen: 0.0
  energy_drawn: 0.0
  energy_regen: 0.0
  displacement: 12467.0
  distance_traveled: 43279.0
  fault_code: 0
---
header: 
  seq: 75436
  stamp: 
    secs: 1626279990
    nsecs: 979984082
  frame_id: ''
state: 
  voltage_input: 11.5
  temperature_pcb: 0.0
  current_motor: 43.43
  current_input: 4.66
  current_q: 43.09
  speed: 3796.0
  duty_cycle: 0.127
  charge_drawn: 231.0
  charge_regen: 0.0
  energy_drawn: 0.0
  energy_regen: 0.0
  displacement: 12476.0
  distance_traveled: 43288.0
  fault_code: 0
---
header: 
  seq: 75437
  stamp: 
    secs: 1626279991
    nsecs:    774190
  frame_id: ''
state: 
  voltage_input: 11.6
  temperature_pcb: 0.0
  current_motor: 37.55
  current_input: 3.86
  current_q: 37.38
  speed: 4006.0
  duty_cycle: 0.112
  charge_drawn: 231.0
  charge_regen: 0.0
  energy_drawn: 0.0
  energy_regen: 0.0
  displacement: 12485.0
  distance_traveled: 43297.0
  fault_code: 0
---
header: 
  seq: 75438
  stamp: 
    secs: 1626279991
    nsecs:  20146296
  frame_id: ''
state: 
  voltage_input: 11.5
  temperature_pcb: 0.0
  current_motor: 39.17
  current_input: 4.21
  current_q: 38.91
  speed: 4197.0
  duty_cycle: 0.123
  charge_drawn: 232.0
  charge_regen: 0.0
  energy_drawn: 0.0
  energy_regen: 0.0
  displacement: 12495.0
  distance_traveled: 43307.0
  fault_code: 0
---
header: 
  seq: 75439
  stamp: 
    secs: 1626279991
    nsecs:  40286857
  frame_id: ''
state: 
  voltage_input: 11.4
  temperature_pcb: 0.0
  current_motor: 31.74
  current_input: 3.22
  current_q: 31.66
  speed: 4356.0
  duty_cycle: 0.112
  charge_drawn: 232.0
  charge_regen: 0.0
  energy_drawn: 0.0
  energy_regen: 0.0
  displacement: 12504.0
  distance_traveled: 43316.0
  fault_code: 0
---
header: 
  seq: 75440
  stamp: 
    secs: 1626279991
    nsecs:  59671151
  frame_id: ''
state: 
  voltage_input: 11.5
  temperature_pcb: 0.0
  current_motor: 32.44
  current_input: 3.41
  current_q: 32.14
  speed: 4534.0
  duty_cycle: 0.11
  charge_drawn: 232.0
  charge_regen: 0.0
  energy_drawn: 0.0
  energy_regen: 0.0
  displacement: 12514.0
  distance_traveled: 43326.0
  fault_code: 0
---
header: 
  seq: 75441
  stamp: 
    secs: 1626279991
    nsecs:  80407455
  frame_id: ''
state: 
  voltage_input: 11.6
  temperature_pcb: 0.0
  current_motor: 26.09
  current_input: 2.64
  current_q: 26.21
  speed: 4669.0
  duty_cycle: 0.132
  charge_drawn: 232.0
  charge_regen: 0.0
  energy_drawn: 0.0
  energy_regen: 0.0
  displacement: 12524.0
  distance_traveled: 43336.0
  fault_code: 0
---
header: 
  seq: 75442
  stamp: 
    secs: 1626279991
    nsecs: 100565204
  frame_id: ''
state: 
  voltage_input: 11.6
  temperature_pcb: 0.0
  current_motor: 25.75
  current_input: 2.58
  current_q: 24.95
  speed: 4838.0
  duty_cycle: 0.102
  charge_drawn: 232.0
  charge_regen: 0.0
  energy_drawn: 0.0
  energy_regen: 0.0
  displacement: 12535.0
  distance_traveled: 43347.0
  fault_code: 0
---
header: 
  seq: 75443
  stamp: 
    secs: 1626279991
    nsecs: 120502896
  frame_id: ''
state: 
  voltage_input: 11.5
  temperature_pcb: 0.0
  current_motor: 24.4
  current_input: 2.48
  current_q: 24.8
  speed: 4929.0
  duty_cycle: 0.123
  charge_drawn: 233.0
  charge_regen: 0.0
  energy_drawn: 0.0
  energy_regen: 0.0
  displacement: 12545.0
  distance_traveled: 43357.0
  fault_code: 0
---
header: 
  seq: 75444
  stamp: 
    secs: 1626279991
    nsecs: 140776897
  frame_id: ''
state: 
  voltage_input: 11.5
  temperature_pcb: 0.0
  current_motor: 23.5
  current_input: 2.3
  current_q: 23.12
  speed: 5050.0
  duty_cycle: 0.108
  charge_drawn: 233.0
  charge_regen: 0.0
  energy_drawn: 0.0
  energy_regen: 0.0
  displacement: 12556.0
  distance_traveled: 43368.0
  fault_code: 0
---
header: 
  seq: 75445
  stamp: 
    secs: 1626279991
    nsecs: 160256975
  frame_id: ''
state: 
  voltage_input: 11.5
  temperature_pcb: 0.0
  current_motor: 21.09
  current_input: 2.09
  current_q: 21.26
  speed: 5139.0
  duty_cycle: 0.12
  charge_drawn: 233.0
  charge_regen: 0.0
  energy_drawn: 0.0
  energy_regen: 0.0
  displacement: 12567.0
  distance_traveled: 43379.0
  fault_code: 0
---
header: 
  seq: 75446
  stamp: 
    secs: 1626279991
    nsecs: 180043205
  frame_id: ''
state: 
  voltage_input: 11.6
  temperature_pcb: 0.0
  current_motor: 18.96
  current_input: 1.8
  current_q: 18.41
  speed: 5252.0
  duty_cycle: 0.103
  charge_drawn: 233.0
  charge_regen: 0.0
  energy_drawn: 0.0
  energy_regen: 0.0
  displacement: 12578.0
  distance_traveled: 43390.0
  fault_code: 0
---
header: 
  seq: 75447
  stamp: 
    secs: 1626279991
    nsecs: 201235821
  frame_id: ''
state: 
  voltage_input: 11.5
  temperature_pcb: 0.0
  current_motor: 18.33
  current_input: 1.79
  current_q: 18.47
  speed: 5319.0
  duty_cycle: 0.116
  charge_drawn: 233.0
  charge_regen: 0.0
  energy_drawn: 0.0
  energy_regen: 0.0
  displacement: 12589.0
  distance_traveled: 43401.0
  fault_code: 0
---
header: 
  seq: 75448
  stamp: 
    secs: 1626279991
    nsecs: 220370995
  frame_id: ''
state: 
  voltage_input: 11.4
  temperature_pcb: 0.0
  current_motor: 17.84
  current_input: 1.69
  current_q: 17.24
  speed: 5410.0
  duty_cycle: 0.101
  charge_drawn: 233.0
  charge_regen: 0.0
  energy_drawn: 0.0
  energy_regen: 0.0
  displacement: 12600.0
  distance_traveled: 43412.0
  fault_code: 0
---
header: 
  seq: 75449
  stamp: 
    secs: 1626279991
    nsecs: 240623173
  frame_id: ''
state: 
  voltage_input: 11.5
  temperature_pcb: 0.0
  current_motor: 16.3
  current_input: 1.57
  current_q: 16.44
  speed: 5461.0
  duty_cycle: 0.114
  charge_drawn: 233.0
  charge_regen: 0.0
  energy_drawn: 0.0
  energy_regen: 0.0
  displacement: 12611.0
  distance_traveled: 43423.0
  fault_code: 0
---
header: 
  seq: 75450
  stamp: 
    secs: 1626279991
    nsecs: 259756368
  frame_id: ''
state: 
  voltage_input: 11.5
  temperature_pcb: 0.0
  current_motor: 17.96
  current_input: 1.76
  current_q: 17.91
  speed: 5516.0
  duty_cycle: 0.111
  charge_drawn: 233.0
  charge_regen: 0.0
  energy_drawn: 0.0
  energy_regen: 0.0
  displacement: 12623.0
  distance_traveled: 43435.0
  fault_code: 0
---
header: 
  seq: 75451
  stamp: 
    secs: 1626279991
    nsecs: 280391211
  frame_id: ''
state: 
  voltage_input: 11.5
  temperature_pcb: 0.0
  current_motor: 17.24
  current_input: 1.65
  current_q: 17.08
  speed: 5545.0
  duty_cycle: 0.115
  charge_drawn: 233.0
  charge_regen: 0.0
  energy_drawn: 0.0
  energy_regen: 0.0
  displacement: 12634.0
  distance_traveled: 43446.0
  fault_code: 0
---
header: 
  seq: 75452
  stamp: 
    secs: 1626279991
    nsecs: 302024618
  frame_id: ''
state: 
  voltage_input: 11.6
  temperature_pcb: 0.0
  current_motor: 17.89
  current_input: 1.75
  current_q: 17.77
  speed: 5589.0
  duty_cycle: 0.111
  charge_drawn: 233.0
  charge_regen: 0.0
  energy_drawn: 0.0
  energy_regen: 0.0
  displacement: 12646.0
  distance_traveled: 43458.0
  fault_code: 0
---
header: 
  seq: 75453
  stamp: 
    secs: 1626279991
    nsecs: 319503244
  frame_id: ''
state: 
  voltage_input: 11.4
  temperature_pcb: 0.0
  current_motor: 13.27
  current_input: 1.23
  current_q: 13.06
  speed: 5643.0
  duty_cycle: 0.102
  charge_drawn: 234.0
  charge_regen: 0.0
  energy_drawn: 0.0
  energy_regen: 0.0
  displacement: 12657.0
  distance_traveled: 43469.0
  fault_code: 0
---
header: 
  seq: 75454
  stamp: 
    secs: 1626279991
    nsecs: 339766412
  frame_id: ''
state: 
  voltage_input: 11.5
  temperature_pcb: 0.0
  current_motor: 11.46
  current_input: 1.05
  current_q: 11.36
  speed: 5694.0
  duty_cycle: 0.105
  charge_drawn: 234.0
  charge_regen: 0.0
  energy_drawn: 0.0
  energy_regen: 0.0
  displacement: 12669.0
  distance_traveled: 43481.0
  fault_code: 0
---
header: 
  seq: 75455
  stamp: 
    secs: 1626279991
    nsecs: 360483028
  frame_id: ''
state: 
  voltage_input: 11.5
  temperature_pcb: 0.0
  current_motor: 13.38
  current_input: 1.26
  current_q: 13.32
  speed: 5719.0
  duty_cycle: 0.117
  charge_drawn: 234.0
  charge_regen: 0.0
  energy_drawn: 0.0
  energy_regen: 0.0
  displacement: 12680.0
  distance_traveled: 43492.0
  fault_code: 0
---
header: 
  seq: 75456
  stamp: 
    secs: 1626279991
    nsecs: 380098890
  frame_id: ''
state: 
  voltage_input: 11.5
  temperature_pcb: 0.0
  current_motor: 14.97
  current_input: 1.45
  current_q: 14.98
  speed: 5741.0
  duty_cycle: 0.113
  charge_drawn: 234.0
  charge_regen: 0.0
  energy_drawn: 0.0
  energy_regen: 0.0
  displacement: 12692.0
  distance_traveled: 43504.0
  fault_code: 0
---
header: 
  seq: 75457
  stamp: 
    secs: 1626279991
    nsecs: 400302421
  frame_id: ''
state: 
  voltage_input: 11.5
  temperature_pcb: 0.0
  current_motor: 13.23
  current_input: 1.22
  current_q: 12.9
  speed: 5772.0
  duty_cycle: 0.102
  charge_drawn: 234.0
  charge_regen: 0.0
  energy_drawn: 0.0
  energy_regen: 0.0
  displacement: 12704.0
  distance_traveled: 43516.0
  fault_code: 0
---
header: 
  seq: 75458
  stamp: 
    secs: 1626279991
    nsecs: 420176049
  frame_id: ''
state: 
  voltage_input: 11.6
  temperature_pcb: 0.0
  current_motor: 11.57
  current_input: 1.06
  current_q: 11.36
  speed: 5797.0
  duty_cycle: 0.11
  charge_drawn: 234.0
  charge_regen: 0.0
  energy_drawn: 0.0
  energy_regen: 0.0
  displacement: 12715.0
  distance_traveled: 43527.0
  fault_code: 0
---
header: 
  seq: 75459
  stamp: 
    secs: 1626279991
    nsecs: 439621178
  frame_id: ''
state: 
  voltage_input: 11.6
  temperature_pcb: 0.0
  current_motor: 12.11
  current_input: 1.14
  current_q: 12.18
  speed: 5814.0
  duty_cycle: 0.114
  charge_drawn: 234.0
  charge_regen: 0.0
  energy_drawn: 0.0
  energy_regen: 0.0
  displacement: 12727.0
  distance_traveled: 43539.0
  fault_code: 0
---
header: 
  seq: 75460
  stamp: 
    secs: 1626279991
    nsecs: 460326647
  frame_id: ''
state: 
  voltage_input: 11.5
  temperature_pcb: 0.0
  current_motor: 13.24
  current_input: 1.25
  current_q: 13.02
  speed: 5837.0
  duty_cycle: 0.108
  charge_drawn: 234.0
  charge_regen: 0.0
  energy_drawn: 0.0
  energy_regen: 0.0
  displacement: 12739.0
  distance_traveled: 43551.0
  fault_code: 0
---
header: 
  seq: 75461
  stamp: 
    secs: 1626279991
    nsecs: 481502857
  frame_id: ''
state: 
  voltage_input: 11.5
  temperature_pcb: 0.0
  current_motor: 12.16
  current_input: 1.11
  current_q: 11.8
  speed: 5853.0
  duty_cycle: 0.101
  charge_drawn: 234.0
  charge_regen: 0.0
  energy_drawn: 0.0
  energy_regen: 0.0
  displacement: 12751.0
  distance_traveled: 43563.0
  fault_code: 0
---
header: 
  seq: 75462
  stamp: 
    secs: 1626279991
    nsecs: 500506101
  frame_id: ''
state: 
  voltage_input: 11.5
  temperature_pcb: 0.0
  current_motor: 12.68
  current_input: 1.21
  current_q: 12.85
  speed: 5851.0
  duty_cycle: 0.111
  charge_drawn: 234.0
  charge_regen: 0.0
  energy_drawn: 0.0
  energy_regen: 0.0
  displacement: 12763.0
  distance_traveled: 43575.0
  fault_code: 0
---
header: 
  seq: 75463
  stamp: 
    secs: 1626279991
    nsecs: 519532782
  frame_id: ''
state: 
  voltage_input: 11.6
  temperature_pcb: 0.0
  current_motor: 14.65
  current_input: 1.42
  current_q: 14.62
  speed: 5847.0
  duty_cycle: 0.115
  charge_drawn: 234.0
  charge_regen: 0.0
  energy_drawn: 0.0
  energy_regen: 0.0
  displacement: 12774.0
  distance_traveled: 43586.0
  fault_code: 0
---
header: 
  seq: 75464
  stamp: 
    secs: 1626279991
    nsecs: 540733836
  frame_id: ''
state: 
  voltage_input: 11.5
  temperature_pcb: 0.0
  current_motor: 12.9
  current_input: 1.19
  current_q: 12.41
  speed: 5872.0
  duty_cycle: 0.102
  charge_drawn: 234.0
  charge_regen: 0.0
  energy_drawn: 0.0
  energy_regen: 0.0
  displacement: 12786.0
  distance_traveled: 43598.0
  fault_code: 0
---
header: 
  seq: 75465
  stamp: 
    secs: 1626279991
    nsecs: 560756270
  frame_id: ''
state: 
  voltage_input: 11.5
  temperature_pcb: 0.0
  current_motor: 10.48
  current_input: 0.96
  current_q: 10.39
  speed: 5891.0
  duty_cycle: 0.098
  charge_drawn: 234.0
  charge_regen: 0.0
  energy_drawn: 0.0
  energy_regen: 0.0
  displacement: 12798.0
  distance_traveled: 43610.0
  fault_code: 0
---
header: 
  seq: 75466
  stamp: 
    secs: 1626279991
    nsecs: 581154649
  frame_id: ''
state: 
  voltage_input: 11.5
  temperature_pcb: 0.0
  current_motor: 10.92
  current_input: 1.01
  current_q: 10.96
  speed: 5894.0
  duty_cycle: 0.106
  charge_drawn: 234.0
  charge_regen: 0.0
  energy_drawn: 0.0
  energy_regen: 0.0
  displacement: 12810.0
  distance_traveled: 43622.0
  fault_code: 0
---
header: 
  seq: 75467
  stamp: 
    secs: 1626279991
    nsecs: 599554390
  frame_id: ''
state: 
  voltage_input: 11.6
  temperature_pcb: 0.0
  current_motor: 12.77
  current_input: 1.2
  current_q: 12.64
  speed: 5892.0
  duty_cycle: 0.116
  charge_drawn: 234.0
  charge_regen: 0.0
  energy_drawn: 0.0
  energy_regen: 0.0
  displacement: 12821.0
  distance_traveled: 43633.0
  fault_code: 0
---
header: 
  seq: 75468
  stamp: 
    secs: 1626279991
    nsecs: 620416998
  frame_id: ''
state: 
  voltage_input: 11.5
  temperature_pcb: 0.0
  current_motor: 13.21
  current_input: 1.25
  current_q: 13.04
  speed: 5906.0
  duty_cycle: 0.104
  charge_drawn: 235.0
  charge_regen: 0.0
  energy_drawn: 0.0
  energy_regen: 0.0
  displacement: 12834.0
  distance_traveled: 43646.0
  fault_code: 0
---
header: 
  seq: 75469
  stamp: 
    secs: 1626279991
    nsecs: 640231875
  frame_id: ''
state: 
  voltage_input: 11.6
  temperature_pcb: 0.0
  current_motor: 9.8
  current_input: 0.85
  current_q: 9.22
  speed: 5946.0
  duty_cycle: 0.088
  charge_drawn: 235.0
  charge_regen: 0.0
  energy_drawn: 0.0
  energy_regen: 0.0
  displacement: 12845.0
  distance_traveled: 43657.0
  fault_code: 0
---
header: 
  seq: 75470
  stamp: 
    secs: 1626279991
    nsecs: 660455563
  frame_id: ''
state: 
  voltage_input: 11.6
  temperature_pcb: 0.0
  current_motor: 10.53
  current_input: 1.04
  current_q: 10.0
  speed: 5961.0
  duty_cycle: 0.09
  charge_drawn: 235.0
  charge_regen: 0.0
  energy_drawn: 0.0
  energy_regen: 0.0
  displacement: 12857.0
  distance_traveled: 43669.0
  fault_code: 0
---
header: 
  seq: 75471
  stamp: 
    secs: 1626279991
    nsecs: 680824827
  frame_id: ''
state: 
  voltage_input: 11.5
  temperature_pcb: 0.0
  current_motor: 12.05
  current_input: 1.18
  current_q: 11.08
  speed: 5960.0
  duty_cycle: 0.08
  charge_drawn: 235.0
  charge_regen: 0.0
  energy_drawn: 0.0
  energy_regen: 0.0
  displacement: 12870.0
  distance_traveled: 43682.0
  fault_code: 0
---
header: 
  seq: 75472
  stamp: 
    secs: 1626279991
    nsecs: 700563296
  frame_id: ''
state: 
  voltage_input: 11.6
  temperature_pcb: 0.0
  current_motor: 14.36
  current_input: 1.49
  current_q: 14.27
  speed: 5944.0
  duty_cycle: 0.102
  charge_drawn: 235.0
  charge_regen: 0.0
  energy_drawn: 0.0
  energy_regen: 0.0
  displacement: 12881.0
  distance_traveled: 43693.0
  fault_code: 0
---
header: 
  seq: 75473
  stamp: 
    secs: 1626279991
    nsecs: 720397340
  frame_id: ''
state: 
  voltage_input: 11.5
  temperature_pcb: 0.0
  current_motor: 12.46
  current_input: 1.31
  current_q: 12.29
  speed: 5926.0
  duty_cycle: 0.115
  charge_drawn: 235.0
  charge_regen: 0.0
  energy_drawn: 0.0
  energy_regen: 0.0
  displacement: 12893.0
  distance_traveled: 43705.0
  fault_code: 0
---
header: 
  seq: 75474
  stamp: 
    secs: 1626279991
    nsecs: 740172424
  frame_id: ''
state: 
  voltage_input: 11.5
  temperature_pcb: 0.0
  current_motor: 12.46
  current_input: 1.24
  current_q: 11.8
  speed: 5923.0
  duty_cycle: 0.116
  charge_drawn: 235.0
  charge_regen: 0.0
  energy_drawn: 0.0
  energy_regen: 0.0
  displacement: 12905.0
  distance_traveled: 43717.0
  fault_code: 0
---
header: 
  seq: 75475
  stamp: 
    secs: 1626279991
    nsecs: 759205929
  frame_id: ''
state: 
  voltage_input: 11.6
  temperature_pcb: 0.0
  current_motor: 11.73
  current_input: 1.11
  current_q: 10.85
  speed: 5909.0
  duty_cycle: 0.127
  charge_drawn: 235.0
  charge_regen: 0.0
  energy_drawn: 0.0
  energy_regen: 0.0
  displacement: 12916.0
  distance_traveled: 43728.0
  fault_code: 0
---
header: 
  seq: 75476
  stamp: 
    secs: 1626279991
    nsecs: 780129685
  frame_id: ''
state: 
  voltage_input: 11.5
  temperature_pcb: 0.0
  current_motor: 11.87
  current_input: 1.12
  current_q: 10.82
  speed: 5918.0
  duty_cycle: 0.128
  charge_drawn: 235.0
  charge_regen: 0.0
  energy_drawn: 0.0
  energy_regen: 0.0
  displacement: 12928.0
  distance_traveled: 43740.0
  fault_code: 0
---
header: 
  seq: 75477
  stamp: 
    secs: 1626279991
    nsecs: 800034095
  frame_id: ''
state: 
  voltage_input: 11.5
  temperature_pcb: 0.0
  current_motor: 10.14
  current_input: 0.99
  current_q: 9.67
  speed: 5922.0
  duty_cycle: 0.122
  charge_drawn: 235.0
  charge_regen: 0.0
  energy_drawn: 0.0
  energy_regen: 0.0
  displacement: 12940.0
  distance_traveled: 43752.0
  fault_code: 0
---
header: 
  seq: 75478
  stamp: 
    secs: 1626279991
    nsecs: 819478129
  frame_id: ''
state: 
  voltage_input: 11.5
  temperature_pcb: 0.0
  current_motor: 11.48
  current_input: 1.08
  current_q: 10.57
  speed: 5918.0
  duty_cycle: 0.122
  charge_drawn: 235.0
  charge_regen: 0.0
  energy_drawn: 0.0
  energy_regen: 0.0
  displacement: 12952.0
  distance_traveled: 43764.0
  fault_code: 0
---
header: 
  seq: 75479
  stamp: 
    secs: 1626279991
    nsecs: 840963565
  frame_id: ''
state: 
  voltage_input: 11.5
  temperature_pcb: 0.0
  current_motor: 12.35
  current_input: 1.18
  current_q: 11.42
  speed: 5921.0
  duty_cycle: 0.127
  charge_drawn: 235.0
  charge_regen: 0.0
  energy_drawn: 0.0
  energy_regen: 0.0
  displacement: 12964.0
  distance_traveled: 43776.0
  fault_code: 0
---
header: 
  seq: 75480
  stamp: 
    secs: 1626279991
    nsecs: 860852037
  frame_id: ''
state: 
  voltage_input: 11.5
  temperature_pcb: 0.0
  current_motor: 10.34
  current_input: 1.01
  current_q: 9.6
  speed: 5941.0
  duty_cycle: 0.115
  charge_drawn: 235.0
  charge_regen: 0.0
  energy_drawn: 0.0
  energy_regen: 0.0
  displacement: 12976.0
  distance_traveled: 43788.0
  fault_code: 0
---
header: 
  seq: 75481
  stamp: 
    secs: 1626279991
    nsecs: 880665455
  frame_id: ''
state: 
  voltage_input: 11.6
  temperature_pcb: 0.0
  current_motor: 8.9
  current_input: 0.84
  current_q: 8.3
  speed: 5967.0
  duty_cycle: 0.101
  charge_drawn: 235.0
  charge_regen: 0.0
  energy_drawn: 0.0
  energy_regen: 0.0
  displacement: 12988.0
  distance_traveled: 43800.0
  fault_code: 0
---
header: 
  seq: 75482
  stamp: 
    secs: 1626279991
    nsecs: 899627031
  frame_id: ''
state: 
  voltage_input: 11.5
  temperature_pcb: 0.0
  current_motor: 10.55
  current_input: 0.98
  current_q: 9.76
  speed: 5973.0
  duty_cycle: 0.096
  charge_drawn: 235.0
  charge_regen: 0.0
  energy_drawn: 0.0
  energy_regen: 0.0
  displacement: 13000.0
  distance_traveled: 43812.0
  fault_code: 0
---
header: 
  seq: 75483
  stamp: 
    secs: 1626279991
    nsecs: 919593838
  frame_id: ''
state: 
  voltage_input: 11.6
  temperature_pcb: 0.0
  current_motor: 11.84
  current_input: 1.14
  current_q: 11.17
  speed: 5987.0
  duty_cycle: 0.08
  charge_drawn: 235.0
  charge_regen: 0.0
  energy_drawn: 0.0
  energy_regen: 0.0
  displacement: 13012.0
  distance_traveled: 43824.0
  fault_code: 0
---
header: 
  seq: 75484
  stamp: 
    secs: 1626279991
    nsecs: 940408998
  frame_id: ''
state: 
  voltage_input: 11.6
  temperature_pcb: 0.0
  current_motor: 10.9
  current_input: 1.02
  current_q: 9.91
  speed: 5996.0
  duty_cycle: 0.083
  charge_drawn: 236.0
  charge_regen: 0.0
  energy_drawn: 0.0
  energy_regen: 0.0
  displacement: 13024.0
  distance_traveled: 43836.0
  fault_code: 0
---
header: 
  seq: 75485
  stamp: 
    secs: 1626279991
    nsecs: 960003245
  frame_id: ''
state: 
  voltage_input: 11.6
  temperature_pcb: 0.0
  current_motor: 9.93
  current_input: 0.99
  current_q: 9.42
  speed: 6012.0
  duty_cycle: 0.081
  charge_drawn: 236.0
  charge_regen: 0.0
  energy_drawn: 0.0
  energy_regen: 0.0
  displacement: 13036.0
  distance_traveled: 43848.0
  fault_code: 0
---
header: 
  seq: 75486
  stamp: 
    secs: 1626279991
    nsecs: 980886792
  frame_id: ''
state: 
  voltage_input: 11.6
  temperature_pcb: 0.0
  current_motor: 9.41
  current_input: 0.92
  current_q: 8.8
  speed: 6028.0
  duty_cycle: 0.079
  charge_drawn: 236.0
  charge_regen: 0.0
  energy_drawn: 0.0
  energy_regen: 0.0
  displacement: 13048.0
  distance_traveled: 43860.0
  fault_code: 0
---
header: 
  seq: 75487
  stamp: 
    secs: 1626279992
    nsecs:    382234
  frame_id: ''
state: 
  voltage_input: 11.6
  temperature_pcb: 0.0
  current_motor: 9.35
  current_input: 0.92
  current_q: 8.8
  speed: 6033.0
  duty_cycle: 0.077
  charge_drawn: 236.0
  charge_regen: 0.0
  energy_drawn: 0.0
  energy_regen: 0.0
  displacement: 13061.0
  distance_traveled: 43873.0
  fault_code: 0
---
header: 
  seq: 75488
  stamp: 
    secs: 1626279992
    nsecs:  19491834
  frame_id: ''
state: 
  voltage_input: 11.6
  temperature_pcb: 0.0
  current_motor: 8.85
  current_input: 0.85
  current_q: 7.94
  speed: 6040.0
  duty_cycle: 0.079
  charge_drawn: 236.0
  charge_regen: 0.0
  energy_drawn: 0.0
  energy_regen: 0.0
  displacement: 13072.0
  distance_traveled: 43884.0
  fault_code: 0
---
header: 
  seq: 75489
  stamp: 
    secs: 1626279992
    nsecs:  40439289
  frame_id: ''
state: 
  voltage_input: 11.5
  temperature_pcb: 0.0
  current_motor: 9.37
  current_input: 0.95
  current_q: 9.0
  speed: 6044.0
  duty_cycle: 0.083
  charge_drawn: 236.0
  charge_regen: 0.0
  energy_drawn: 0.0
  energy_regen: 0.0
  displacement: 13085.0
  distance_traveled: 43897.0
  fault_code: 0
---
header: 
  seq: 75490
  stamp: 
    secs: 1626279992
    nsecs:  60332709
  frame_id: ''
state: 
  voltage_input: 11.5
  temperature_pcb: 0.0
  current_motor: 11.06
  current_input: 1.08
  current_q: 10.41
  speed: 6045.0
  duty_cycle: 0.081
  charge_drawn: 236.0
  charge_regen: 0.0
  energy_drawn: 0.0
  energy_regen: 0.0
  displacement: 13097.0
  distance_traveled: 43909.0
  fault_code: 0
---
header: 
  seq: 75491
  stamp: 
    secs: 1626279992
    nsecs:  81024741
  frame_id: ''
state: 
  voltage_input: 11.5
  temperature_pcb: 0.0
  current_motor: 10.58
  current_input: 1.05
  current_q: 10.06
  speed: 6045.0
  duty_cycle: 0.085
  charge_drawn: 236.0
  charge_regen: 0.0
  energy_drawn: 0.0
  energy_regen: 0.0
  displacement: 13109.0
  distance_traveled: 43921.0
  fault_code: 0
---
header: 
  seq: 75492
  stamp: 
    secs: 1626279992
    nsecs: 100697322
  frame_id: ''
state: 
  voltage_input: 11.5
  temperature_pcb: 0.0
  current_motor: 9.11
  current_input: 0.92
  current_q: 8.75
  speed: 6044.0
  duty_cycle: 0.097
  charge_drawn: 236.0
  charge_regen: 0.0
  energy_drawn: 0.0
  energy_regen: 0.0
  displacement: 13121.0
  distance_traveled: 43933.0
  fault_code: 0
---
header: 
  seq: 75493
  stamp: 
    secs: 1626279992
    nsecs: 120540116
  frame_id: ''
state: 
  voltage_input: 11.6
  temperature_pcb: 0.0
  current_motor: 10.68
  current_input: 1.03
  current_q: 10.08
  speed: 6041.0
  duty_cycle: 0.092
  charge_drawn: 236.0
  charge_regen: 0.0
  energy_drawn: 0.0
  energy_regen: 0.0
  displacement: 13133.0
  distance_traveled: 43945.0
  fault_code: 0
---
header: 
  seq: 75494
  stamp: 
    secs: 1626279992
    nsecs: 140467808
  frame_id: ''
state: 
  voltage_input: 11.6
  temperature_pcb: 0.0
  current_motor: 12.49
  current_input: 1.26
  current_q: 11.82
  speed: 6021.0
  duty_cycle: 0.093
  charge_drawn: 236.0
  charge_regen: 0.0
  energy_drawn: 0.0
  energy_regen: 0.0
  displacement: 13145.0
  distance_traveled: 43957.0
  fault_code: 0
---
header: 
  seq: 75495
  stamp: 
    secs: 1626279992
    nsecs: 160633213
  frame_id: ''
state: 
  voltage_input: 11.6
  temperature_pcb: 0.0
  current_motor: 12.68
  current_input: 1.24
  current_q: 11.96
  speed: 5997.0
  duty_cycle: 0.106
  charge_drawn: 236.0
  charge_regen: 0.0
  energy_drawn: 0.0
  energy_regen: 0.0
  displacement: 13157.0
  distance_traveled: 43969.0
  fault_code: 0
---
header: 
  seq: 75496
  stamp: 
    secs: 1626279992
    nsecs: 180206418
  frame_id: ''
state: 
  voltage_input: 11.5
  temperature_pcb: 0.0
  current_motor: 11.51
  current_input: 1.08
  current_q: 10.42
  speed: 6007.0
  duty_cycle: 0.103
  charge_drawn: 236.0
  charge_regen: 0.0
  energy_drawn: 0.0
  energy_regen: 0.0
  displacement: 13168.0
  distance_traveled: 43980.0
  fault_code: 0
---
header: 
  seq: 75497
  stamp: 
    secs: 1626279992
    nsecs: 200438700
  frame_id: ''
state: 
  voltage_input: 11.6
  temperature_pcb: 0.0
  current_motor: 11.0
  current_input: 1.06
  current_q: 10.11
  speed: 6011.0
  duty_cycle: 0.095
  charge_drawn: 236.0
  charge_regen: 0.0
  energy_drawn: 0.0
  energy_regen: 0.0
  displacement: 13181.0
  distance_traveled: 43993.0
  fault_code: 0
---
header: 
  seq: 75498
  stamp: 
    secs: 1626279992
    nsecs: 219668042
  frame_id: ''
state: 
  voltage_input: 11.6
  temperature_pcb: 0.0
  current_motor: 11.37
  current_input: 1.17
  current_q: 10.97
  speed: 5993.0
  duty_cycle: 0.107
  charge_drawn: 236.0
  charge_regen: 0.0
  energy_drawn: 0.0
  energy_regen: 0.0
  displacement: 13192.0
  distance_traveled: 44004.0
  fault_code: 0
---
header: 
  seq: 75499
  stamp: 
    secs: 1626279992
    nsecs: 240226425
  frame_id: ''
state: 
  voltage_input: 11.6
  temperature_pcb: 0.0
  current_motor: 11.07
  current_input: 1.08
  current_q: 10.35
  speed: 5995.0
  duty_cycle: 0.107
  charge_drawn: 236.0
  charge_regen: 0.0
  energy_drawn: 0.0
  energy_regen: 0.0
  displacement: 13204.0
  distance_traveled: 44016.0
  fault_code: 0
---
header: 
  seq: 75500
