header: 
  seq: 58122
  stamp: 
    secs: 1625861596
    nsecs: 366284581
  frame_id: ''
state: 
  voltage_input: 11.6
  temperature_pcb: 0.0
  current_motor: 0.0
  current_input: 0.0
  current_q: 0.0
  speed: 1.0
  duty_cycle: 0.0
  charge_drawn: 42.0
  charge_regen: 0.0
  energy_drawn: 0.0
  energy_regen: 0.0
  displacement: 4269.0
  distance_traveled: 5247.0
  fault_code: 0
---
header: 
  seq: 58123
  stamp: 
    secs: 1625861596
    nsecs: 383710703
  frame_id: ''
state: 
  voltage_input: 11.7
  temperature_pcb: 0.0
  current_motor: 0.0
  current_input: 0.0
  current_q: 0.0
  speed: 0.0
  duty_cycle: 0.0
  charge_drawn: 42.0
  charge_regen: 0.0
  energy_drawn: 0.0
  energy_regen: 0.0
  displacement: 4269.0
  distance_traveled: 5247.0
  fault_code: 0
---
header: 
  seq: 58124
  stamp: 
    secs: 1625861596
    nsecs: 403724760
  frame_id: ''
state: 
  voltage_input: 11.6
  temperature_pcb: 0.0
  current_motor: 0.0
  current_input: 0.0
  current_q: 0.0
  speed: -1.0
  duty_cycle: 0.0
  charge_drawn: 42.0
  charge_regen: 0.0
  energy_drawn: 0.0
  energy_regen: 0.0
  displacement: 4269.0
  distance_traveled: 5247.0
  fault_code: 0
---
header: 
  seq: 58125
  stamp: 
    secs: 1625861596
    nsecs: 423656786
  frame_id: ''
state: 
  voltage_input: 11.6
  temperature_pcb: 0.0
  current_motor: 0.0
  current_input: 0.0
  current_q: 0.0
  speed: 0.0
  duty_cycle: 0.0
  charge_drawn: 42.0
  charge_regen: 0.0
  energy_drawn: 0.0
  energy_regen: 0.0
  displacement: 4269.0
  distance_traveled: 5247.0
  fault_code: 0
---
header: 
  seq: 58126
  stamp: 
    secs: 1625861596
    nsecs: 443716573
  frame_id: ''
state: 
  voltage_input: 11.6
  temperature_pcb: 0.0
  current_motor: 0.0
  current_input: 0.0
  current_q: 0.0
  speed: 0.0
  duty_cycle: 0.0
  charge_drawn: 42.0
  charge_regen: 0.0
  energy_drawn: 0.0
  energy_regen: 0.0
  displacement: 4269.0
  distance_traveled: 5247.0
  fault_code: 0
---
header: 
  seq: 58127
  stamp: 
    secs: 1625861596
    nsecs: 463803912
  frame_id: ''
state: 
  voltage_input: 11.6
  temperature_pcb: 0.0
  current_motor: 0.0
  current_input: 0.0
  current_q: 0.0
  speed: 0.0
  duty_cycle: 0.001
  charge_drawn: 42.0
  charge_regen: 0.0
  energy_drawn: 0.0
  energy_regen: 0.0
  displacement: 4269.0
  distance_traveled: 5247.0
  fault_code: 0
---
header: 
  seq: 58128
  stamp: 
    secs: 1625861596
    nsecs: 483602603
  frame_id: ''
state: 
  voltage_input: 11.6
  temperature_pcb: 0.0
  current_motor: 0.0
  current_input: 0.0
  current_q: 0.0
  speed: 0.0
  duty_cycle: 0.0
  charge_drawn: 42.0
  charge_regen: 0.0
  energy_drawn: 0.0
  energy_regen: 0.0
  displacement: 4269.0
  distance_traveled: 5247.0
  fault_code: 0
---
header: 
  seq: 58129
  stamp: 
    secs: 1625861596
    nsecs: 503702182
  frame_id: ''
state: 
  voltage_input: 11.7
  temperature_pcb: 0.0
  current_motor: 0.0
  current_input: 0.0
  current_q: 0.0
  speed: 0.0
  duty_cycle: 0.0
  charge_drawn: 42.0
  charge_regen: 0.0
  energy_drawn: 0.0
  energy_regen: 0.0
  displacement: 4269.0
  distance_traveled: 5247.0
  fault_code: 0
---
header: 
  seq: 58130
  stamp: 
    secs: 1625861596
    nsecs: 523740927
  frame_id: ''
state: 
  voltage_input: 11.6
  temperature_pcb: 0.0
  current_motor: 0.0
  current_input: 0.0
  current_q: 0.0
  speed: -1.0
  duty_cycle: 0.0
  charge_drawn: 42.0
  charge_regen: 0.0
  energy_drawn: 0.0
  energy_regen: 0.0
  displacement: 4269.0
  distance_traveled: 5247.0
  fault_code: 0
---
header: 
  seq: 58131
  stamp: 
    secs: 1625861596
    nsecs: 543687067
  frame_id: ''
state: 
  voltage_input: 11.6
  temperature_pcb: 0.0
  current_motor: 0.0
  current_input: 0.0
  current_q: 0.0
  speed: -1.0
  duty_cycle: 0.0
  charge_drawn: 42.0
  charge_regen: 0.0
  energy_drawn: 0.0
  energy_regen: 0.0
  displacement: 4269.0
  distance_traveled: 5247.0
  fault_code: 0
---
header: 
  seq: 58132
  stamp: 
    secs: 1625861596
    nsecs: 563679718
  frame_id: ''
state: 
  voltage_input: 11.6
  temperature_pcb: 0.0
  current_motor: 0.0
  current_input: 0.0
  current_q: 0.0
  speed: 0.0
  duty_cycle: 0.0
  charge_drawn: 42.0
  charge_regen: 0.0
  energy_drawn: 0.0
  energy_regen: 0.0
  displacement: 4269.0
  distance_traveled: 5247.0
  fault_code: 0
---
header: 
  seq: 58133
  stamp: 
    secs: 1625861596
    nsecs: 583628984
  frame_id: ''
state: 
  voltage_input: 11.6
  temperature_pcb: 0.0
  current_motor: 0.0
  current_input: 0.0
  current_q: 0.0
  speed: 0.0
  duty_cycle: 0.0
  charge_drawn: 42.0
  charge_regen: 0.0
  energy_drawn: 0.0
  energy_regen: 0.0
  displacement: 4269.0
  distance_traveled: 5247.0
  fault_code: 0
---
header: 
  seq: 58134
  stamp: 
    secs: 1625861596
    nsecs: 603947471
  frame_id: ''
state: 
  voltage_input: 11.6
  temperature_pcb: 0.0
  current_motor: 0.0
  current_input: 0.0
  current_q: 0.0
  speed: 0.0
  duty_cycle: -0.001
  charge_drawn: 42.0
  charge_regen: 0.0
  energy_drawn: 0.0
  energy_regen: 0.0
  displacement: 4269.0
  distance_traveled: 5247.0
  fault_code: 0
---
header: 
  seq: 58135
  stamp: 
    secs: 1625861596
    nsecs: 624009133
  frame_id: ''
state: 
  voltage_input: 11.6
  temperature_pcb: 0.0
  current_motor: 0.0
  current_input: 0.0
  current_q: 0.0
  speed: 0.0
  duty_cycle: 0.0
  charge_drawn: 42.0
  charge_regen: 0.0
  energy_drawn: 0.0
  energy_regen: 0.0
  displacement: 4269.0
  distance_traveled: 5247.0
  fault_code: 0
---
header: 
  seq: 58136
  stamp: 
    secs: 1625861596
    nsecs: 643703760
  frame_id: ''
state: 
  voltage_input: 11.7
  temperature_pcb: 0.0
  current_motor: 0.0
  current_input: 0.0
  current_q: 0.0
  speed: 0.0
  duty_cycle: 0.0
  charge_drawn: 42.0
  charge_regen: 0.0
  energy_drawn: 0.0
  energy_regen: 0.0
  displacement: 4269.0
  distance_traveled: 5247.0
  fault_code: 0
---
header: 
  seq: 58137
  stamp: 
    secs: 1625861596
    nsecs: 664023654
  frame_id: ''
state: 
  voltage_input: 11.6
  temperature_pcb: 0.0
  current_motor: 0.0
  current_input: 0.0
  current_q: 0.0
  speed: -1.0
  duty_cycle: 0.0
  charge_drawn: 42.0
  charge_regen: 0.0
  energy_drawn: 0.0
  energy_regen: 0.0
  displacement: 4269.0
  distance_traveled: 5247.0
  fault_code: 0
---
header: 
  seq: 58138
  stamp: 
    secs: 1625861596
    nsecs: 683722657
  frame_id: ''
state: 
  voltage_input: 11.6
  temperature_pcb: 0.0
  current_motor: 0.0
  current_input: 0.0
  current_q: 0.0
  speed: -1.0
  duty_cycle: 0.0
  charge_drawn: 42.0
  charge_regen: 0.0
  energy_drawn: 0.0
  energy_regen: 0.0
  displacement: 4269.0
  distance_traveled: 5247.0
  fault_code: 0
---
header: 
  seq: 58139
  stamp: 
    secs: 1625861596
    nsecs: 704027445
  frame_id: ''
state: 
  voltage_input: 11.6
  temperature_pcb: 0.0
  current_motor: 0.0
  current_input: 0.0
  current_q: 0.0
  speed: 0.0
  duty_cycle: 0.0
  charge_drawn: 42.0
  charge_regen: 0.0
  energy_drawn: 0.0
  energy_regen: 0.0
  displacement: 4269.0
  distance_traveled: 5247.0
  fault_code: 0
---
header: 
  seq: 58140
  stamp: 
    secs: 1625861596
    nsecs: 723748376
  frame_id: ''
state: 
  voltage_input: 11.6
  temperature_pcb: 0.0
  current_motor: 0.0
  current_input: 0.0
  current_q: 0.0
  speed: -1.0
  duty_cycle: 0.0
  charge_drawn: 42.0
  charge_regen: 0.0
  energy_drawn: 0.0
  energy_regen: 0.0
  displacement: 4269.0
  distance_traveled: 5247.0
  fault_code: 0
---
header: 
  seq: 58141
  stamp: 
    secs: 1625861596
    nsecs: 744019831
  frame_id: ''
state: 
  voltage_input: 11.7
  temperature_pcb: 0.0
  current_motor: 0.0
  current_input: 0.0
  current_q: 0.0
  speed: -2.0
  duty_cycle: 0.0
  charge_drawn: 42.0
  charge_regen: 0.0
  energy_drawn: 0.0
  energy_regen: 0.0
  displacement: 4269.0
  distance_traveled: 5247.0
  fault_code: 0
---
header: 
  seq: 58142
  stamp: 
    secs: 1625861596
    nsecs: 763691698
  frame_id: ''
state: 
  voltage_input: 11.6
  temperature_pcb: 0.0
  current_motor: 0.0
  current_input: 0.0
  current_q: 0.0
  speed: -2.0
  duty_cycle: 0.0
  charge_drawn: 42.0
  charge_regen: 0.0
  energy_drawn: 0.0
  energy_regen: 0.0
  displacement: 4269.0
  distance_traveled: 5247.0
  fault_code: 0
---
header: 
  seq: 58143
  stamp: 
    secs: 1625861596
    nsecs: 783698412
  frame_id: ''
state: 
  voltage_input: 11.6
  temperature_pcb: 0.0
  current_motor: 0.0
  current_input: 0.0
  current_q: 0.0
  speed: -2.0
  duty_cycle: 0.0
  charge_drawn: 42.0
  charge_regen: 0.0
  energy_drawn: 0.0
  energy_regen: 0.0
  displacement: 4269.0
  distance_traveled: 5247.0
  fault_code: 0
---
header: 
  seq: 58144
  stamp: 
    secs: 1625861596
    nsecs: 803658823
  frame_id: ''
state: 
  voltage_input: 11.6
  temperature_pcb: 0.0
  current_motor: 0.0
  current_input: 0.0
  current_q: 0.0
  speed: -4.0
  duty_cycle: 0.0
  charge_drawn: 42.0
  charge_regen: 0.0
  energy_drawn: 0.0
  energy_regen: 0.0
  displacement: 4269.0
  distance_traveled: 5247.0
  fault_code: 0
---
header: 
  seq: 58145
  stamp: 
    secs: 1625861596
    nsecs: 823993091
  frame_id: ''
state: 
  voltage_input: 11.6
  temperature_pcb: 0.0
  current_motor: 0.0
  current_input: 0.0
  current_q: 0.0
  speed: -2.0
  duty_cycle: 0.0
  charge_drawn: 42.0
  charge_regen: 0.0
  energy_drawn: 0.0
  energy_regen: 0.0
  displacement: 4269.0
  distance_traveled: 5247.0
  fault_code: 0
---
header: 
  seq: 58146
  stamp: 
    secs: 1625861596
    nsecs: 843678605
  frame_id: ''
state: 
  voltage_input: 11.6
  temperature_pcb: 0.0
  current_motor: 0.0
  current_input: 0.0
  current_q: 0.0
  speed: 0.0
  duty_cycle: 0.0
  charge_drawn: 42.0
  charge_regen: 0.0
  energy_drawn: 0.0
  energy_regen: 0.0
  displacement: 4269.0
  distance_traveled: 5247.0
  fault_code: 0
---
header: 
  seq: 58147
  stamp: 
    secs: 1625861596
    nsecs: 863658964
  frame_id: ''
state: 
  voltage_input: 11.6
  temperature_pcb: 0.0
  current_motor: 0.0
  current_input: 0.0
  current_q: 0.0
  speed: 0.0
  duty_cycle: 0.0
  charge_drawn: 42.0
  charge_regen: 0.0
  energy_drawn: 0.0
  energy_regen: 0.0
  displacement: 4269.0
  distance_traveled: 5247.0
  fault_code: 0
---
header: 
  seq: 58148
  stamp: 
    secs: 1625861596
    nsecs: 884104795
  frame_id: ''
state: 
  voltage_input: 11.6
  temperature_pcb: 0.0
  current_motor: 0.0
  current_input: 0.0
  current_q: 0.0
  speed: 0.0
  duty_cycle: 0.001
  charge_drawn: 42.0
  charge_regen: 0.0
  energy_drawn: 0.0
  energy_regen: 0.0
  displacement: 4269.0
  distance_traveled: 5247.0
  fault_code: 0
---
header: 
  seq: 58149
  stamp: 
    secs: 1625861596
    nsecs: 903975206
  frame_id: ''
state: 
  voltage_input: 11.6
  temperature_pcb: 0.0
  current_motor: 0.0
  current_input: 0.0
  current_q: 0.0
  speed: 0.0
  duty_cycle: 0.0
  charge_drawn: 42.0
  charge_regen: 0.0
  energy_drawn: 0.0
  energy_regen: 0.0
  displacement: 4269.0
  distance_traveled: 5247.0
  fault_code: 0
---
header: 
  seq: 58150
  stamp: 
    secs: 1625861596
    nsecs: 923717386
  frame_id: ''
state: 
  voltage_input: 11.7
  temperature_pcb: 0.0
  current_motor: 0.0
  current_input: 0.0
  current_q: 0.0
  speed: 0.0
  duty_cycle: 0.0
  charge_drawn: 42.0
  charge_regen: 0.0
  energy_drawn: 0.0
  energy_regen: 0.0
  displacement: 4269.0
  distance_traveled: 5247.0
  fault_code: 0
---
header: 
  seq: 58151
  stamp: 
    secs: 1625861596
    nsecs: 944040144
  frame_id: ''
state: 
  voltage_input: 11.6
  temperature_pcb: 0.0
  current_motor: 0.0
  current_input: 0.0
  current_q: 0.0
  speed: 0.0
  duty_cycle: 0.0
  charge_drawn: 42.0
  charge_regen: 0.0
  energy_drawn: 0.0
  energy_regen: 0.0
  displacement: 4269.0
  distance_traveled: 5247.0
  fault_code: 0
---
header: 
  seq: 58152
  stamp: 
    secs: 1625861596
    nsecs: 963858262
  frame_id: ''
state: 
  voltage_input: 11.7
  temperature_pcb: 0.0
  current_motor: 0.0
  current_input: 0.0
  current_q: 0.0
  speed: 0.0
  duty_cycle: 0.0
  charge_drawn: 42.0
  charge_regen: 0.0
  energy_drawn: 0.0
  energy_regen: 0.0
  displacement: 4269.0
  distance_traveled: 5247.0
  fault_code: 0
---
header: 
  seq: 58153
  stamp: 
    secs: 1625861596
    nsecs: 984149926
  frame_id: ''
state: 
  voltage_input: 11.6
  temperature_pcb: 0.0
  current_motor: 0.0
  current_input: 0.0
  current_q: 0.0
  speed: 0.0
  duty_cycle: 0.0
  charge_drawn: 42.0
  charge_regen: 0.0
  energy_drawn: 0.0
  energy_regen: 0.0
  displacement: 4269.0
  distance_traveled: 5247.0
  fault_code: 0
---
header: 
  seq: 58154
  stamp: 
    secs: 1625861597
    nsecs:   4105962
  frame_id: ''
state: 
  voltage_input: 11.7
  temperature_pcb: 0.0
  current_motor: 0.0
  current_input: 0.0
  current_q: 0.0
  speed: 0.0
  duty_cycle: 0.0
  charge_drawn: 42.0
  charge_regen: 0.0
  energy_drawn: 0.0
  energy_regen: 0.0
  displacement: 4269.0
  distance_traveled: 5247.0
  fault_code: 0
---
header: 
  seq: 58155
  stamp: 
    secs: 1625861597
    nsecs:  24066530
  frame_id: ''
state: 
  voltage_input: 11.6
  temperature_pcb: 0.0
  current_motor: 0.0
  current_input: 0.0
  current_q: 0.0
  speed: 0.0
  duty_cycle: 0.0
  charge_drawn: 42.0
  charge_regen: 0.0
  energy_drawn: 0.0
  energy_regen: 0.0
  displacement: 4269.0
  distance_traveled: 5247.0
  fault_code: 0
---
header: 
  seq: 58156
  stamp: 
    secs: 1625861597
    nsecs:  45038147
  frame_id: ''
state: 
  voltage_input: 11.6
  temperature_pcb: 0.0
  current_motor: 0.0
  current_input: 0.0
  current_q: 0.0
  speed: -1.0
  duty_cycle: 0.0
  charge_drawn: 42.0
  charge_regen: 0.0
  energy_drawn: 0.0
  energy_regen: 0.0
  displacement: 4269.0
  distance_traveled: 5247.0
  fault_code: 0
---
header: 
  seq: 58157
  stamp: 
    secs: 1625861597
    nsecs:  63843653
  frame_id: ''
state: 
  voltage_input: 11.7
  temperature_pcb: 0.0
  current_motor: 0.0
  current_input: 0.0
  current_q: 0.0
  speed: 0.0
  duty_cycle: 0.0
  charge_drawn: 42.0
  charge_regen: 0.0
  energy_drawn: 0.0
  energy_regen: 0.0
  displacement: 4269.0
  distance_traveled: 5247.0
  fault_code: 0
---
header: 
  seq: 58158
  stamp: 
    secs: 1625861597
    nsecs:  84542091
  frame_id: ''
state: 
  voltage_input: 11.7
  temperature_pcb: 0.0
  current_motor: 0.0
  current_input: 0.0
  current_q: 0.0
  speed: 0.0
  duty_cycle: 0.0
  charge_drawn: 42.0
  charge_regen: 0.0
  energy_drawn: 0.0
  energy_regen: 0.0
  displacement: 4269.0
  distance_traveled: 5247.0
  fault_code: 0
---
header: 
  seq: 58159
  stamp: 
    secs: 1625861597
    nsecs: 104694639
  frame_id: ''
state: 
  voltage_input: 11.7
  temperature_pcb: 0.0
  current_motor: 0.0
  current_input: 0.0
  current_q: 0.0
  speed: 1.0
  duty_cycle: 0.0
  charge_drawn: 42.0
  charge_regen: 0.0
  energy_drawn: 0.0
  energy_regen: 0.0
  displacement: 4269.0
  distance_traveled: 5247.0
  fault_code: 0
---
header: 
  seq: 58160
  stamp: 
    secs: 1625861597
    nsecs: 125019792
  frame_id: ''
state: 
  voltage_input: 11.7
  temperature_pcb: 0.0
  current_motor: 0.0
  current_input: 0.0
  current_q: 0.0
  speed: 1.0
  duty_cycle: 0.0
  charge_drawn: 42.0
  charge_regen: 0.0
  energy_drawn: 0.0
  energy_regen: 0.0
  displacement: 4269.0
  distance_traveled: 5247.0
  fault_code: 0
---
header: 
  seq: 58161
  stamp: 
    secs: 1625861597
    nsecs: 144712129
  frame_id: ''
state: 
  voltage_input: 11.7
  temperature_pcb: 0.0
  current_motor: 0.0
  current_input: 0.0
  current_q: 0.0
  speed: 0.0
  duty_cycle: 0.0
  charge_drawn: 42.0
  charge_regen: 0.0
  energy_drawn: 0.0
  energy_regen: 0.0
  displacement: 4269.0
  distance_traveled: 5247.0
  fault_code: 0
---
header: 
  seq: 58162
  stamp: 
    secs: 1625861597
    nsecs: 164837749
  frame_id: ''
state: 
  voltage_input: 11.6
  temperature_pcb: 0.0
  current_motor: 0.0
  current_input: 0.0
  current_q: 0.0
  speed: 0.0
  duty_cycle: 0.0
  charge_drawn: 42.0
  charge_regen: 0.0
  energy_drawn: 0.0
  energy_regen: 0.0
  displacement: 4269.0
  distance_traveled: 5247.0
  fault_code: 0
---
header: 
  seq: 58163
  stamp: 
    secs: 1625861597
    nsecs: 185169934
  frame_id: ''
state: 
  voltage_input: 11.6
  temperature_pcb: 0.0
  current_motor: 0.0
  current_input: 0.0
  current_q: 0.0
  speed: 0.0
  duty_cycle: 0.0
  charge_drawn: 42.0
  charge_regen: 0.0
  energy_drawn: 0.0
  energy_regen: 0.0
  displacement: 4269.0
  distance_traveled: 5247.0
  fault_code: 0
---
header: 
  seq: 58164
  stamp: 
    secs: 1625861597
    nsecs: 205347222
  frame_id: ''
state: 
  voltage_input: 11.6
  temperature_pcb: 0.0
  current_motor: 0.0
  current_input: 0.0
  current_q: 0.0
  speed: 0.0
  duty_cycle: 0.0
  charge_drawn: 42.0
  charge_regen: 0.0
  energy_drawn: 0.0
  energy_regen: 0.0
  displacement: 4269.0
  distance_traveled: 5247.0
  fault_code: 0
---
header: 
  seq: 58165
  stamp: 
    secs: 1625861597
    nsecs: 224208354
  frame_id: ''
state: 
  voltage_input: 11.6
  temperature_pcb: 0.0
  current_motor: 0.0
  current_input: 0.0
  current_q: 0.0
  speed: 0.0
  duty_cycle: 0.0
  charge_drawn: 42.0
  charge_regen: 0.0
  energy_drawn: 0.0
  energy_regen: 0.0
  displacement: 4269.0
  distance_traveled: 5247.0
  fault_code: 0
---
header: 
  seq: 58166
  stamp: 
    secs: 1625861597
    nsecs: 247042068
  frame_id: ''
state: 
  voltage_input: 11.6
  temperature_pcb: 0.0
  current_motor: 0.0
  current_input: 0.0
  current_q: 0.0
  speed: -1.0
  duty_cycle: 0.0
  charge_drawn: 42.0
  charge_regen: 0.0
  energy_drawn: 0.0
  energy_regen: 0.0
  displacement: 4269.0
  distance_traveled: 5247.0
  fault_code: 0
---
header: 
  seq: 58167
  stamp: 
    secs: 1625861597
    nsecs: 264765015
  frame_id: ''
state: 
  voltage_input: 11.6
  temperature_pcb: 0.0
  current_motor: 0.0
  current_input: 0.0
  current_q: 0.0
  speed: -1.0
  duty_cycle: 0.0
  charge_drawn: 42.0
  charge_regen: 0.0
  energy_drawn: 0.0
  energy_regen: 0.0
  displacement: 4269.0
  distance_traveled: 5247.0
  fault_code: 0
---
header: 
  seq: 58168
  stamp: 
    secs: 1625861597
    nsecs: 284768760
  frame_id: ''
state: 
  voltage_input: 11.6
  temperature_pcb: 0.0
  current_motor: 6.2
  current_input: 0.15
  current_q: 6.75
  speed: 200.0
  duty_cycle: 0.026
  charge_drawn: 42.0
  charge_regen: 0.0
  energy_drawn: 0.0
  energy_regen: 0.0
  displacement: 4270.0
  distance_traveled: 5248.0
  fault_code: 0
---
header: 
  seq: 58169
  stamp: 
    secs: 1625861597
    nsecs: 305423551
  frame_id: ''
state: 
  voltage_input: 11.6
  temperature_pcb: 0.0
  current_motor: 14.16
  current_input: 0.39
  current_q: 14.15
  speed: 166.0
  duty_cycle: 0.04
  charge_drawn: 42.0
  charge_regen: 0.0
  energy_drawn: 0.0
  energy_regen: 0.0
  displacement: 4270.0
  distance_traveled: 5248.0
  fault_code: 0
---
header: 
  seq: 58170
  stamp: 
    secs: 1625861597
    nsecs: 324663384
  frame_id: ''
state: 
  voltage_input: 11.7
  temperature_pcb: 0.0
  current_motor: 15.97
  current_input: 0.4
  current_q: 15.86
  speed: 164.0
  duty_cycle: 0.026
  charge_drawn: 42.0
  charge_regen: 0.0
  energy_drawn: 0.0
  energy_regen: 0.0
  displacement: 4271.0
  distance_traveled: 5249.0
  fault_code: 0
---
header: 
  seq: 58171
  stamp: 
    secs: 1625861597
    nsecs: 344748900
  frame_id: ''
state: 
  voltage_input: 11.7
  temperature_pcb: 0.0
  current_motor: 15.05
  current_input: 0.33
  current_q: 15.07
  speed: 182.0
  duty_cycle: 0.025
  charge_drawn: 42.0
  charge_regen: 0.0
  energy_drawn: 0.0
  energy_regen: 0.0
  displacement: 4271.0
  distance_traveled: 5249.0
  fault_code: 0
---
header: 
  seq: 58172
  stamp: 
    secs: 1625861597
    nsecs: 364922490
  frame_id: ''
state: 
  voltage_input: 11.6
  temperature_pcb: 0.0
  current_motor: 14.99
  current_input: 0.32
  current_q: 14.93
  speed: 212.0
  duty_cycle: 0.027
  charge_drawn: 42.0
  charge_regen: 0.0
  energy_drawn: 0.0
  energy_regen: 0.0
  displacement: 4272.0
  distance_traveled: 5250.0
  fault_code: 0
---
header: 
  seq: 58173
  stamp: 
    secs: 1625861597
    nsecs: 384853422
  frame_id: ''
state: 
  voltage_input: 11.6
  temperature_pcb: 0.0
  current_motor: 15.37
  current_input: 0.34
  current_q: 15.3
  speed: 256.0
  duty_cycle: 0.023
  charge_drawn: 42.0
  charge_regen: 0.0
  energy_drawn: 0.0
  energy_regen: 0.0
  displacement: 4273.0
  distance_traveled: 5251.0
  fault_code: 0
---
header: 
  seq: 58174
  stamp: 
    secs: 1625861597
    nsecs: 404963678
  frame_id: ''
state: 
  voltage_input: 11.6
  temperature_pcb: 0.0
  current_motor: 14.28
  current_input: 0.34
  current_q: 14.23
  speed: 287.0
  duty_cycle: 0.037
  charge_drawn: 42.0
  charge_regen: 0.0
  energy_drawn: 0.0
  energy_regen: 0.0
  displacement: 4273.0
  distance_traveled: 5251.0
  fault_code: 0
---
header: 
  seq: 58175
  stamp: 
    secs: 1625861597
    nsecs: 424873985
  frame_id: ''
state: 
  voltage_input: 11.6
  temperature_pcb: 0.0
  current_motor: 15.74
  current_input: 0.36
  current_q: 15.65
  speed: 313.0
  duty_cycle: 0.025
  charge_drawn: 42.0
  charge_regen: 0.0
  energy_drawn: 0.0
  energy_regen: 0.0
  displacement: 4274.0
  distance_traveled: 5252.0
  fault_code: 0
---
header: 
  seq: 58176
  stamp: 
    secs: 1625861597
    nsecs: 444822417
  frame_id: ''
state: 
  voltage_input: 11.6
  temperature_pcb: 0.0
  current_motor: 14.72
  current_input: 0.39
  current_q: 14.65
  speed: 556.0
  duty_cycle: 0.034
  charge_drawn: 42.0
  charge_regen: 0.0
  energy_drawn: 0.0
  energy_regen: 0.0
  displacement: 4277.0
  distance_traveled: 5255.0
  fault_code: 0
---
header: 
  seq: 58177
  stamp: 
    secs: 1625861597
    nsecs: 464911318
  frame_id: ''
state: 
  voltage_input: 11.6
  temperature_pcb: 0.0
  current_motor: 15.42
  current_input: 0.36
  current_q: 15.43
  speed: 489.0
  duty_cycle: 0.026
  charge_drawn: 42.0
  charge_regen: 0.0
  energy_drawn: 0.0
  energy_regen: 0.0
  displacement: 4277.0
  distance_traveled: 5255.0
  fault_code: 0
---
header: 
  seq: 58178
  stamp: 
    secs: 1625861597
    nsecs: 486081739
  frame_id: ''
state: 
  voltage_input: 11.6
  temperature_pcb: 0.0
  current_motor: 15.03
  current_input: 0.32
  current_q: 15.01
  speed: 411.0
  duty_cycle: 0.025
  charge_drawn: 42.0
  charge_regen: 0.0
  energy_drawn: 0.0
  energy_regen: 0.0
  displacement: 4278.0
  distance_traveled: 5256.0
  fault_code: 0
---
header: 
  seq: 58179
  stamp: 
    secs: 1625861597
    nsecs: 505305374
  frame_id: ''
state: 
  voltage_input: 11.7
  temperature_pcb: 0.0
  current_motor: 14.89
  current_input: 0.32
  current_q: 14.89
  speed: 369.0
  duty_cycle: 0.025
  charge_drawn: 42.0
  charge_regen: 0.0
  energy_drawn: 0.0
  energy_regen: 0.0
  displacement: 4278.0
  distance_traveled: 5256.0
  fault_code: 0
---
header: 
  seq: 58180
  stamp: 
    secs: 1625861597
    nsecs: 524759479
  frame_id: ''
state: 
  voltage_input: 11.7
  temperature_pcb: 0.0
  current_motor: 15.37
  current_input: 0.4
  current_q: 15.25
  speed: 444.0
  duty_cycle: 0.026
  charge_drawn: 42.0
  charge_regen: 0.0
  energy_drawn: 0.0
  energy_regen: 0.0
  displacement: 4280.0
  distance_traveled: 5258.0
  fault_code: 0
---
header: 
  seq: 58181
  stamp: 
    secs: 1625861597
    nsecs: 544977600
  frame_id: ''
state: 
  voltage_input: 11.6
  temperature_pcb: 0.0
  current_motor: 14.35
  current_input: 0.33
  current_q: 14.16
  speed: 490.0
  duty_cycle: 0.04
  charge_drawn: 42.0
  charge_regen: 0.0
  energy_drawn: 0.0
  energy_regen: 0.0
  displacement: 4281.0
  distance_traveled: 5259.0
  fault_code: 0
---
header: 
  seq: 58182
  stamp: 
    secs: 1625861597
    nsecs: 564587436
  frame_id: ''
state: 
  voltage_input: 11.6
  temperature_pcb: 0.0
  current_motor: 14.78
  current_input: 0.58
  current_q: 14.2
  speed: 1013.0
  duty_cycle: 0.057
  charge_drawn: 42.0
  charge_regen: 0.0
  energy_drawn: 0.0
  energy_regen: 0.0
  displacement: 4286.0
  distance_traveled: 5264.0
  fault_code: 0
---
header: 
  seq: 58183
  stamp: 
    secs: 1625861597
    nsecs: 584579045
  frame_id: ''
state: 
  voltage_input: 11.6
  temperature_pcb: 0.0
  current_motor: 17.21
  current_input: 0.52
  current_q: 17.0
  speed: 899.0
  duty_cycle: 0.023
  charge_drawn: 42.0
  charge_regen: 0.0
  energy_drawn: 0.0
  energy_regen: 0.0
  displacement: 4287.0
  distance_traveled: 5265.0
  fault_code: 0
---
header: 
  seq: 58184
  stamp: 
    secs: 1625861597
    nsecs: 605328525
  frame_id: ''
state: 
  voltage_input: 11.6
  temperature_pcb: 0.0
  current_motor: 14.56
  current_input: 0.32
  current_q: 14.54
  speed: 741.0
  duty_cycle: 0.028
  charge_drawn: 42.0
  charge_regen: 0.0
  energy_drawn: 0.0
  energy_regen: 0.0
  displacement: 4288.0
  distance_traveled: 5266.0
  fault_code: 0
---
header: 
  seq: 58185
  stamp: 
    secs: 1625861597
    nsecs: 625372114
  frame_id: ''
state: 
  voltage_input: 11.7
  temperature_pcb: 0.0
  current_motor: 14.15
  current_input: 0.42
  current_q: 14.09
  speed: 759.0
  duty_cycle: 0.044
  charge_drawn: 42.0
  charge_regen: 0.0
  energy_drawn: 0.0
  energy_regen: 0.0
  displacement: 4289.0
  distance_traveled: 5267.0
  fault_code: 0
---
header: 
  seq: 58186
  stamp: 
    secs: 1625861597
    nsecs: 644924553
  frame_id: ''
state: 
  voltage_input: 11.6
  temperature_pcb: 0.0
  current_motor: 15.73
  current_input: 0.52
  current_q: 15.82
  speed: 799.0
  duty_cycle: 0.03
  charge_drawn: 42.0
  charge_regen: 0.0
  energy_drawn: 0.0
  energy_regen: 0.0
  displacement: 4291.0
  distance_traveled: 5269.0
  fault_code: 0
---
header: 
  seq: 58187
  stamp: 
    secs: 1625861597
    nsecs: 664856735
  frame_id: ''
state: 
  voltage_input: 11.6
  temperature_pcb: 0.0
  current_motor: 15.31
  current_input: 0.33
  current_q: 15.23
  speed: 644.0
  duty_cycle: 0.024
  charge_drawn: 42.0
  charge_regen: 0.0
  energy_drawn: 0.0
  energy_regen: 0.0
  displacement: 4292.0
  distance_traveled: 5270.0
  fault_code: 0
---
header: 
  seq: 58188
  stamp: 
    secs: 1625861597
    nsecs: 685001731
  frame_id: ''
state: 
  voltage_input: 11.7
  temperature_pcb: 0.0
  current_motor: 14.82
  current_input: 0.33
  current_q: 14.81
  speed: 547.0
  duty_cycle: 0.026
  charge_drawn: 42.0
  charge_regen: 0.0
  energy_drawn: 0.0
  energy_regen: 0.0
  displacement: 4292.0
  distance_traveled: 5270.0
  fault_code: 0
---
header: 
  seq: 58189
  stamp: 
    secs: 1625861597
    nsecs: 704940736
  frame_id: ''
state: 
  voltage_input: 11.6
  temperature_pcb: 0.0
  current_motor: 13.98
  current_input: 0.36
  current_q: 13.79
  speed: 564.0
  duty_cycle: 0.048
  charge_drawn: 42.0
  charge_regen: 0.0
  energy_drawn: 0.0
  energy_regen: 0.0
  displacement: 4293.0
  distance_traveled: 5271.0
  fault_code: 0
---
header: 
  seq: 58190
  stamp: 
    secs: 1625861597
    nsecs: 725144691
  frame_id: ''
state: 
  voltage_input: 11.7
  temperature_pcb: 0.0
  current_motor: 14.29
  current_input: 0.84
  current_q: 14.52
  speed: 1107.0
  duty_cycle: 0.06
  charge_drawn: 42.0
  charge_regen: 0.0
  energy_drawn: 0.0
  energy_regen: 0.0
  displacement: 4299.0
  distance_traveled: 5277.0
  fault_code: 0
---
header: 
  seq: 58191
  stamp: 
    secs: 1625861597
    nsecs: 745211405
  frame_id: ''
state: 
  voltage_input: 11.6
  temperature_pcb: 0.0
  current_motor: 17.23
  current_input: 0.55
  current_q: 16.9
  speed: 1040.0
  duty_cycle: 0.029
  charge_drawn: 42.0
  charge_regen: 0.0
  energy_drawn: 0.0
  energy_regen: 0.0
  displacement: 4300.0
  distance_traveled: 5278.0
  fault_code: 0
---
header: 
  seq: 58192
  stamp: 
    secs: 1625861597
    nsecs: 766033854
  frame_id: ''
state: 
  voltage_input: 11.7
  temperature_pcb: 0.0
  current_motor: 13.58
  current_input: 0.49
  current_q: 13.6
  speed: 1096.0
  duty_cycle: 0.052
  charge_drawn: 42.0
  charge_regen: 0.0
  energy_drawn: 0.0
  energy_regen: 0.0
  displacement: 4303.0
  distance_traveled: 5281.0
  fault_code: 0
---
header: 
  seq: 58193
  stamp: 
    secs: 1625861597
    nsecs: 785023893
  frame_id: ''
state: 
  voltage_input: 11.6
  temperature_pcb: 0.0
  current_motor: 16.07
  current_input: 0.62
  current_q: 15.96
  speed: 1164.0
  duty_cycle: 0.037
  charge_drawn: 42.0
  charge_regen: 0.0
  energy_drawn: 0.0
  energy_regen: 0.0
  displacement: 4306.0
  distance_traveled: 5284.0
  fault_code: 0
---
header: 
  seq: 58194
  stamp: 
    secs: 1625861597
    nsecs: 805579309
  frame_id: ''
state: 
  voltage_input: 11.6
  temperature_pcb: 0.0
  current_motor: 14.38
  current_input: 0.55
  current_q: 14.36
  speed: 1231.0
  duty_cycle: 0.048
  charge_drawn: 42.0
  charge_regen: 0.0
  energy_drawn: 0.0
  energy_regen: 0.0
  displacement: 4308.0
  distance_traveled: 5286.0
  fault_code: 0
---
header: 
  seq: 58195
  stamp: 
    secs: 1625861597
    nsecs: 824910757
  frame_id: ''
state: 
  voltage_input: 11.7
  temperature_pcb: 0.0
  current_motor: 15.23
  current_input: 0.59
  current_q: 15.13
  speed: 1279.0
  duty_cycle: 0.046
  charge_drawn: 42.0
  charge_regen: 0.0
  energy_drawn: 0.0
  energy_regen: 0.0
  displacement: 4311.0
  distance_traveled: 5289.0
  fault_code: 0
---
header: 
  seq: 58196
  stamp: 
    secs: 1625861597
    nsecs: 846844100
  frame_id: ''
state: 
  voltage_input: 11.7
  temperature_pcb: 0.0
  current_motor: 15.0
  current_input: 0.62
  current_q: 15.0
  speed: 1364.0
  duty_cycle: 0.048
  charge_drawn: 42.0
  charge_regen: 0.0
  energy_drawn: 0.0
  energy_regen: 0.0
  displacement: 4315.0
  distance_traveled: 5293.0
  fault_code: 0
---
header: 
  seq: 58197
  stamp: 
    secs: 1625861597
    nsecs: 865068664
  frame_id: ''
state: 
  voltage_input: 11.6
  temperature_pcb: 0.0
  current_motor: 15.03
  current_input: 0.63
  current_q: 14.96
  speed: 1432.0
  duty_cycle: 0.049
  charge_drawn: 42.0
  charge_regen: 0.0
  energy_drawn: 0.0
  energy_regen: 0.0
  displacement: 4318.0
  distance_traveled: 5296.0
  fault_code: 0
---
header: 
  seq: 58198
  stamp: 
    secs: 1625861597
    nsecs: 885106368
  frame_id: ''
state: 
  voltage_input: 11.7
  temperature_pcb: 0.0
  current_motor: 15.03
  current_input: 0.65
  current_q: 14.89
  speed: 1519.0
  duty_cycle: 0.052
  charge_drawn: 42.0
  charge_regen: 0.0
  energy_drawn: 0.0
  energy_regen: 0.0
  displacement: 4321.0
  distance_traveled: 5299.0
  fault_code: 0
---
header: 
  seq: 58199
  stamp: 
    secs: 1625861597
    nsecs: 905561158
  frame_id: ''
state: 
  voltage_input: 11.7
  temperature_pcb: 0.0
  current_motor: 15.09
  current_input: 0.67
  current_q: 15.09
  speed: 1599.0
  duty_cycle: 0.052
  charge_drawn: 42.0
  charge_regen: 0.0
  energy_drawn: 0.0
  energy_regen: 0.0
  displacement: 4325.0
  distance_traveled: 5303.0
  fault_code: 0
---
header: 
  seq: 58200
  stamp: 
    secs: 1625861597
    nsecs: 926782360
  frame_id: ''
state: 
  voltage_input: 11.7
  temperature_pcb: 0.0
  current_motor: 15.14
  current_input: 0.68
  current_q: 15.07
  speed: 1674.0
  duty_cycle: 0.051
  charge_drawn: 42.0
  charge_regen: 0.0
  energy_drawn: 0.0
  energy_regen: 0.0
  displacement: 4329.0
  distance_traveled: 5307.0
  fault_code: 0
---
header: 
  seq: 58201
  stamp: 
    secs: 1625861597
    nsecs: 946235423
  frame_id: ''
state: 
  voltage_input: 11.6
  temperature_pcb: 0.0
  current_motor: 14.99
  current_input: 0.7
  current_q: 14.84
  speed: 1775.0
  duty_cycle: 0.055
  charge_drawn: 42.0
  charge_regen: 0.0
  energy_drawn: 0.0
  energy_regen: 0.0
  displacement: 4333.0
  distance_traveled: 5311.0
  fault_code: 0
---
header: 
  seq: 58202
  stamp: 
    secs: 1625861597
    nsecs: 965217598
  frame_id: ''
state: 
  voltage_input: 11.6
  temperature_pcb: 0.0
  current_motor: 15.11
  current_input: 0.72
  current_q: 15.08
  speed: 1860.0
  duty_cycle: 0.055
  charge_drawn: 42.0
  charge_regen: 0.0
  energy_drawn: 0.0
  energy_regen: 0.0
  displacement: 4337.0
  distance_traveled: 5315.0
  fault_code: 0
---
header: 
  seq: 58203
  stamp: 
    secs: 1625861597
    nsecs: 985186551
  frame_id: ''
state: 
  voltage_input: 11.7
  temperature_pcb: 0.0
  current_motor: 15.04
  current_input: 0.73
  current_q: 14.86
  speed: 1943.0
  duty_cycle: 0.058
  charge_drawn: 42.0
  charge_regen: 0.0
  energy_drawn: 0.0
  energy_regen: 0.0
  displacement: 4341.0
  distance_traveled: 5319.0
  fault_code: 0
---
header: 
  seq: 58204
  stamp: 
    secs: 1625861598
    nsecs:   5462642
  frame_id: ''
state: 
  voltage_input: 11.6
  temperature_pcb: 0.0
  current_motor: 15.16
  current_input: 0.76
  current_q: 15.18
  speed: 2026.0
  duty_cycle: 0.057
  charge_drawn: 43.0
  charge_regen: 0.0
  energy_drawn: 0.0
  energy_regen: 0.0
  displacement: 4346.0
  distance_traveled: 5324.0
  fault_code: 0
---
header: 
  seq: 58205
  stamp: 
    secs: 1625861598
    nsecs:  24326065
  frame_id: ''
state: 
  voltage_input: 11.7
  temperature_pcb: 0.0
  current_motor: 15.02
  current_input: 0.75
  current_q: 14.86
  speed: 2105.0
  duty_cycle: 0.06
  charge_drawn: 43.0
  charge_regen: 0.0
  energy_drawn: 0.0
  energy_regen: 0.0
  displacement: 4350.0
  distance_traveled: 5328.0
  fault_code: 0
---
header: 
  seq: 58206
  stamp: 
    secs: 1625861598
    nsecs:  45131014
  frame_id: ''
state: 
  voltage_input: 11.6
  temperature_pcb: 0.0
  current_motor: 15.16
  current_input: 0.76
  current_q: 15.01
  speed: 2162.0
  duty_cycle: 0.06
  charge_drawn: 43.0
  charge_regen: 0.0
  energy_drawn: 0.0
  energy_regen: 0.0
  displacement: 4355.0
  distance_traveled: 5333.0
  fault_code: 0
---
header: 
  seq: 58207
  stamp: 
    secs: 1625861598
    nsecs:  65150801
  frame_id: ''
state: 
  voltage_input: 11.6
  temperature_pcb: 0.0
  current_motor: 15.19
  current_input: 0.77
  current_q: 15.24
  speed: 2197.0
  duty_cycle: 0.057
  charge_drawn: 43.0
  charge_regen: 0.0
  energy_drawn: 0.0
  energy_regen: 0.0
  displacement: 4360.0
  distance_traveled: 5338.0
  fault_code: 0
---
header: 
  seq: 58208
  stamp: 
    secs: 1625861598
    nsecs:  84961992
  frame_id: ''
state: 
  voltage_input: 11.6
  temperature_pcb: 0.0
  current_motor: 14.95
  current_input: 0.75
  current_q: 14.72
  speed: 2230.0
  duty_cycle: 0.061
  charge_drawn: 43.0
  charge_regen: 0.0
  energy_drawn: 0.0
  energy_regen: 0.0
  displacement: 4364.0
  distance_traveled: 5342.0
  fault_code: 0
---
header: 
  seq: 58209
  stamp: 
    secs: 1625861598
    nsecs: 104761360
  frame_id: ''
state: 
  voltage_input: 11.6
  temperature_pcb: 0.0
  current_motor: 15.17
  current_input: 0.78
  current_q: 15.05
  speed: 2280.0
  duty_cycle: 0.061
  charge_drawn: 43.0
  charge_regen: 0.0
  energy_drawn: 0.0
  energy_regen: 0.0
  displacement: 4369.0
  distance_traveled: 5347.0
  fault_code: 0
---
header: 
  seq: 58210
  stamp: 
    secs: 1625861598
    nsecs: 125113962
  frame_id: ''
state: 
  voltage_input: 11.6
  temperature_pcb: 0.0
  current_motor: 15.15
  current_input: 0.78
  current_q: 15.07
  speed: 2317.0
  duty_cycle: 0.061
  charge_drawn: 43.0
  charge_regen: 0.0
  energy_drawn: 0.0
  energy_regen: 0.0
  displacement: 4374.0
  distance_traveled: 5352.0
  fault_code: 0
---
header: 
  seq: 58211
  stamp: 
    secs: 1625861598
    nsecs: 145584429
  frame_id: ''
state: 
  voltage_input: 11.6
  temperature_pcb: 0.0
  current_motor: 15.01
  current_input: 0.79
  current_q: 14.94
  speed: 2368.0
  duty_cycle: 0.062
  charge_drawn: 43.0
  charge_regen: 0.0
  energy_drawn: 0.0
  energy_regen: 0.0
  displacement: 4379.0
  distance_traveled: 5357.0
  fault_code: 0
---
header: 
  seq: 58212
  stamp: 
    secs: 1625861598
    nsecs: 164681709
  frame_id: ''
state: 
  voltage_input: 11.6
  temperature_pcb: 0.0
  current_motor: 15.15
  current_input: 0.79
  current_q: 15.04
  speed: 2398.0
  duty_cycle: 0.062
  charge_drawn: 43.0
  charge_regen: 0.0
  energy_drawn: 0.0
  energy_regen: 0.0
  displacement: 4384.0
  distance_traveled: 5362.0
  fault_code: 0
---
header: 
  seq: 58213
  stamp: 
    secs: 1625861598
    nsecs: 184544619
  frame_id: ''
state: 
  voltage_input: 11.6
  temperature_pcb: 0.0
  current_motor: 15.07
  current_input: 0.81
  current_q: 14.95
  speed: 2444.0
  duty_cycle: 0.063
  charge_drawn: 43.0
  charge_regen: 0.0
  energy_drawn: 0.0
  energy_regen: 0.0
  displacement: 4389.0
  distance_traveled: 5367.0
  fault_code: 0
---
header: 
  seq: 58214
  stamp: 
    secs: 1625861598
    nsecs: 205078212
  frame_id: ''
state: 
  voltage_input: 11.6
  temperature_pcb: 0.0
  current_motor: 14.95
  current_input: 0.82
  current_q: 14.96
  speed: 2498.0
  duty_cycle: 0.064
  charge_drawn: 43.0
  charge_regen: 0.0
  energy_drawn: 0.0
  energy_regen: 0.0
  displacement: 4394.0
  distance_traveled: 5372.0
  fault_code: 0
---
header: 
  seq: 58215
  stamp: 
    secs: 1625861598
    nsecs: 225174145
  frame_id: ''
state: 
  voltage_input: 11.7
  temperature_pcb: 0.0
  current_motor: 15.19
  current_input: 0.84
  current_q: 15.17
  speed: 2543.0
  duty_cycle: 0.062
  charge_drawn: 43.0
  charge_regen: 0.0
  energy_drawn: 0.0
  energy_regen: 0.0
  displacement: 4400.0
  distance_traveled: 5378.0
  fault_code: 0
---
header: 
  seq: 58216
  stamp: 
    secs: 1625861598
    nsecs: 246414983
  frame_id: ''
state: 
  voltage_input: 11.6
  temperature_pcb: 0.0
  current_motor: 14.97
  current_input: 0.84
  current_q: 14.86
  speed: 2602.0
  duty_cycle: 0.065
  charge_drawn: 43.0
  charge_regen: 0.0
  energy_drawn: 0.0
  energy_regen: 0.0
  displacement: 4406.0
  distance_traveled: 5384.0
  fault_code: 0
---
header: 
  seq: 58217
  stamp: 
    secs: 1625861598
    nsecs: 264864132
  frame_id: ''
state: 
  voltage_input: 11.6
  temperature_pcb: 0.0
  current_motor: 15.25
  current_input: 0.86
  current_q: 15.09
  speed: 2650.0
  duty_cycle: 0.064
  charge_drawn: 43.0
  charge_regen: 0.0
  energy_drawn: 0.0
  energy_regen: 0.0
  displacement: 4411.0
  distance_traveled: 5389.0
  fault_code: 0
---
header: 
  seq: 58218
  stamp: 
    secs: 1625861598
    nsecs: 285124963
  frame_id: ''
state: 
  voltage_input: 11.6
  temperature_pcb: 0.0
  current_motor: 15.01
  current_input: 0.85
  current_q: 14.94
  speed: 2695.0
  duty_cycle: 0.066
  charge_drawn: 43.0
  charge_regen: 0.0
  energy_drawn: 0.0
  energy_regen: 0.0
  displacement: 4417.0
  distance_traveled: 5395.0
  fault_code: 0
---
header: 
  seq: 58219
  stamp: 
    secs: 1625861598
    nsecs: 305357876
  frame_id: ''
state: 
  voltage_input: 11.6
  temperature_pcb: 0.0
  current_motor: 15.17
  current_input: 0.84
  current_q: 14.92
  speed: 2718.0
  duty_cycle: 0.067
  charge_drawn: 43.0
  charge_regen: 0.0
  energy_drawn: 0.0
  energy_regen: 0.0
  displacement: 4422.0
  distance_traveled: 5400.0
  fault_code: 0
---
header: 
  seq: 58220
  stamp: 
    secs: 1625861598
    nsecs: 325275735
  frame_id: ''
state: 
  voltage_input: 11.6
  temperature_pcb: 0.0
  current_motor: 15.19
  current_input: 0.88
  current_q: 15.28
  speed: 2748.0
  duty_cycle: 0.063
  charge_drawn: 43.0
  charge_regen: 0.0
  energy_drawn: 0.0
  energy_regen: 0.0
  displacement: 4428.0
  distance_traveled: 5406.0
  fault_code: 0
---
header: 
  seq: 58221
  stamp: 
    secs: 1625861598
    nsecs: 345607190
  frame_id: ''
state: 
  voltage_input: 11.6
  temperature_pcb: 0.0
  current_motor: 14.97
  current_input: 0.85
  current_q: 14.9
  speed: 2775.0
  duty_cycle: 0.065
  charge_drawn: 43.0
  charge_regen: 0.0
  energy_drawn: 0.0
  energy_regen: 0.0
  displacement: 4434.0
  distance_traveled: 5412.0
  fault_code: 0
---
header: 
  seq: 58222
  stamp: 
    secs: 1625861598
    nsecs: 364743897
  frame_id: ''
state: 
  voltage_input: 11.6
  temperature_pcb: 0.0
  current_motor: 14.96
  current_input: 0.87
  current_q: 14.75
  speed: 2823.0
  duty_cycle: 0.07
  charge_drawn: 43.0
  charge_regen: 0.0
  energy_drawn: 0.0
  energy_regen: 0.0
  displacement: 4439.0
  distance_traveled: 5417.0
  fault_code: 0
---
header: 
  seq: 58223
  stamp: 
    secs: 1625861598
    nsecs: 384984467
  frame_id: ''
state: 
  voltage_input: 11.7
  temperature_pcb: 0.0
  current_motor: 15.15
  current_input: 0.88
  current_q: 14.98
  speed: 2856.0
  duty_cycle: 0.07
  charge_drawn: 43.0
  charge_regen: 0.0
  energy_drawn: 0.0
  energy_regen: 0.0
  displacement: 4445.0
  distance_traveled: 5423.0
  fault_code: 0
---
header: 
  seq: 58224
  stamp: 
    secs: 1625861598
    nsecs: 404532479
  frame_id: ''
state: 
  voltage_input: 11.7
  temperature_pcb: 0.0
  current_motor: 15.15
  current_input: 0.89
  current_q: 15.03
  speed: 2890.0
  duty_cycle: 0.07
  charge_drawn: 43.0
  charge_regen: 0.0
  energy_drawn: 0.0
  energy_regen: 0.0
  displacement: 4451.0
  distance_traveled: 5429.0
  fault_code: 0
---
header: 
  seq: 58225
  stamp: 
    secs: 1625861598
    nsecs: 424576849
  frame_id: ''
state: 
  voltage_input: 11.7
  temperature_pcb: 0.0
  current_motor: 15.01
  current_input: 0.9
  current_q: 14.97
  speed: 2936.0
  duty_cycle: 0.071
  charge_drawn: 43.0
  charge_regen: 0.0
  energy_drawn: 0.0
  energy_regen: 0.0
  displacement: 4457.0
  distance_traveled: 5435.0
  fault_code: 0
---
header: 
  seq: 58226
  stamp: 
    secs: 1625861598
    nsecs: 444932680
  frame_id: ''
state: 
  voltage_input: 11.6
  temperature_pcb: 0.0
  current_motor: 15.11
  current_input: 0.92
  current_q: 15.16
  speed: 2974.0
  duty_cycle: 0.069
  charge_drawn: 44.0
  charge_regen: 0.0
  energy_drawn: 0.0
  energy_regen: 0.0
  displacement: 4464.0
  distance_traveled: 5442.0
  fault_code: 0
---
header: 
  seq: 58227
  stamp: 
    secs: 1625861598
    nsecs: 465651431
  frame_id: ''
state: 
  voltage_input: 11.6
  temperature_pcb: 0.0
  current_motor: 15.13
  current_input: 0.93
  current_q: 15.01
  speed: 3025.0
  duty_cycle: 0.07
  charge_drawn: 44.0
  charge_regen: 0.0
  energy_drawn: 0.0
  energy_regen: 0.0
  displacement: 4470.0
  distance_traveled: 5448.0
  fault_code: 0
---
header: 
  seq: 58228
  stamp: 
    secs: 1625861598
    nsecs: 485709707
  frame_id: ''
state: 
  voltage_input: 11.7
  temperature_pcb: 0.0
  current_motor: 15.1
  current_input: 0.91
  current_q: 14.82
  speed: 3068.0
  duty_cycle: 0.073
  charge_drawn: 44.0
  charge_regen: 0.0
  energy_drawn: 0.0
  energy_regen: 0.0
  displacement: 4476.0
  distance_traveled: 5454.0
  fault_code: 0
---
header: 
  seq: 58229
  stamp: 
    secs: 1625861598
    nsecs: 504760684
  frame_id: ''
state: 
  voltage_input: 11.6
  temperature_pcb: 0.0
  current_motor: 15.04
  current_input: 0.94
  current_q: 15.14
  speed: 3106.0
  duty_cycle: 0.072
  charge_drawn: 44.0
  charge_regen: 0.0
  energy_drawn: 0.0
  energy_regen: 0.0
  displacement: 4483.0
  distance_traveled: 5461.0
  fault_code: 0
---
header: 
  seq: 58230
  stamp: 
    secs: 1625861598
    nsecs: 525046098
  frame_id: ''
state: 
  voltage_input: 11.6
  temperature_pcb: 0.0
  current_motor: 15.13
  current_input: 0.93
  current_q: 14.86
  speed: 3150.0
  duty_cycle: 0.074
  charge_drawn: 44.0
  charge_regen: 0.0
  energy_drawn: 0.0
  energy_regen: 0.0
  displacement: 4489.0
  distance_traveled: 5467.0
  fault_code: 0
---
header: 
  seq: 58231
  stamp: 
    secs: 1625861598
    nsecs: 544689632
  frame_id: ''
state: 
  voltage_input: 11.6
  temperature_pcb: 0.0
  current_motor: 15.12
  current_input: 0.95
  current_q: 15.2
  speed: 3169.0
  duty_cycle: 0.071
  charge_drawn: 44.0
  charge_regen: 0.0
  energy_drawn: 0.0
  energy_regen: 0.0
  displacement: 4496.0
  distance_traveled: 5474.0
  fault_code: 0
---
header: 
  seq: 58232
  stamp: 
    secs: 1625861598
    nsecs: 565030410
  frame_id: ''
state: 
  voltage_input: 11.6
  temperature_pcb: 0.0
  current_motor: 15.15
  current_input: 0.93
  current_q: 14.86
  speed: 3193.0
  duty_cycle: 0.074
  charge_drawn: 44.0
  charge_regen: 0.0
  energy_drawn: 0.0
  energy_regen: 0.0
  displacement: 4502.0
  distance_traveled: 5480.0
  fault_code: 0
---
header: 
  seq: 58233
  stamp: 
    secs: 1625861598
    nsecs: 585188167
  frame_id: ''
state: 
  voltage_input: 11.6
  temperature_pcb: 0.0
  current_motor: 15.12
  current_input: 0.95
  current_q: 15.23
  speed: 3204.0
  duty_cycle: 0.07
  charge_drawn: 44.0
  charge_regen: 0.0
  energy_drawn: 0.0
  energy_regen: 0.0
  displacement: 4509.0
  distance_traveled: 5487.0
  fault_code: 0
---
header: 
  seq: 58234
  stamp: 
    secs: 1625861598
    nsecs: 605150141
  frame_id: ''
state: 
  voltage_input: 11.6
  temperature_pcb: 0.0
  current_motor: 14.96
  current_input: 0.92
  current_q: 14.64
  speed: 3231.0
  duty_cycle: 0.076
  charge_drawn: 44.0
  charge_regen: 0.0
  energy_drawn: 0.0
  energy_regen: 0.0
  displacement: 4515.0
  distance_traveled: 5493.0
  fault_code: 0
---
header: 
  seq: 58235
  stamp: 
    secs: 1625861598
    nsecs: 625044145
  frame_id: ''
state: 
  voltage_input: 11.6
  temperature_pcb: 0.0
  current_motor: 15.16
  current_input: 0.97
  current_q: 15.05
  speed: 3269.0
  duty_cycle: 0.076
  charge_drawn: 44.0
  charge_regen: 0.0
  energy_drawn: 0.0
  energy_regen: 0.0
  displacement: 4522.0
  distance_traveled: 5500.0
  fault_code: 0
---
header: 
  seq: 58236
  stamp: 
    secs: 1625861598
    nsecs: 645531071
  frame_id: ''
state: 
  voltage_input: 11.6
  temperature_pcb: 0.0
  current_motor: 15.03
  current_input: 0.98
  current_q: 14.96
  speed: 3321.0
  duty_cycle: 0.077
  charge_drawn: 44.0
  charge_regen: 0.0
  energy_drawn: 0.0
  energy_regen: 0.0
  displacement: 4529.0
  distance_traveled: 5507.0
  fault_code: 0
---
header: 
  seq: 58237
  stamp: 
    secs: 1625861598
    nsecs: 665555545
  frame_id: ''
state: 
  voltage_input: 11.6
  temperature_pcb: 0.0
  current_motor: 15.19
  current_input: 1.0
  current_q: 15.1
  speed: 3368.0
  duty_cycle: 0.076
  charge_drawn: 44.0
  charge_regen: 0.0
  energy_drawn: 0.0
  energy_regen: 0.0
  displacement: 4536.0
  distance_traveled: 5514.0
  fault_code: 0
---
header: 
  seq: 58238
  stamp: 
    secs: 1625861598
    nsecs: 685419497
  frame_id: ''
state: 
  voltage_input: 11.7
  temperature_pcb: 0.0
  current_motor: 15.05
  current_input: 0.98
  current_q: 14.93
  speed: 3405.0
  duty_cycle: 0.078
  charge_drawn: 44.0
  charge_regen: 0.0
  energy_drawn: 0.0
  energy_regen: 0.0
  displacement: 4543.0
  distance_traveled: 5521.0
  fault_code: 0
---
header: 
  seq: 58239
  stamp: 
    secs: 1625861598
    nsecs: 705051781
  frame_id: ''
state: 
  voltage_input: 11.7
  temperature_pcb: 0.0
  current_motor: 15.08
  current_input: 1.0
  current_q: 14.95
  speed: 3446.0
  duty_cycle: 0.079
  charge_drawn: 44.0
  charge_regen: 0.0
  energy_drawn: 0.0
  energy_regen: 0.0
  displacement: 4550.0
  distance_traveled: 5528.0
  fault_code: 0
---
header: 
  seq: 58240
  stamp: 
    secs: 1625861598
    nsecs: 725582821
  frame_id: ''
state: 
  voltage_input: 11.7
  temperature_pcb: 0.0
  current_motor: 15.13
  current_input: 1.0
  current_q: 15.05
  speed: 3477.0
  duty_cycle: 0.078
  charge_drawn: 44.0
  charge_regen: 0.0
  energy_drawn: 0.0
  energy_regen: 0.0
  displacement: 4557.0
  distance_traveled: 5535.0
  fault_code: 0
---
header: 
  seq: 58241
  stamp: 
    secs: 1625861598
    nsecs: 744947707
  frame_id: ''
state: 
  voltage_input: 11.7
  temperature_pcb: 0.0
  current_motor: 15.0
  current_input: 1.0
  current_q: 14.99
  speed: 3511.0
  duty_cycle: 0.079
  charge_drawn: 44.0
  charge_regen: 0.0
  energy_drawn: 0.0
  energy_regen: 0.0
  displacement: 4565.0
  distance_traveled: 5543.0
  fault_code: 0
---
header: 
  seq: 58242
  stamp: 
    secs: 1625861598
    nsecs: 764846295
  frame_id: ''
state: 
  voltage_input: 11.6
  temperature_pcb: 0.0
  current_motor: 15.19
  current_input: 1.02
  current_q: 15.19
  speed: 3531.0
  duty_cycle: 0.076
  charge_drawn: 44.0
  charge_regen: 0.0
  energy_drawn: 0.0
  energy_regen: 0.0
  displacement: 4572.0
  distance_traveled: 5550.0
  fault_code: 0
---
header: 
  seq: 58243
  stamp: 
    secs: 1625861598
    nsecs: 784973166
  frame_id: ''
state: 
  voltage_input: 11.7
  temperature_pcb: 0.0
  current_motor: 15.11
  current_input: 1.01
  current_q: 14.8
  speed: 3578.0
  duty_cycle: 0.08
  charge_drawn: 44.0
  charge_regen: 0.0
  energy_drawn: 0.0
  energy_regen: 0.0
  displacement: 4579.0
  distance_traveled: 5557.0
  fault_code: 0
---
header: 
  seq: 58244
  stamp: 
    secs: 1625861598
    nsecs: 805571551
  frame_id: ''
state: 
  voltage_input: 11.7
  temperature_pcb: 0.0
  current_motor: 15.03
  current_input: 1.02
  current_q: 14.96
  speed: 3606.0
  duty_cycle: 0.08
  charge_drawn: 45.0
  charge_regen: 0.0
  energy_drawn: 0.0
  energy_regen: 0.0
  displacement: 4586.0
  distance_traveled: 5564.0
  fault_code: 0
---
header: 
  seq: 58245
  stamp: 
    secs: 1625861598
    nsecs: 824883207
  frame_id: ''
state: 
  voltage_input: 11.7
  temperature_pcb: 0.0
  current_motor: 15.17
  current_input: 1.04
  current_q: 15.16
  speed: 3641.0
  duty_cycle: 0.079
  charge_drawn: 45.0
  charge_regen: 0.0
  energy_drawn: 0.0
  energy_regen: 0.0
  displacement: 4594.0
  distance_traveled: 5572.0
  fault_code: 0
---
header: 
  seq: 58246
  stamp: 
    secs: 1625861598
    nsecs: 845400549
  frame_id: ''
state: 
  voltage_input: 11.7
  temperature_pcb: 0.0
  current_motor: 15.05
  current_input: 1.04
  current_q: 14.97
  speed: 3687.0
  duty_cycle: 0.08
  charge_drawn: 45.0
  charge_regen: 0.0
  energy_drawn: 0.0
  energy_regen: 0.0
  displacement: 4602.0
  distance_traveled: 5580.0
  fault_code: 0
---
header: 
  seq: 58247
  stamp: 
    secs: 1625861598
    nsecs: 866558938
  frame_id: ''
state: 
  voltage_input: 11.6
  temperature_pcb: 0.0
  current_motor: 15.05
  current_input: 1.03
  current_q: 14.88
  speed: 3714.0
  duty_cycle: 0.082
  charge_drawn: 45.0
  charge_regen: 0.0
  energy_drawn: 0.0
  energy_regen: 0.0
  displacement: 4610.0
  distance_traveled: 5588.0
  fault_code: 0
---
header: 
  seq: 58248
  stamp: 
    secs: 1625861598
    nsecs: 884868400
  frame_id: ''
state: 
  voltage_input: 11.6
  temperature_pcb: 0.0
  current_motor: 15.27
  current_input: 1.07
  current_q: 15.26
  speed: 3738.0
  duty_cycle: 0.078
  charge_drawn: 45.0
  charge_regen: 0.0
  energy_drawn: 0.0
  energy_regen: 0.0
  displacement: 4617.0
  distance_traveled: 5595.0
  fault_code: 0
---
header: 
  seq: 58249
  stamp: 
    secs: 1625861598
    nsecs: 905133032
  frame_id: ''
state: 
  voltage_input: 11.6
  temperature_pcb: 0.0
  current_motor: 14.96
  current_input: 1.04
  current_q: 14.8
  speed: 3776.0
  duty_cycle: 0.082
  charge_drawn: 45.0
  charge_regen: 0.0
  energy_drawn: 0.0
  energy_regen: 0.0
  displacement: 4625.0
  distance_traveled: 5603.0
  fault_code: 0
---
header: 
  seq: 58250
  stamp: 
    secs: 1625861598
    nsecs: 925195527
  frame_id: ''
state: 
  voltage_input: 11.7
  temperature_pcb: 0.0
  current_motor: 15.21
  current_input: 1.04
  current_q: 14.95
  speed: 3784.0
  duty_cycle: 0.082
  charge_drawn: 45.0
  charge_regen: 0.0
  energy_drawn: 0.0
  energy_regen: 0.0
  displacement: 4632.0
  distance_traveled: 5610.0
  fault_code: 0
---
header: 
  seq: 58251
  stamp: 
    secs: 1625861598
    nsecs: 944312078
  frame_id: ''
state: 
  voltage_input: 11.6
  temperature_pcb: 0.0
  current_motor: 15.06
  current_input: 1.08
  current_q: 15.13
  speed: 3818.0
  duty_cycle: 0.081
  charge_drawn: 45.0
  charge_regen: 0.0
  energy_drawn: 0.0
  energy_regen: 0.0
  displacement: 4640.0
  distance_traveled: 5618.0
  fault_code: 0
---
header: 
  seq: 58252
  stamp: 
    secs: 1625861598
    nsecs: 965303538
  frame_id: ''
state: 
  voltage_input: 11.6
  temperature_pcb: 0.0
  current_motor: 15.13
  current_input: 1.07
  current_q: 15.0
  speed: 3851.0
  duty_cycle: 0.081
  charge_drawn: 45.0
  charge_regen: 0.0
  energy_drawn: 0.0
  energy_regen: 0.0
  displacement: 4648.0
  distance_traveled: 5626.0
  fault_code: 0
---
header: 
  seq: 58253
  stamp: 
    secs: 1625861598
    nsecs: 983907950
  frame_id: ''
state: 
  voltage_input: 11.7
  temperature_pcb: 0.0
  current_motor: 14.99
  current_input: 1.08
  current_q: 14.97
  speed: 3894.0
  duty_cycle: 0.082
  charge_drawn: 45.0
  charge_regen: 0.0
  energy_drawn: 0.0
  energy_regen: 0.0
  displacement: 4656.0
  distance_traveled: 5634.0
  fault_code: 0
---
header: 
  seq: 58254
  stamp: 
    secs: 1625861599
    nsecs:   3682110
  frame_id: ''
state: 
  voltage_input: 11.6
  temperature_pcb: 0.0
  current_motor: 15.14
  current_input: 1.09
  current_q: 15.01
  speed: 3927.0
  duty_cycle: 0.082
  charge_drawn: 45.0
  charge_regen: 0.0
  energy_drawn: 0.0
  energy_regen: 0.0
  displacement: 4664.0
  distance_traveled: 5642.0
  fault_code: 0
---
header: 
  seq: 58255
  stamp: 
    secs: 1625861599
    nsecs:  24702998
  frame_id: ''
state: 
  voltage_input: 11.6
  temperature_pcb: 0.0
  current_motor: 15.16
  current_input: 1.09
  current_q: 14.89
  speed: 3968.0
  duty_cycle: 0.085
  charge_drawn: 45.0
  charge_regen: 0.0
  energy_drawn: 0.0
  energy_regen: 0.0
  displacement: 4672.0
  distance_traveled: 5650.0
  fault_code: 0
---
header: 
  seq: 58256
  stamp: 
    secs: 1625861599
    nsecs:  44151374
  frame_id: ''
state: 
  voltage_input: 11.6
  temperature_pcb: 0.0
  current_motor: 15.17
  current_input: 1.09
  current_q: 15.1
  speed: 3979.0
  duty_cycle: 0.083
  charge_drawn: 45.0
  charge_regen: 0.0
  energy_drawn: 0.0
  energy_regen: 0.0
  displacement: 4680.0
  distance_traveled: 5658.0
  fault_code: 0
---
header: 
  seq: 58257
  stamp: 
    secs: 1625861599
    nsecs:  64732050
  frame_id: ''
state: 
  voltage_input: 11.6
  temperature_pcb: 0.0
  current_motor: 15.02
  current_input: 1.09
  current_q: 14.84
  speed: 4004.0
  duty_cycle: 0.086
  charge_drawn: 45.0
  charge_regen: 0.0
  energy_drawn: 0.0
  energy_regen: 0.0
  displacement: 4688.0
  distance_traveled: 5666.0
  fault_code: 0
---
header: 
  seq: 58258
  stamp: 
    secs: 1625861599
    nsecs:  85494290
  frame_id: ''
state: 
  voltage_input: 11.6
  temperature_pcb: 0.0
  current_motor: 15.02
  current_input: 1.09
  current_q: 14.97
  speed: 4023.0
  duty_cycle: 0.086
  charge_drawn: 45.0
  charge_regen: 0.0
  energy_drawn: 0.0
  energy_regen: 0.0
  displacement: 4697.0
  distance_traveled: 5675.0
  fault_code: 0
---
header: 
  seq: 58259
  stamp: 
    secs: 1625861599
    nsecs: 104644487
  frame_id: ''
state: 
  voltage_input: 11.6
  temperature_pcb: 0.0
  current_motor: 15.14
  current_input: 1.12
  current_q: 15.14
  speed: 4046.0
  duty_cycle: 0.084
  charge_drawn: 45.0
  charge_regen: 0.0
  energy_drawn: 0.0
  energy_regen: 0.0
  displacement: 4705.0
  distance_traveled: 5683.0
  fault_code: 0
---
header: 
  seq: 58260
  stamp: 
    secs: 1625861599
    nsecs: 124080936
  frame_id: ''
state: 
  voltage_input: 11.7
  temperature_pcb: 0.0
  current_motor: 15.12
  current_input: 1.12
  current_q: 15.04
  speed: 4083.0
  duty_cycle: 0.084
  charge_drawn: 45.0
  charge_regen: 0.0
  energy_drawn: 0.0
  energy_regen: 0.0
  displacement: 4713.0
  distance_traveled: 5691.0
  fault_code: 0
---
header: 
  seq: 58261
  stamp: 
    secs: 1625861599
    nsecs: 144605570
  frame_id: ''
state: 
  voltage_input: 11.6
  temperature_pcb: 0.0
  current_motor: 15.09
  current_input: 1.11
  current_q: 14.87
  speed: 4119.0
  duty_cycle: 0.087
  charge_drawn: 46.0
  charge_regen: 0.0
  energy_drawn: 0.0
  energy_regen: 0.0
  displacement: 4722.0
  distance_traveled: 5700.0
  fault_code: 0
---
header: 
  seq: 58262
  stamp: 
    secs: 1625861599
    nsecs: 165693438
  frame_id: ''
state: 
  voltage_input: 11.6
  temperature_pcb: 0.0
  current_motor: 15.04
  current_input: 1.13
  current_q: 14.99
  speed: 4152.0
  duty_cycle: 0.087
  charge_drawn: 46.0
  charge_regen: 0.0
  energy_drawn: 0.0
  energy_regen: 0.0
  displacement: 4730.0
  distance_traveled: 5708.0
  fault_code: 0
---
header: 
  seq: 58263
  stamp: 
    secs: 1625861599
    nsecs: 184816186
  frame_id: ''
state: 
  voltage_input: 11.6
  temperature_pcb: 0.0
  current_motor: 15.21
  current_input: 1.14
  current_q: 15.06
  speed: 4185.0
  duty_cycle: 0.087
  charge_drawn: 46.0
  charge_regen: 0.0
  energy_drawn: 0.0
  energy_regen: 0.0
  displacement: 4739.0
  distance_traveled: 5717.0
  fault_code: 0
---
header: 
  seq: 58264
  stamp: 
    secs: 1625861599
    nsecs: 205268008
  frame_id: ''
state: 
  voltage_input: 11.6
  temperature_pcb: 0.0
  current_motor: 15.09
  current_input: 1.14
  current_q: 14.94
  speed: 4217.0
  duty_cycle: 0.088
  charge_drawn: 46.0
  charge_regen: 0.0
  energy_drawn: 0.0
  energy_regen: 0.0
  displacement: 4747.0
  distance_traveled: 5725.0
  fault_code: 0
---
header: 
  seq: 58265
  stamp: 
    secs: 1625861599
    nsecs: 224914146
  frame_id: ''
state: 
  voltage_input: 11.6
  temperature_pcb: 0.0
  current_motor: 15.11
  current_input: 1.15
  current_q: 15.15
  speed: 4236.0
  duty_cycle: 0.086
  charge_drawn: 46.0
  charge_regen: 0.0
  energy_drawn: 0.0
  energy_regen: 0.0
  displacement: 4756.0
  distance_traveled: 5734.0
  fault_code: 0
---
header: 
  seq: 58266
  stamp: 
    secs: 1625861599
    nsecs: 244892474
  frame_id: ''
state: 
  voltage_input: 11.7
  temperature_pcb: 0.0
  current_motor: 15.06
  current_input: 1.13
  current_q: 14.82
  speed: 4263.0
  duty_cycle: 0.089
  charge_drawn: 46.0
  charge_regen: 0.0
  energy_drawn: 0.0
  energy_regen: 0.0
  displacement: 4764.0
  distance_traveled: 5742.0
  fault_code: 0
---
header: 
  seq: 58267
  stamp: 
    secs: 1625861599
    nsecs: 264456736
  frame_id: ''
state: 
  voltage_input: 11.6
  temperature_pcb: 0.0
  current_motor: 15.2
  current_input: 1.15
  current_q: 15.17
  speed: 4265.0
  duty_cycle: 0.086
  charge_drawn: 46.0
  charge_regen: 0.0
  energy_drawn: 0.0
  energy_regen: 0.0
  displacement: 4773.0
  distance_traveled: 5751.0
  fault_code: 0
---
header: 
  seq: 58268
  stamp: 
    secs: 1625861599
    nsecs: 284850744
  frame_id: ''
state: 
  voltage_input: 11.7
  temperature_pcb: 0.0
  current_motor: 15.05
  current_input: 1.16
  current_q: 14.91
  speed: 4317.0
  duty_cycle: 0.089
  charge_drawn: 46.0
  charge_regen: 0.0
  energy_drawn: 0.0
  energy_regen: 0.0
  displacement: 4782.0
  distance_traveled: 5760.0
  fault_code: 0
---
header: 
  seq: 58269
  stamp: 
    secs: 1625861599
    nsecs: 304656310
  frame_id: ''
state: 
  voltage_input: 11.6
  temperature_pcb: 0.0
  current_motor: 15.01
  current_input: 1.16
  current_q: 15.0
  speed: 4346.0
  duty_cycle: 0.089
  charge_drawn: 46.0
  charge_regen: 0.0
  energy_drawn: 0.0
  energy_regen: 0.0
  displacement: 4791.0
  distance_traveled: 5769.0
  fault_code: 0
---
header: 
  seq: 58270
  stamp: 
    secs: 1625861599
    nsecs: 325483291
  frame_id: ''
state: 
  voltage_input: 11.6
  temperature_pcb: 0.0
  current_motor: 15.18
  current_input: 1.17
  current_q: 15.0
  speed: 4380.0
  duty_cycle: 0.089
  charge_drawn: 46.0
  charge_regen: 0.0
  energy_drawn: 0.0
  energy_regen: 0.0
  displacement: 4800.0
  distance_traveled: 5778.0
  fault_code: 0
---
header: 
  seq: 58271
  stamp: 
    secs: 1625861599
    nsecs: 344250828
  frame_id: ''
state: 
  voltage_input: 11.7
  temperature_pcb: 0.0
  current_motor: 15.06
  current_input: 1.18
  current_q: 14.97
  speed: 4416.0
  duty_cycle: 0.09
  charge_drawn: 46.0
  charge_regen: 0.0
  energy_drawn: 0.0
  energy_regen: 0.0
  displacement: 4809.0
  distance_traveled: 5787.0
  fault_code: 0
---
header: 
  seq: 58272
  stamp: 
    secs: 1625861599
    nsecs: 364893693
  frame_id: ''
state: 
  voltage_input: 11.7
  temperature_pcb: 0.0
  current_motor: 15.12
  current_input: 1.18
  current_q: 15.08
  speed: 4442.0
  duty_cycle: 0.089
  charge_drawn: 46.0
  charge_regen: 0.0
  energy_drawn: 0.0
  energy_regen: 0.0
  displacement: 4818.0
  distance_traveled: 5796.0
  fault_code: 0
---
header: 
  seq: 58273
  stamp: 
    secs: 1625861599
    nsecs: 384981657
  frame_id: ''
state: 
  voltage_input: 11.6
  temperature_pcb: 0.0
  current_motor: 15.15
  current_input: 1.18
  current_q: 14.94
  speed: 4469.0
  duty_cycle: 0.09
  charge_drawn: 46.0
  charge_regen: 0.0
  energy_drawn: 0.0
  energy_regen: 0.0
  displacement: 4827.0
  distance_traveled: 5805.0
  fault_code: 0
---
header: 
  seq: 58274
  stamp: 
    secs: 1625861599
    nsecs: 405095923
  frame_id: ''
state: 
  voltage_input: 11.7
  temperature_pcb: 0.0
  current_motor: 15.04
  current_input: 1.18
  current_q: 14.87
  speed: 4497.0
  duty_cycle: 0.093
  charge_drawn: 46.0
  charge_regen: 0.0
  energy_drawn: 0.0
  energy_regen: 0.0
  displacement: 4836.0
  distance_traveled: 5814.0
  fault_code: 0
---
header: 
  seq: 58275
  stamp: 
    secs: 1625861599
    nsecs: 424946490
  frame_id: ''
state: 
  voltage_input: 11.7
  temperature_pcb: 0.0
  current_motor: 15.08
  current_input: 1.2
  current_q: 14.95
  speed: 4541.0
