header: 
  seq: 191017
  stamp: 
    secs: 1625854598
    nsecs: 322456982
  frame_id: ''
state: 
  voltage_input: 11.6
  temperature_pcb: 0.0
  current_motor: 0.0
  current_input: 0.0
  current_q: 0.0
  speed: -1.0
  duty_cycle: 0.0
  charge_drawn: 100.0
  charge_regen: 0.0
  energy_drawn: 0.0
  energy_regen: 0.0
  displacement: 3849.0
  distance_traveled: 12925.0
  fault_code: 0
---
header: 
  seq: 191018
  stamp: 
    secs: 1625854598
    nsecs: 342255127
  frame_id: ''
state: 
  voltage_input: 11.7
  temperature_pcb: 0.0
  current_motor: 0.0
  current_input: 0.0
  current_q: 0.0
  speed: -2.0
  duty_cycle: 0.0
  charge_drawn: 100.0
  charge_regen: 0.0
  energy_drawn: 0.0
  energy_regen: 0.0
  displacement: 3849.0
  distance_traveled: 12925.0
  fault_code: 0
---
header: 
  seq: 191019
  stamp: 
    secs: 1625854598
    nsecs: 362259274
  frame_id: ''
state: 
  voltage_input: 11.6
  temperature_pcb: 0.0
  current_motor: 0.0
  current_input: 0.0
  current_q: 0.0
  speed: -1.0
  duty_cycle: 0.0
  charge_drawn: 100.0
  charge_regen: 0.0
  energy_drawn: 0.0
  energy_regen: 0.0
  displacement: 3849.0
  distance_traveled: 12925.0
  fault_code: 0
---
header: 
  seq: 191020
  stamp: 
    secs: 1625854598
    nsecs: 382292484
  frame_id: ''
state: 
  voltage_input: 11.6
  temperature_pcb: 0.0
  current_motor: 0.0
  current_input: 0.0
  current_q: 0.0
  speed: 0.0
  duty_cycle: 0.0
  charge_drawn: 100.0
  charge_regen: 0.0
  energy_drawn: 0.0
  energy_regen: 0.0
  displacement: 3849.0
  distance_traveled: 12925.0
  fault_code: 0
---
header: 
  seq: 191021
  stamp: 
    secs: 1625854598
    nsecs: 402623887
  frame_id: ''
state: 
  voltage_input: 11.6
  temperature_pcb: 0.0
  current_motor: 0.0
  current_input: 0.0
  current_q: 0.0
  speed: 1.0
  duty_cycle: 0.0
  charge_drawn: 100.0
  charge_regen: 0.0
  energy_drawn: 0.0
  energy_regen: 0.0
  displacement: 3849.0
  distance_traveled: 12925.0
  fault_code: 0
---
header: 
  seq: 191022
  stamp: 
    secs: 1625854598
    nsecs: 422362342
  frame_id: ''
state: 
  voltage_input: 11.6
  temperature_pcb: 0.0
  current_motor: 0.0
  current_input: 0.0
  current_q: 0.0
  speed: 0.0
  duty_cycle: 0.0
  charge_drawn: 100.0
  charge_regen: 0.0
  energy_drawn: 0.0
  energy_regen: 0.0
  displacement: 3849.0
  distance_traveled: 12925.0
  fault_code: 0
---
header: 
  seq: 191023
  stamp: 
    secs: 1625854598
    nsecs: 442589000
  frame_id: ''
state: 
  voltage_input: 11.6
  temperature_pcb: 0.0
  current_motor: 0.0
  current_input: 0.0
  current_q: 0.0
  speed: 1.0
  duty_cycle: 0.0
  charge_drawn: 100.0
  charge_regen: 0.0
  energy_drawn: 0.0
  energy_regen: 0.0
  displacement: 3849.0
  distance_traveled: 12925.0
  fault_code: 0
---
header: 
  seq: 191024
  stamp: 
    secs: 1625854598
    nsecs: 462398188
  frame_id: ''
state: 
  voltage_input: 11.6
  temperature_pcb: 0.0
  current_motor: 0.0
  current_input: 0.0
  current_q: 0.0
  speed: 1.0
  duty_cycle: 0.0
  charge_drawn: 100.0
  charge_regen: 0.0
  energy_drawn: 0.0
  energy_regen: 0.0
  displacement: 3849.0
  distance_traveled: 12925.0
  fault_code: 0
---
header: 
  seq: 191025
  stamp: 
    secs: 1625854598
    nsecs: 482476192
  frame_id: ''
state: 
  voltage_input: 11.6
  temperature_pcb: 0.0
  current_motor: 0.0
  current_input: 0.0
  current_q: 0.0
  speed: 0.0
  duty_cycle: 0.0
  charge_drawn: 100.0
  charge_regen: 0.0
  energy_drawn: 0.0
  energy_regen: 0.0
  displacement: 3849.0
  distance_traveled: 12925.0
  fault_code: 0
---
header: 
  seq: 191026
  stamp: 
    secs: 1625854598
    nsecs: 502382468
  frame_id: ''
state: 
  voltage_input: 11.6
  temperature_pcb: 0.0
  current_motor: 0.0
  current_input: 0.0
  current_q: 0.0
  speed: 0.0
  duty_cycle: 0.0
  charge_drawn: 100.0
  charge_regen: 0.0
  energy_drawn: 0.0
  energy_regen: 0.0
  displacement: 3849.0
  distance_traveled: 12925.0
  fault_code: 0
---
header: 
  seq: 191027
  stamp: 
    secs: 1625854598
    nsecs: 522479067
  frame_id: ''
state: 
  voltage_input: 11.6
  temperature_pcb: 0.0
  current_motor: 0.0
  current_input: 0.0
  current_q: 0.0
  speed: 0.0
  duty_cycle: 0.0
  charge_drawn: 100.0
  charge_regen: 0.0
  energy_drawn: 0.0
  energy_regen: 0.0
  displacement: 3849.0
  distance_traveled: 12925.0
  fault_code: 0
---
header: 
  seq: 191028
  stamp: 
    secs: 1625854598
    nsecs: 542219762
  frame_id: ''
state: 
  voltage_input: 11.6
  temperature_pcb: 0.0
  current_motor: 0.0
  current_input: 0.0
  current_q: 0.0
  speed: 0.0
  duty_cycle: 0.0
  charge_drawn: 100.0
  charge_regen: 0.0
  energy_drawn: 0.0
  energy_regen: 0.0
  displacement: 3849.0
  distance_traveled: 12925.0
  fault_code: 0
---
header: 
  seq: 191029
  stamp: 
    secs: 1625854598
    nsecs: 562231513
  frame_id: ''
state: 
  voltage_input: 11.7
  temperature_pcb: 0.0
  current_motor: 0.0
  current_input: 0.0
  current_q: 0.0
  speed: 0.0
  duty_cycle: 0.0
  charge_drawn: 100.0
  charge_regen: 0.0
  energy_drawn: 0.0
  energy_regen: 0.0
  displacement: 3849.0
  distance_traveled: 12925.0
  fault_code: 0
---
header: 
  seq: 191030
  stamp: 
    secs: 1625854598
    nsecs: 582204095
  frame_id: ''
state: 
  voltage_input: 11.6
  temperature_pcb: 0.0
  current_motor: 0.0
  current_input: 0.0
  current_q: 0.0
  speed: 0.0
  duty_cycle: 0.0
  charge_drawn: 100.0
  charge_regen: 0.0
  energy_drawn: 0.0
  energy_regen: 0.0
  displacement: 3849.0
  distance_traveled: 12925.0
  fault_code: 0
---
header: 
  seq: 191031
  stamp: 
    secs: 1625854598
    nsecs: 602448566
  frame_id: ''
state: 
  voltage_input: 11.7
  temperature_pcb: 0.0
  current_motor: 0.0
  current_input: 0.0
  current_q: 0.0
  speed: 0.0
  duty_cycle: 0.0
  charge_drawn: 100.0
  charge_regen: 0.0
  energy_drawn: 0.0
  energy_regen: 0.0
  displacement: 3849.0
  distance_traveled: 12925.0
  fault_code: 0
---
header: 
  seq: 191032
  stamp: 
    secs: 1625854598
    nsecs: 622216606
  frame_id: ''
state: 
  voltage_input: 11.6
  temperature_pcb: 0.0
  current_motor: 0.0
  current_input: 0.0
  current_q: 0.0
  speed: -1.0
  duty_cycle: 0.0
  charge_drawn: 100.0
  charge_regen: 0.0
  energy_drawn: 0.0
  energy_regen: 0.0
  displacement: 3849.0
  distance_traveled: 12925.0
  fault_code: 0
---
header: 
  seq: 191033
  stamp: 
    secs: 1625854598
    nsecs: 642265755
  frame_id: ''
state: 
  voltage_input: 11.6
  temperature_pcb: 0.0
  current_motor: 0.0
  current_input: 0.0
  current_q: 0.0
  speed: 0.0
  duty_cycle: 0.0
  charge_drawn: 100.0
  charge_regen: 0.0
  energy_drawn: 0.0
  energy_regen: 0.0
  displacement: 3849.0
  distance_traveled: 12925.0
  fault_code: 0
---
header: 
  seq: 191034
  stamp: 
    secs: 1625854598
    nsecs: 662248129
  frame_id: ''
state: 
  voltage_input: 11.6
  temperature_pcb: 0.0
  current_motor: 0.0
  current_input: 0.0
  current_q: 0.0
  speed: 0.0
  duty_cycle: 0.0
  charge_drawn: 100.0
  charge_regen: 0.0
  energy_drawn: 0.0
  energy_regen: 0.0
  displacement: 3849.0
  distance_traveled: 12925.0
  fault_code: 0
---
header: 
  seq: 191035
  stamp: 
    secs: 1625854598
    nsecs: 686529379
  frame_id: ''
state: 
  voltage_input: 11.6
  temperature_pcb: 0.0
  current_motor: 0.0
  current_input: 0.0
  current_q: 0.0
  speed: 0.0
  duty_cycle: 0.0
  charge_drawn: 100.0
  charge_regen: 0.0
  energy_drawn: 0.0
  energy_regen: 0.0
  displacement: 3849.0
  distance_traveled: 12925.0
  fault_code: 0
---
header: 
  seq: 191036
  stamp: 
    secs: 1625854598
    nsecs: 702087454
  frame_id: ''
state: 
  voltage_input: 11.6
  temperature_pcb: 0.0
  current_motor: 0.0
  current_input: 0.0
  current_q: 0.0
  speed: 1.0
  duty_cycle: 0.0
  charge_drawn: 100.0
  charge_regen: 0.0
  energy_drawn: 0.0
  energy_regen: 0.0
  displacement: 3849.0
  distance_traveled: 12925.0
  fault_code: 0
---
header: 
  seq: 191037
  stamp: 
    secs: 1625854598
    nsecs: 725049623
  frame_id: ''
state: 
  voltage_input: 11.6
  temperature_pcb: 0.0
  current_motor: 0.0
  current_input: 0.0
  current_q: 0.0
  speed: 0.0
  duty_cycle: 0.0
  charge_drawn: 100.0
  charge_regen: 0.0
  energy_drawn: 0.0
  energy_regen: 0.0
  displacement: 3849.0
  distance_traveled: 12925.0
  fault_code: 0
---
header: 
  seq: 191038
  stamp: 
    secs: 1625854598
    nsecs: 742482902
  frame_id: ''
state: 
  voltage_input: 11.7
  temperature_pcb: 0.0
  current_motor: 0.0
  current_input: 0.0
  current_q: 0.0
  speed: 0.0
  duty_cycle: 0.001
  charge_drawn: 100.0
  charge_regen: 0.0
  energy_drawn: 0.0
  energy_regen: 0.0
  displacement: 3849.0
  distance_traveled: 12925.0
  fault_code: 0
---
header: 
  seq: 191039
  stamp: 
    secs: 1625854598
    nsecs: 762313341
  frame_id: ''
state: 
  voltage_input: 11.6
  temperature_pcb: 0.0
  current_motor: 0.0
  current_input: 0.0
  current_q: 0.0
  speed: 0.0
  duty_cycle: 0.0
  charge_drawn: 100.0
  charge_regen: 0.0
  energy_drawn: 0.0
  energy_regen: 0.0
  displacement: 3849.0
  distance_traveled: 12925.0
  fault_code: 0
---
header: 
  seq: 191040
  stamp: 
    secs: 1625854598
    nsecs: 782250452
  frame_id: ''
state: 
  voltage_input: 11.7
  temperature_pcb: 0.0
  current_motor: 0.0
  current_input: 0.0
  current_q: 0.0
  speed: 0.0
  duty_cycle: 0.0
  charge_drawn: 100.0
  charge_regen: 0.0
  energy_drawn: 0.0
  energy_regen: 0.0
  displacement: 3849.0
  distance_traveled: 12925.0
  fault_code: 0
---
header: 
  seq: 191041
  stamp: 
    secs: 1625854598
    nsecs: 802091829
  frame_id: ''
state: 
  voltage_input: 11.6
  temperature_pcb: 0.0
  current_motor: 0.0
  current_input: 0.0
  current_q: 0.0
  speed: 0.0
  duty_cycle: 0.0
  charge_drawn: 100.0
  charge_regen: 0.0
  energy_drawn: 0.0
  energy_regen: 0.0
  displacement: 3849.0
  distance_traveled: 12925.0
  fault_code: 0
---
header: 
  seq: 191042
  stamp: 
    secs: 1625854598
    nsecs: 823156293
  frame_id: ''
state: 
  voltage_input: 11.7
  temperature_pcb: 0.0
  current_motor: 0.0
  current_input: 0.0
  current_q: 0.0
  speed: 0.0
  duty_cycle: 0.0
  charge_drawn: 100.0
  charge_regen: 0.0
  energy_drawn: 0.0
  energy_regen: 0.0
  displacement: 3849.0
  distance_traveled: 12925.0
  fault_code: 0
---
header: 
  seq: 191043
  stamp: 
    secs: 1625854598
    nsecs: 842236431
  frame_id: ''
state: 
  voltage_input: 11.6
  temperature_pcb: 0.0
  current_motor: 0.0
  current_input: 0.0
  current_q: 0.0
  speed: 0.0
  duty_cycle: 0.0
  charge_drawn: 100.0
  charge_regen: 0.0
  energy_drawn: 0.0
  energy_regen: 0.0
  displacement: 3849.0
  distance_traveled: 12925.0
  fault_code: 0
---
header: 
  seq: 191044
  stamp: 
    secs: 1625854598
    nsecs: 862245577
  frame_id: ''
state: 
  voltage_input: 11.7
  temperature_pcb: 0.0
  current_motor: 0.0
  current_input: 0.0
  current_q: 0.0
  speed: 0.0
  duty_cycle: 0.0
  charge_drawn: 100.0
  charge_regen: 0.0
  energy_drawn: 0.0
  energy_regen: 0.0
  displacement: 3849.0
  distance_traveled: 12925.0
  fault_code: 0
---
header: 
  seq: 191045
  stamp: 
    secs: 1625854598
    nsecs: 882493330
  frame_id: ''
state: 
  voltage_input: 11.6
  temperature_pcb: 0.0
  current_motor: 0.0
  current_input: 0.0
  current_q: 0.0
  speed: -1.0
  duty_cycle: 0.0
  charge_drawn: 100.0
  charge_regen: 0.0
  energy_drawn: 0.0
  energy_regen: 0.0
  displacement: 3849.0
  distance_traveled: 12925.0
  fault_code: 0
---
header: 
  seq: 191046
  stamp: 
    secs: 1625854598
    nsecs: 902096726
  frame_id: ''
state: 
  voltage_input: 11.7
  temperature_pcb: 0.0
  current_motor: 0.0
  current_input: 0.0
  current_q: 0.0
  speed: -1.0
  duty_cycle: 0.0
  charge_drawn: 100.0
  charge_regen: 0.0
  energy_drawn: 0.0
  energy_regen: 0.0
  displacement: 3849.0
  distance_traveled: 12925.0
  fault_code: 0
---
header: 
  seq: 191047
  stamp: 
    secs: 1625854598
    nsecs: 926359955
  frame_id: ''
state: 
  voltage_input: 11.6
  temperature_pcb: 0.0
  current_motor: 0.0
  current_input: 0.0
  current_q: 0.0
  speed: -1.0
  duty_cycle: 0.0
  charge_drawn: 100.0
  charge_regen: 0.0
  energy_drawn: 0.0
  energy_regen: 0.0
  displacement: 3849.0
  distance_traveled: 12925.0
  fault_code: 0
---
header: 
  seq: 191048
  stamp: 
    secs: 1625854598
    nsecs: 942072725
  frame_id: ''
state: 
  voltage_input: 11.7
  temperature_pcb: 0.0
  current_motor: 0.0
  current_input: 0.0
  current_q: 0.0
  speed: 0.0
  duty_cycle: 0.0
  charge_drawn: 100.0
  charge_regen: 0.0
  energy_drawn: 0.0
  energy_regen: 0.0
  displacement: 3849.0
  distance_traveled: 12925.0
  fault_code: 0
---
header: 
  seq: 191049
  stamp: 
    secs: 1625854598
    nsecs: 962454547
  frame_id: ''
state: 
  voltage_input: 11.7
  temperature_pcb: 0.0
  current_motor: 0.0
  current_input: 0.0
  current_q: 0.0
  speed: 0.0
  duty_cycle: -0.001
  charge_drawn: 100.0
  charge_regen: 0.0
  energy_drawn: 0.0
  energy_regen: 0.0
  displacement: 3849.0
  distance_traveled: 12925.0
  fault_code: 0
---
header: 
  seq: 191050
  stamp: 
    secs: 1625854598
    nsecs: 982178522
  frame_id: ''
state: 
  voltage_input: 11.6
  temperature_pcb: 0.0
  current_motor: 0.0
  current_input: 0.0
  current_q: 0.0
  speed: 1.0
  duty_cycle: 0.0
  charge_drawn: 100.0
  charge_regen: 0.0
  energy_drawn: 0.0
  energy_regen: 0.0
  displacement: 3849.0
  distance_traveled: 12925.0
  fault_code: 0
---
header: 
  seq: 191051
  stamp: 
    secs: 1625854599
    nsecs:   2238088
  frame_id: ''
state: 
  voltage_input: 11.6
  temperature_pcb: 0.0
  current_motor: 0.0
  current_input: 0.0
  current_q: 0.0
  speed: 0.0
  duty_cycle: 0.0
  charge_drawn: 100.0
  charge_regen: 0.0
  energy_drawn: 0.0
  energy_regen: 0.0
  displacement: 3849.0
  distance_traveled: 12925.0
  fault_code: 0
---
header: 
  seq: 191052
  stamp: 
    secs: 1625854599
    nsecs:  22458600
  frame_id: ''
state: 
  voltage_input: 11.6
  temperature_pcb: 0.0
  current_motor: 0.0
  current_input: 0.0
  current_q: 0.0
  speed: 0.0
  duty_cycle: 0.0
  charge_drawn: 100.0
  charge_regen: 0.0
  energy_drawn: 0.0
  energy_regen: 0.0
  displacement: 3849.0
  distance_traveled: 12925.0
  fault_code: 0
---
header: 
  seq: 191053
  stamp: 
    secs: 1625854599
    nsecs:  42131687
  frame_id: ''
state: 
  voltage_input: 11.6
  temperature_pcb: 0.0
  current_motor: 0.0
  current_input: 0.0
  current_q: 0.0
  speed: 0.0
  duty_cycle: 0.0
  charge_drawn: 100.0
  charge_regen: 0.0
  energy_drawn: 0.0
  energy_regen: 0.0
  displacement: 3849.0
  distance_traveled: 12925.0
  fault_code: 0
---
header: 
  seq: 191054
  stamp: 
    secs: 1625854599
    nsecs:  62309071
  frame_id: ''
state: 
  voltage_input: 11.6
  temperature_pcb: 0.0
  current_motor: 0.0
  current_input: 0.0
  current_q: 0.0
  speed: 0.0
  duty_cycle: 0.0
  charge_drawn: 100.0
  charge_regen: 0.0
  energy_drawn: 0.0
  energy_regen: 0.0
  displacement: 3849.0
  distance_traveled: 12925.0
  fault_code: 0
---
header: 
  seq: 191055
  stamp: 
    secs: 1625854599
    nsecs:  82165137
  frame_id: ''
state: 
  voltage_input: 11.7
  temperature_pcb: 0.0
  current_motor: 0.0
  current_input: 0.0
  current_q: 0.0
  speed: 0.0
  duty_cycle: 0.0
  charge_drawn: 100.0
  charge_regen: 0.0
  energy_drawn: 0.0
  energy_regen: 0.0
  displacement: 3849.0
  distance_traveled: 12925.0
  fault_code: 0
---
header: 
  seq: 191056
  stamp: 
    secs: 1625854599
    nsecs: 102170585
  frame_id: ''
state: 
  voltage_input: 11.7
  temperature_pcb: 0.0
  current_motor: 0.0
  current_input: 0.0
  current_q: 0.0
  speed: 0.0
  duty_cycle: -0.001
  charge_drawn: 100.0
  charge_regen: 0.0
  energy_drawn: 0.0
  energy_regen: 0.0
  displacement: 3849.0
  distance_traveled: 12925.0
  fault_code: 0
---
header: 
  seq: 191057
  stamp: 
    secs: 1625854599
    nsecs: 122073840
  frame_id: ''
state: 
  voltage_input: 11.7
  temperature_pcb: 0.0
  current_motor: 0.0
  current_input: 0.0
  current_q: 0.0
  speed: -1.0
  duty_cycle: 0.0
  charge_drawn: 100.0
  charge_regen: 0.0
  energy_drawn: 0.0
  energy_regen: 0.0
  displacement: 3849.0
  distance_traveled: 12925.0
  fault_code: 0
---
header: 
  seq: 191058
  stamp: 
    secs: 1625854599
    nsecs: 142500770
  frame_id: ''
state: 
  voltage_input: 11.5
  temperature_pcb: 0.0
  current_motor: 0.0
  current_input: 0.0
  current_q: 0.0
  speed: 0.0
  duty_cycle: 0.0
  charge_drawn: 100.0
  charge_regen: 0.0
  energy_drawn: 0.0
  energy_regen: 0.0
  displacement: 3849.0
  distance_traveled: 12925.0
  fault_code: 0
---
header: 
  seq: 191059
  stamp: 
    secs: 1625854599
    nsecs: 162536532
  frame_id: ''
state: 
  voltage_input: 11.7
  temperature_pcb: 0.0
  current_motor: 0.0
  current_input: 0.0
  current_q: 0.0
  speed: 1.0
  duty_cycle: 0.0
  charge_drawn: 100.0
  charge_regen: 0.0
  energy_drawn: 0.0
  energy_regen: 0.0
  displacement: 3849.0
  distance_traveled: 12925.0
  fault_code: 0
---
header: 
  seq: 191060
  stamp: 
    secs: 1625854599
    nsecs: 182702510
  frame_id: ''
state: 
  voltage_input: 11.6
  temperature_pcb: 0.0
  current_motor: 0.0
  current_input: 0.0
  current_q: 0.0
  speed: 0.0
  duty_cycle: 0.0
  charge_drawn: 100.0
  charge_regen: 0.0
  energy_drawn: 0.0
  energy_regen: 0.0
  displacement: 3849.0
  distance_traveled: 12925.0
  fault_code: 0
---
header: 
  seq: 191061
  stamp: 
    secs: 1625854599
    nsecs: 202448934
  frame_id: ''
state: 
  voltage_input: 11.6
  temperature_pcb: 0.0
  current_motor: 0.0
  current_input: 0.0
  current_q: 0.0
  speed: 0.0
  duty_cycle: 0.0
  charge_drawn: 100.0
  charge_regen: 0.0
  energy_drawn: 0.0
  energy_regen: 0.0
  displacement: 3849.0
  distance_traveled: 12925.0
  fault_code: 0
---
header: 
  seq: 191062
  stamp: 
    secs: 1625854599
    nsecs: 222775910
  frame_id: ''
state: 
  voltage_input: 11.7
  temperature_pcb: 0.0
  current_motor: 0.0
  current_input: 0.0
  current_q: 0.0
  speed: 2.0
  duty_cycle: 0.0
  charge_drawn: 100.0
  charge_regen: 0.0
  energy_drawn: 0.0
  energy_regen: 0.0
  displacement: 3849.0
  distance_traveled: 12925.0
  fault_code: 0
---
header: 
  seq: 191063
  stamp: 
    secs: 1625854599
    nsecs: 244193621
  frame_id: ''
state: 
  voltage_input: 11.7
  temperature_pcb: 0.0
  current_motor: 0.0
  current_input: 0.0
  current_q: 0.0
  speed: 2.0
  duty_cycle: 0.0
  charge_drawn: 100.0
  charge_regen: 0.0
  energy_drawn: 0.0
  energy_regen: 0.0
  displacement: 3849.0
  distance_traveled: 12925.0
  fault_code: 0
---
header: 
  seq: 191064
  stamp: 
    secs: 1625854599
    nsecs: 262493405
  frame_id: ''
state: 
  voltage_input: 11.6
  temperature_pcb: 0.0
  current_motor: 0.0
  current_input: 0.0
  current_q: 0.0
  speed: 1.0
  duty_cycle: 0.0
  charge_drawn: 100.0
  charge_regen: 0.0
  energy_drawn: 0.0
  energy_regen: 0.0
  displacement: 3849.0
  distance_traveled: 12925.0
  fault_code: 0
---
header: 
  seq: 191065
  stamp: 
    secs: 1625854599
    nsecs: 282143939
  frame_id: ''
state: 
  voltage_input: 11.6
  temperature_pcb: 0.0
  current_motor: 0.0
  current_input: 0.0
  current_q: 0.0
  speed: 1.0
  duty_cycle: 0.0
  charge_drawn: 100.0
  charge_regen: 0.0
  energy_drawn: 0.0
  energy_regen: 0.0
  displacement: 3849.0
  distance_traveled: 12925.0
  fault_code: 0
---
header: 
  seq: 191066
  stamp: 
    secs: 1625854599
    nsecs: 303204964
  frame_id: ''
state: 
  voltage_input: 11.7
  temperature_pcb: 0.0
  current_motor: 0.0
  current_input: 0.0
  current_q: 0.0
  speed: 1.0
  duty_cycle: 0.0
  charge_drawn: 100.0
  charge_regen: 0.0
  energy_drawn: 0.0
  energy_regen: 0.0
  displacement: 3849.0
  distance_traveled: 12925.0
  fault_code: 0
---
header: 
  seq: 191067
  stamp: 
    secs: 1625854599
    nsecs: 322157335
  frame_id: ''
state: 
  voltage_input: 11.6
  temperature_pcb: 0.0
  current_motor: 0.0
  current_input: 0.0
  current_q: 0.0
  speed: 0.0
  duty_cycle: 0.0
  charge_drawn: 100.0
  charge_regen: 0.0
  energy_drawn: 0.0
  energy_regen: 0.0
  displacement: 3849.0
  distance_traveled: 12925.0
  fault_code: 0
---
header: 
  seq: 191068
  stamp: 
    secs: 1625854599
    nsecs: 342145439
  frame_id: ''
state: 
  voltage_input: 11.7
  temperature_pcb: 0.0
  current_motor: 0.0
  current_input: 0.0
  current_q: 0.0
  speed: 0.0
  duty_cycle: 0.0
  charge_drawn: 100.0
  charge_regen: 0.0
  energy_drawn: 0.0
  energy_regen: 0.0
  displacement: 3849.0
  distance_traveled: 12925.0
  fault_code: 0
---
header: 
  seq: 191069
  stamp: 
    secs: 1625854599
    nsecs: 363611695
  frame_id: ''
state: 
  voltage_input: 11.6
  temperature_pcb: 0.0
  current_motor: 0.0
  current_input: 0.0
  current_q: 0.0
  speed: 0.0
  duty_cycle: 0.0
  charge_drawn: 100.0
  charge_regen: 0.0
  energy_drawn: 0.0
  energy_regen: 0.0
  displacement: 3849.0
  distance_traveled: 12925.0
  fault_code: 0
---
header: 
  seq: 191070
  stamp: 
    secs: 1625854599
    nsecs: 382367441
  frame_id: ''
state: 
  voltage_input: 11.7
  temperature_pcb: 0.0
  current_motor: 0.0
  current_input: 0.0
  current_q: 0.0
  speed: 0.0
  duty_cycle: 0.0
  charge_drawn: 100.0
  charge_regen: 0.0
  energy_drawn: 0.0
  energy_regen: 0.0
  displacement: 3849.0
  distance_traveled: 12925.0
  fault_code: 0
---
header: 
  seq: 191071
  stamp: 
    secs: 1625854599
    nsecs: 402758170
  frame_id: ''
state: 
  voltage_input: 11.7
  temperature_pcb: 0.0
  current_motor: 0.0
  current_input: 0.0
  current_q: 0.0
  speed: -1.0
  duty_cycle: 0.0
  charge_drawn: 100.0
  charge_regen: 0.0
  energy_drawn: 0.0
  energy_regen: 0.0
  displacement: 3849.0
  distance_traveled: 12925.0
  fault_code: 0
---
header: 
  seq: 191072
  stamp: 
    secs: 1625854599
    nsecs: 422743878
  frame_id: ''
state: 
  voltage_input: 11.7
  temperature_pcb: 0.0
  current_motor: 0.0
  current_input: 0.0
  current_q: 0.0
  speed: 0.0
  duty_cycle: 0.0
  charge_drawn: 100.0
  charge_regen: 0.0
  energy_drawn: 0.0
  energy_regen: 0.0
  displacement: 3849.0
  distance_traveled: 12925.0
  fault_code: 0
---
header: 
  seq: 191073
  stamp: 
    secs: 1625854599
    nsecs: 443672813
  frame_id: ''
state: 
  voltage_input: 11.6
  temperature_pcb: 0.0
  current_motor: 0.0
  current_input: 0.0
  current_q: 0.0
  speed: 0.0
  duty_cycle: 0.0
  charge_drawn: 100.0
  charge_regen: 0.0
  energy_drawn: 0.0
  energy_regen: 0.0
  displacement: 3849.0
  distance_traveled: 12925.0
  fault_code: 0
---
header: 
  seq: 191074
  stamp: 
    secs: 1625854599
    nsecs: 462625028
  frame_id: ''
state: 
  voltage_input: 11.7
  temperature_pcb: 0.0
  current_motor: 0.0
  current_input: 0.0
  current_q: 0.0
  speed: 0.0
  duty_cycle: 0.0
  charge_drawn: 100.0
  charge_regen: 0.0
  energy_drawn: 0.0
  energy_regen: 0.0
  displacement: 3849.0
  distance_traveled: 12925.0
  fault_code: 0
---
header: 
  seq: 191075
  stamp: 
    secs: 1625854599
    nsecs: 483122378
  frame_id: ''
state: 
  voltage_input: 11.7
  temperature_pcb: 0.0
  current_motor: 0.0
  current_input: 0.0
  current_q: 0.0
  speed: 1.0
  duty_cycle: 0.0
  charge_drawn: 100.0
  charge_regen: 0.0
  energy_drawn: 0.0
  energy_regen: 0.0
  displacement: 3849.0
  distance_traveled: 12925.0
  fault_code: 0
---
header: 
  seq: 191076
  stamp: 
    secs: 1625854599
    nsecs: 502856457
  frame_id: ''
state: 
  voltage_input: 11.7
  temperature_pcb: 0.0
  current_motor: 0.0
  current_input: 0.0
  current_q: 0.0
  speed: 2.0
  duty_cycle: 0.0
  charge_drawn: 100.0
  charge_regen: 0.0
  energy_drawn: 0.0
  energy_regen: 0.0
  displacement: 3849.0
  distance_traveled: 12925.0
  fault_code: 0
---
header: 
  seq: 191077
  stamp: 
    secs: 1625854599
    nsecs: 523282761
  frame_id: ''
state: 
  voltage_input: 11.6
  temperature_pcb: 0.0
  current_motor: 0.0
  current_input: 0.0
  current_q: 0.0
  speed: 0.0
  duty_cycle: 0.0
  charge_drawn: 100.0
  charge_regen: 0.0
  energy_drawn: 0.0
  energy_regen: 0.0
  displacement: 3849.0
  distance_traveled: 12925.0
  fault_code: 0
---
header: 
  seq: 191078
  stamp: 
    secs: 1625854599
    nsecs: 543227634
  frame_id: ''
state: 
  voltage_input: 11.7
  temperature_pcb: 0.0
  current_motor: 0.0
  current_input: 0.0
  current_q: 0.0
  speed: 0.0
  duty_cycle: -0.001
  charge_drawn: 100.0
  charge_regen: 0.0
  energy_drawn: 0.0
  energy_regen: 0.0
  displacement: 3849.0
  distance_traveled: 12925.0
  fault_code: 0
---
header: 
  seq: 191079
  stamp: 
    secs: 1625854599
    nsecs: 563674356
  frame_id: ''
state: 
  voltage_input: 11.6
  temperature_pcb: 0.0
  current_motor: 0.0
  current_input: 0.0
  current_q: 0.0
  speed: 0.0
  duty_cycle: 0.0
  charge_drawn: 100.0
  charge_regen: 0.0
  energy_drawn: 0.0
  energy_regen: 0.0
  displacement: 3849.0
  distance_traveled: 12925.0
  fault_code: 0
---
header: 
  seq: 191080
  stamp: 
    secs: 1625854599
    nsecs: 583260511
  frame_id: ''
state: 
  voltage_input: 11.7
  temperature_pcb: 0.0
  current_motor: 0.0
  current_input: 0.0
  current_q: 0.0
  speed: 0.0
  duty_cycle: 0.0
  charge_drawn: 100.0
  charge_regen: 0.0
  energy_drawn: 0.0
  energy_regen: 0.0
  displacement: 3849.0
  distance_traveled: 12925.0
  fault_code: 0
---
header: 
  seq: 191081
  stamp: 
    secs: 1625854599
    nsecs: 602819320
  frame_id: ''
state: 
  voltage_input: 11.7
  temperature_pcb: 0.0
  current_motor: 0.0
  current_input: 0.0
  current_q: 0.0
  speed: 0.0
  duty_cycle: 0.0
  charge_drawn: 100.0
  charge_regen: 0.0
  energy_drawn: 0.0
  energy_regen: 0.0
  displacement: 3849.0
  distance_traveled: 12925.0
  fault_code: 0
---
header: 
  seq: 191082
  stamp: 
    secs: 1625854599
    nsecs: 622904200
  frame_id: ''
state: 
  voltage_input: 11.7
  temperature_pcb: 0.0
  current_motor: 0.0
  current_input: 0.0
  current_q: 0.0
  speed: 0.0
  duty_cycle: 0.0
  charge_drawn: 100.0
  charge_regen: 0.0
  energy_drawn: 0.0
  energy_regen: 0.0
  displacement: 3849.0
  distance_traveled: 12925.0
  fault_code: 0
---
header: 
  seq: 191083
  stamp: 
    secs: 1625854599
    nsecs: 642987517
  frame_id: ''
state: 
  voltage_input: 11.6
  temperature_pcb: 0.0
  current_motor: 0.0
  current_input: 0.0
  current_q: 0.0
  speed: 0.0
  duty_cycle: 0.0
  charge_drawn: 100.0
  charge_regen: 0.0
  energy_drawn: 0.0
  energy_regen: 0.0
  displacement: 3849.0
  distance_traveled: 12925.0
  fault_code: 0
---
header: 
  seq: 191084
  stamp: 
    secs: 1625854599
    nsecs: 666204127
  frame_id: ''
state: 
  voltage_input: 11.7
  temperature_pcb: 0.0
  current_motor: 42.01
  current_input: 2.83
  current_q: 43.93
  speed: 22.0
  duty_cycle: 0.072
  charge_drawn: 100.0
  charge_regen: 0.0
  energy_drawn: 0.0
  energy_regen: 0.0
  displacement: 3849.0
  distance_traveled: 12925.0
  fault_code: 0
---
header: 
  seq: 191085
  stamp: 
    secs: 1625854599
    nsecs: 685262389
  frame_id: ''
state: 
  voltage_input: 11.7
  temperature_pcb: 0.0
  current_motor: 60.05
  current_input: 3.79
  current_q: 59.92
  speed: -25.0
  duty_cycle: 0.072
  charge_drawn: 100.0
  charge_regen: 0.0
  energy_drawn: 0.0
  energy_regen: 0.0
  displacement: 3849.0
  distance_traveled: 12925.0
  fault_code: 0
---
header: 
  seq: 191086
  stamp: 
    secs: 1625854599
    nsecs: 703911150
  frame_id: ''
state: 
  voltage_input: 11.6
  temperature_pcb: 0.0
  current_motor: 59.92
  current_input: 3.72
  current_q: 59.88
  speed: -70.0
  duty_cycle: 0.073
  charge_drawn: 100.0
  charge_regen: 0.0
  energy_drawn: 0.0
  energy_regen: 0.0
  displacement: 3848.0
  distance_traveled: 12926.0
  fault_code: 0
---
header: 
  seq: 191087
  stamp: 
    secs: 1625854599
    nsecs: 723005925
  frame_id: ''
state: 
  voltage_input: 11.5
  temperature_pcb: 0.0
  current_motor: 59.97
  current_input: 3.81
  current_q: 59.98
  speed: -80.0
  duty_cycle: 0.073
  charge_drawn: 100.0
  charge_regen: 0.0
  energy_drawn: 0.0
  energy_regen: 0.0
  displacement: 3848.0
  distance_traveled: 12926.0
  fault_code: 0
---
header: 
  seq: 191088
  stamp: 
    secs: 1625854599
    nsecs: 743046583
  frame_id: ''
state: 
  voltage_input: 11.7
  temperature_pcb: 0.0
  current_motor: 59.95
  current_input: 3.82
  current_q: 59.95
  speed: -87.0
  duty_cycle: 0.073
  charge_drawn: 100.0
  charge_regen: 0.0
  energy_drawn: 0.0
  energy_regen: 0.0
  displacement: 3848.0
  distance_traveled: 12926.0
  fault_code: 0
---
header: 
  seq: 191089
  stamp: 
    secs: 1625854599
    nsecs: 763597165
  frame_id: ''
state: 
  voltage_input: 11.6
  temperature_pcb: 0.0
  current_motor: 43.31
  current_input: 2.86
  current_q: 40.36
  speed: 136.0
  duty_cycle: 0.082
  charge_drawn: 101.0
  charge_regen: 0.0
  energy_drawn: 0.0
  energy_regen: 0.0
  displacement: 3850.0
  distance_traveled: 12928.0
  fault_code: 0
---
header: 
  seq: 191090
  stamp: 
    secs: 1625854599
    nsecs: 783092950
  frame_id: ''
state: 
  voltage_input: 11.7
  temperature_pcb: 0.0
  current_motor: 60.54
  current_input: 3.83
  current_q: 60.08
  speed: 168.0
  duty_cycle: 0.073
  charge_drawn: 101.0
  charge_regen: 0.0
  energy_drawn: 0.0
  energy_regen: 0.0
  displacement: 3850.0
  distance_traveled: 12928.0
  fault_code: 0
---
header: 
  seq: 191091
  stamp: 
    secs: 1625854599
    nsecs: 803742600
  frame_id: ''
state: 
  voltage_input: 11.7
  temperature_pcb: 0.0
  current_motor: 55.86
  current_input: 3.35
  current_q: 55.47
  speed: 244.0
  duty_cycle: 0.071
  charge_drawn: 101.0
  charge_regen: 0.0
  energy_drawn: 0.0
  energy_regen: 0.0
  displacement: 3851.0
  distance_traveled: 12929.0
  fault_code: 0
---
header: 
  seq: 191092
  stamp: 
    secs: 1625854599
    nsecs: 823260783
  frame_id: ''
state: 
  voltage_input: 11.6
  temperature_pcb: 0.0
  current_motor: 50.6
  current_input: 2.86
  current_q: 50.35
  speed: 339.0
  duty_cycle: 0.071
  charge_drawn: 101.0
  charge_regen: 0.0
  energy_drawn: 0.0
  energy_regen: 0.0
  displacement: 3852.0
  distance_traveled: 12930.0
  fault_code: 0
---
header: 
  seq: 191093
  stamp: 
    secs: 1625854599
    nsecs: 844509735
  frame_id: ''
state: 
  voltage_input: 11.6
  temperature_pcb: 0.0
  current_motor: 46.18
  current_input: 2.57
  current_q: 45.91
  speed: 455.0
  duty_cycle: 0.079
  charge_drawn: 101.0
  charge_regen: 0.0
  energy_drawn: 0.0
  energy_regen: 0.0
  displacement: 3854.0
  distance_traveled: 12932.0
  fault_code: 0
---
header: 
  seq: 191094
  stamp: 
    secs: 1625854599
    nsecs: 863617635
  frame_id: ''
state: 
  voltage_input: 11.6
  temperature_pcb: 0.0
  current_motor: 44.38
  current_input: 2.43
  current_q: 44.33
  speed: 563.0
  duty_cycle: 0.058
  charge_drawn: 102.0
  charge_regen: 0.0
  energy_drawn: 0.0
  energy_regen: 0.0
  displacement: 3855.0
  distance_traveled: 12933.0
  fault_code: 0
---
header: 
  seq: 191095
  stamp: 
    secs: 1625854599
    nsecs: 883058157
  frame_id: ''
state: 
  voltage_input: 11.7
  temperature_pcb: 0.0
  current_motor: 43.77
  current_input: 2.67
  current_q: 43.89
  speed: 647.0
  duty_cycle: 0.057
  charge_drawn: 102.0
  charge_regen: 0.0
  energy_drawn: 0.0
  energy_regen: 0.0
  displacement: 3857.0
  distance_traveled: 12935.0
  fault_code: 0
---
header: 
  seq: 191096
  stamp: 
    secs: 1625854599
    nsecs: 903617073
  frame_id: ''
state: 
  voltage_input: 11.6
  temperature_pcb: 0.0
  current_motor: 43.74
  current_input: 2.65
  current_q: 43.75
  speed: 711.0
  duty_cycle: 0.068
  charge_drawn: 102.0
  charge_regen: 0.0
  energy_drawn: 0.0
  energy_regen: 0.0
  displacement: 3859.0
  distance_traveled: 12937.0
  fault_code: 0
---
header: 
  seq: 191097
  stamp: 
    secs: 1625854599
    nsecs: 923084628
  frame_id: ''
state: 
  voltage_input: 11.6
  temperature_pcb: 0.0
  current_motor: 26.1
  current_input: 1.41
  current_q: 27.25
  speed: 810.0
  duty_cycle: 0.045
  charge_drawn: 102.0
  charge_regen: 0.0
  energy_drawn: 0.0
  energy_regen: 0.0
  displacement: 3861.0
  distance_traveled: 12941.0
  fault_code: 0
---
header: 
  seq: 191098
  stamp: 
    secs: 1625854599
    nsecs: 944055180
  frame_id: ''
state: 
  voltage_input: 11.7
  temperature_pcb: 0.0
  current_motor: 38.1
  current_input: 2.36
  current_q: 38.89
  speed: 843.0
  duty_cycle: 0.086
  charge_drawn: 102.0
  charge_regen: 0.0
  energy_drawn: 0.0
  energy_regen: 0.0
  displacement: 3863.0
  distance_traveled: 12943.0
  fault_code: 0
---
header: 
  seq: 191099
  stamp: 
    secs: 1625854599
    nsecs: 964113860
  frame_id: ''
state: 
  voltage_input: 11.6
  temperature_pcb: 0.0
  current_motor: 35.48
  current_input: 2.07
  current_q: 34.56
  speed: 978.0
  duty_cycle: 0.052
  charge_drawn: 102.0
  charge_regen: 0.0
  energy_drawn: 0.0
  energy_regen: 0.0
  displacement: 3866.0
  distance_traveled: 12946.0
  fault_code: 0
---
header: 
  seq: 191100
  stamp: 
    secs: 1625854599
    nsecs: 983620636
  frame_id: ''
state: 
  voltage_input: 11.7
  temperature_pcb: 0.0
  current_motor: 35.58
  current_input: 2.07
  current_q: 36.1
  speed: 1026.0
  duty_cycle: 0.076
  charge_drawn: 102.0
  charge_regen: 0.0
  energy_drawn: 0.0
  energy_regen: 0.0
  displacement: 3868.0
  distance_traveled: 12948.0
  fault_code: 0
---
header: 
  seq: 191101
  stamp: 
    secs: 1625854600
    nsecs:   3441856
  frame_id: ''
state: 
  voltage_input: 11.7
  temperature_pcb: 0.0
  current_motor: 32.94
  current_input: 1.81
  current_q: 32.29
  speed: 1125.0
  duty_cycle: 0.057
  charge_drawn: 102.0
  charge_regen: 0.0
  energy_drawn: 0.0
  energy_regen: 0.0
  displacement: 3871.0
  distance_traveled: 12951.0
  fault_code: 0
---
header: 
  seq: 191102
  stamp: 
    secs: 1625854600
    nsecs:  24039263
  frame_id: ''
state: 
  voltage_input: 11.7
  temperature_pcb: 0.0
  current_motor: 30.89
  current_input: 1.68
  current_q: 30.93
  speed: 1203.0
  duty_cycle: 0.064
  charge_drawn: 102.0
  charge_regen: 0.0
  energy_drawn: 0.0
  energy_regen: 0.0
  displacement: 3874.0
  distance_traveled: 12954.0
  fault_code: 0
---
header: 
  seq: 191103
  stamp: 
    secs: 1625854600
    nsecs:  43626824
  frame_id: ''
state: 
  voltage_input: 11.6
  temperature_pcb: 0.0
  current_motor: 27.33
  current_input: 1.42
  current_q: 26.99
  speed: 1297.0
  duty_cycle: 0.055
  charge_drawn: 102.0
  charge_regen: 0.0
  energy_drawn: 0.0
  energy_regen: 0.0
  displacement: 3877.0
  distance_traveled: 12957.0
  fault_code: 0
---
header: 
  seq: 191104
  stamp: 
    secs: 1625854600
    nsecs:  64013491
  frame_id: ''
state: 
  voltage_input: 11.7
  temperature_pcb: 0.0
  current_motor: 25.98
  current_input: 1.36
  current_q: 26.01
  speed: 1385.0
  duty_cycle: 0.063
  charge_drawn: 103.0
  charge_regen: 0.0
  energy_drawn: 0.0
  energy_regen: 0.0
  displacement: 3880.0
  distance_traveled: 12960.0
  fault_code: 0
---
header: 
  seq: 191105
  stamp: 
    secs: 1625854600
    nsecs:  84702518
  frame_id: ''
state: 
  voltage_input: 11.6
  temperature_pcb: 0.0
  current_motor: 22.98
  current_input: 1.15
  current_q: 22.77
  speed: 1473.0
  duty_cycle: 0.055
  charge_drawn: 103.0
  charge_regen: 0.0
  energy_drawn: 0.0
  energy_regen: 0.0
  displacement: 3884.0
  distance_traveled: 12964.0
  fault_code: 0
---
header: 
  seq: 191106
  stamp: 
    secs: 1625854600
    nsecs: 104538894
  frame_id: ''
state: 
  voltage_input: 11.6
  temperature_pcb: 0.0
  current_motor: 21.47
  current_input: 1.08
  current_q: 21.39
  speed: 1556.0
  duty_cycle: 0.062
  charge_drawn: 103.0
  charge_regen: 0.0
  energy_drawn: 0.0
  energy_regen: 0.0
  displacement: 3887.0
  distance_traveled: 12967.0
  fault_code: 0
---
header: 
  seq: 191107
  stamp: 
    secs: 1625854600
    nsecs: 123067961
  frame_id: ''
state: 
  voltage_input: 11.6
  temperature_pcb: 0.0
  current_motor: 19.82
  current_input: 0.97
  current_q: 19.6
  speed: 1636.0
  duty_cycle: 0.056
  charge_drawn: 103.0
  charge_regen: 0.0
  energy_drawn: 0.0
  energy_regen: 0.0
  displacement: 3891.0
  distance_traveled: 12971.0
  fault_code: 0
---
header: 
  seq: 191108
  stamp: 
    secs: 1625854600
    nsecs: 142736204
  frame_id: ''
state: 
  voltage_input: 11.6
  temperature_pcb: 0.0
  current_motor: 18.12
  current_input: 0.87
  current_q: 17.97
  speed: 1715.0
  duty_cycle: 0.052
  charge_drawn: 103.0
  charge_regen: 0.0
  energy_drawn: 0.0
  energy_regen: 0.0
  displacement: 3895.0
  distance_traveled: 12975.0
  fault_code: 0
---
header: 
  seq: 191109
  stamp: 
    secs: 1625854600
    nsecs: 162741548
  frame_id: ''
state: 
  voltage_input: 11.6
  temperature_pcb: 0.0
  current_motor: 16.29
  current_input: 0.77
  current_q: 16.18
  speed: 1789.0
  duty_cycle: 0.051
  charge_drawn: 103.0
  charge_regen: 0.0
  energy_drawn: 0.0
  energy_regen: 0.0
  displacement: 3899.0
  distance_traveled: 12979.0
  fault_code: 0
---
header: 
  seq: 191110
  stamp: 
    secs: 1625854600
    nsecs: 183015657
  frame_id: ''
state: 
  voltage_input: 11.6
  temperature_pcb: 0.0
  current_motor: 15.54
  current_input: 0.74
  current_q: 15.47
  speed: 1853.0
  duty_cycle: 0.056
  charge_drawn: 103.0
  charge_regen: 0.0
  energy_drawn: 0.0
  energy_regen: 0.0
  displacement: 3903.0
  distance_traveled: 12983.0
  fault_code: 0
---
header: 
  seq: 191111
  stamp: 
    secs: 1625854600
    nsecs: 203595823
  frame_id: ''
state: 
  voltage_input: 11.7
  temperature_pcb: 0.0
  current_motor: 13.05
  current_input: 0.59
  current_q: 12.66
  speed: 1938.0
  duty_cycle: 0.055
  charge_drawn: 103.0
  charge_regen: 0.0
  energy_drawn: 0.0
  energy_regen: 0.0
  displacement: 3907.0
  distance_traveled: 12987.0
  fault_code: 0
---
header: 
  seq: 191112
  stamp: 
    secs: 1625854600
    nsecs: 223243440
  frame_id: ''
state: 
  voltage_input: 11.6
  temperature_pcb: 0.0
  current_motor: 11.3
  current_input: 0.52
  current_q: 11.47
  speed: 1996.0
  duty_cycle: 0.054
  charge_drawn: 103.0
  charge_regen: 0.0
  energy_drawn: 0.0
  energy_regen: 0.0
  displacement: 3912.0
  distance_traveled: 12992.0
  fault_code: 0
---
header: 
  seq: 191113
  stamp: 
    secs: 1625854600
    nsecs: 242869597
  frame_id: ''
state: 
  voltage_input: 11.7
  temperature_pcb: 0.0
  current_motor: 12.06
  current_input: 0.55
  current_q: 11.7
  speed: 2056.0
  duty_cycle: 0.051
  charge_drawn: 103.0
  charge_regen: 0.0
  energy_drawn: 0.0
  energy_regen: 0.0
  displacement: 3916.0
  distance_traveled: 12996.0
  fault_code: 0
---
header: 
  seq: 191114
  stamp: 
    secs: 1625854600
    nsecs: 263507371
  frame_id: ''
state: 
  voltage_input: 11.6
  temperature_pcb: 0.0
  current_motor: 9.17
  current_input: 0.41
  current_q: 8.99
  speed: 2115.0
  duty_cycle: 0.039
  charge_drawn: 103.0
  charge_regen: 0.0
  energy_drawn: 0.0
  energy_regen: 0.0
  displacement: 3921.0
  distance_traveled: 13001.0
  fault_code: 0
---
header: 
  seq: 191115
  stamp: 
    secs: 1625854600
    nsecs: 283554957
  frame_id: ''
state: 
  voltage_input: 11.6
  temperature_pcb: 0.0
  current_motor: 12.46
  current_input: 0.69
  current_q: 12.86
  speed: 2129.0
  duty_cycle: 0.067
  charge_drawn: 103.0
  charge_regen: 0.0
  energy_drawn: 0.0
  energy_regen: 0.0
  displacement: 3925.0
  distance_traveled: 13005.0
  fault_code: 0
---
header: 
  seq: 191116
  stamp: 
    secs: 1625854600
    nsecs: 304909384
  frame_id: ''
state: 
  voltage_input: 11.6
  temperature_pcb: 0.0
  current_motor: 8.44
  current_input: 0.43
  current_q: 7.89
  speed: 2180.0
  duty_cycle: 0.044
  charge_drawn: 103.0
  charge_regen: 0.0
  energy_drawn: 0.0
  energy_regen: 0.0
  displacement: 3930.0
  distance_traveled: 13010.0
  fault_code: 0
---
header: 
  seq: 191117
  stamp: 
    secs: 1625854600
    nsecs: 322687734
  frame_id: ''
state: 
  voltage_input: 11.6
  temperature_pcb: 0.0
  current_motor: 12.45
  current_input: 0.7
  current_q: 12.68
  speed: 2201.0
  duty_cycle: 0.064
  charge_drawn: 103.0
  charge_regen: 0.0
  energy_drawn: 0.0
  energy_regen: 0.0
  displacement: 3934.0
  distance_traveled: 13014.0
  fault_code: 0
---
header: 
  seq: 191118
  stamp: 
    secs: 1625854600
    nsecs: 343480933
  frame_id: ''
state: 
  voltage_input: 11.7
  temperature_pcb: 0.0
  current_motor: 8.12
  current_input: 0.42
  current_q: 7.73
  speed: 2233.0
  duty_cycle: 0.043
  charge_drawn: 103.0
  charge_regen: 0.0
  energy_drawn: 0.0
  energy_regen: 0.0
  displacement: 3939.0
  distance_traveled: 13019.0
  fault_code: 0
---
header: 
  seq: 191119
  stamp: 
    secs: 1625854600
    nsecs: 362922392
  frame_id: ''
state: 
  voltage_input: 11.7
  temperature_pcb: 0.0
  current_motor: 13.47
  current_input: 0.76
  current_q: 13.69
  speed: 2242.0
  duty_cycle: 0.065
  charge_drawn: 103.0
  charge_regen: 0.0
  energy_drawn: 0.0
  energy_regen: 0.0
  displacement: 3943.0
  distance_traveled: 13023.0
  fault_code: 0
---
header: 
  seq: 191120
  stamp: 
    secs: 1625854600
    nsecs: 383676110
  frame_id: ''
state: 
  voltage_input: 11.7
  temperature_pcb: 0.0
  current_motor: 8.65
  current_input: 0.47
  current_q: 8.26
  speed: 2251.0
  duty_cycle: 0.045
  charge_drawn: 103.0
  charge_regen: 0.0
  energy_drawn: 0.0
  energy_regen: 0.0
  displacement: 3948.0
  distance_traveled: 13028.0
  fault_code: 0
---
header: 
  seq: 191121
  stamp: 
    secs: 1625854600
    nsecs: 403145279
  frame_id: ''
state: 
  voltage_input: 11.7
  temperature_pcb: 0.0
  current_motor: 13.19
  current_input: 0.75
  current_q: 13.43
  speed: 2271.0
  duty_cycle: 0.058
  charge_drawn: 103.0
  charge_regen: 0.0
  energy_drawn: 0.0
  energy_regen: 0.0
  displacement: 3953.0
  distance_traveled: 13033.0
  fault_code: 0
---
header: 
  seq: 191122
  stamp: 
    secs: 1625854600
    nsecs: 424811598
  frame_id: ''
state: 
  voltage_input: 11.7
  temperature_pcb: 0.0
  current_motor: 9.0
  current_input: 0.52
  current_q: 9.26
  speed: 2264.0
  duty_cycle: 0.069
  charge_drawn: 103.0
  charge_regen: 0.0
  energy_drawn: 0.0
  energy_regen: 0.0
  displacement: 3957.0
  distance_traveled: 13037.0
  fault_code: 0
---
header: 
  seq: 191123
  stamp: 
    secs: 1625854600
    nsecs: 444025337
  frame_id: ''
state: 
  voltage_input: 11.7
  temperature_pcb: 0.0
  current_motor: 9.99
  current_input: 0.51
  current_q: 8.95
  speed: 2316.0
  duty_cycle: 0.021
  charge_drawn: 103.0
  charge_regen: 0.0
  energy_drawn: 0.0
  energy_regen: 0.0
  displacement: 3962.0
  distance_traveled: 13042.0
  fault_code: 0
---
header: 
  seq: 191124
  stamp: 
    secs: 1625854600
    nsecs: 463994325
  frame_id: ''
state: 
  voltage_input: 11.6
  temperature_pcb: 0.0
  current_motor: 9.33
  current_input: 0.54
  current_q: 10.07
  speed: 2288.0
  duty_cycle: 0.07
  charge_drawn: 103.0
  charge_regen: 0.0
  energy_drawn: 0.0
  energy_regen: 0.0
  displacement: 3966.0
  distance_traveled: 13046.0
  fault_code: 0
---
header: 
  seq: 191125
  stamp: 
    secs: 1625854600
    nsecs: 483669548
  frame_id: ''
state: 
  voltage_input: 11.6
  temperature_pcb: 0.0
  current_motor: 9.24
  current_input: 0.45
  current_q: 8.34
  speed: 2338.0
  duty_cycle: 0.024
  charge_drawn: 103.0
  charge_regen: 0.0
  energy_drawn: 0.0
  energy_regen: 0.0
  displacement: 3971.0
  distance_traveled: 13051.0
  fault_code: 0
---
header: 
  seq: 191126
  stamp: 
    secs: 1625854600
    nsecs: 503173823
  frame_id: ''
state: 
  voltage_input: 11.7
  temperature_pcb: 0.0
  current_motor: 9.6
  current_input: 0.55
  current_q: 10.17
  speed: 2318.0
  duty_cycle: 0.061
  charge_drawn: 103.0
  charge_regen: 0.0
  energy_drawn: 0.0
  energy_regen: 0.0
  displacement: 3976.0
  distance_traveled: 13056.0
  fault_code: 0
---
header: 
  seq: 191127
  stamp: 
    secs: 1625854600
    nsecs: 523089944
  frame_id: ''
state: 
  voltage_input: 11.6
  temperature_pcb: 0.0
  current_motor: 6.56
  current_input: 0.32
  current_q: 5.93
  speed: 2347.0
  duty_cycle: 0.041
  charge_drawn: 103.0
  charge_regen: 0.0
  energy_drawn: 0.0
  energy_regen: 0.0
  displacement: 3981.0
  distance_traveled: 13061.0
  fault_code: 0
---
header: 
  seq: 191128
  stamp: 
    secs: 1625854600
    nsecs: 543790481
  frame_id: ''
state: 
  voltage_input: 11.6
  temperature_pcb: 0.0
  current_motor: 8.75
  current_input: 0.46
  current_q: 8.6
  speed: 2399.0
  duty_cycle: 0.033
  charge_drawn: 103.0
  charge_regen: 0.0
  energy_drawn: 0.0
  energy_regen: 0.0
  displacement: 3986.0
  distance_traveled: 13066.0
  fault_code: 0
---
header: 
  seq: 191129
  stamp: 
    secs: 1625854600
    nsecs: 564138709
  frame_id: ''
state: 
  voltage_input: 11.6
  temperature_pcb: 0.0
  current_motor: 5.76
  current_input: 0.35
  current_q: 6.33
  speed: 2378.0
  duty_cycle: 0.065
  charge_drawn: 103.0
  charge_regen: 0.0
  energy_drawn: 0.0
  energy_regen: 0.0
  displacement: 3990.0
  distance_traveled: 13070.0
  fault_code: 0
---
header: 
  seq: 191130
  stamp: 
    secs: 1625854600
    nsecs: 582258483
  frame_id: ''
state: 
  voltage_input: 11.7
  temperature_pcb: 0.0
  current_motor: 7.91
  current_input: 0.37
  current_q: 7.05
  speed: 2424.0
  duty_cycle: 0.028
  charge_drawn: 103.0
  charge_regen: 0.0
  energy_drawn: 0.0
  energy_regen: 0.0
  displacement: 3995.0
  distance_traveled: 13075.0
  fault_code: 0
---
header: 
  seq: 191131
  stamp: 
    secs: 1625854600
    nsecs: 603099757
  frame_id: ''
state: 
  voltage_input: 11.6
  temperature_pcb: 0.0
  current_motor: 8.55
  current_input: 0.49
  current_q: 9.1
  speed: 2386.0
  duty_cycle: 0.069
  charge_drawn: 104.0
  charge_regen: 0.0
  energy_drawn: 0.0
  energy_regen: 0.0
  displacement: 4000.0
  distance_traveled: 13080.0
  fault_code: 0
---
header: 
  seq: 191132
  stamp: 
    secs: 1625854600
    nsecs: 623516530
  frame_id: ''
state: 
  voltage_input: 11.7
  temperature_pcb: 0.0
  current_motor: 8.04
  current_input: 0.43
  current_q: 7.49
  speed: 2396.0
  duty_cycle: 0.038
  charge_drawn: 104.0
  charge_regen: 0.0
  energy_drawn: 0.0
  energy_regen: 0.0
  displacement: 4005.0
  distance_traveled: 13085.0
  fault_code: 0
---
header: 
  seq: 191133
  stamp: 
    secs: 1625854600
    nsecs: 643166542
  frame_id: ''
state: 
  voltage_input: 11.7
  temperature_pcb: 0.0
  current_motor: 12.51
  current_input: 0.74
  current_q: 12.84
  speed: 2397.0
  duty_cycle: 0.049
  charge_drawn: 104.0
  charge_regen: 0.0
  energy_drawn: 0.0
  energy_regen: 0.0
  displacement: 4010.0
  distance_traveled: 13090.0
  fault_code: 0
---
header: 
  seq: 191134
  stamp: 
    secs: 1625854600
    nsecs: 663803743
  frame_id: ''
state: 
  voltage_input: 11.6
  temperature_pcb: 0.0
  current_motor: 7.17
  current_input: 0.42
  current_q: 7.43
  speed: 2361.0
  duty_cycle: 0.067
  charge_drawn: 104.0
  charge_regen: 0.0
  energy_drawn: 0.0
  energy_regen: 0.0
  displacement: 4014.0
  distance_traveled: 13094.0
  fault_code: 0
---
header: 
  seq: 191135
  stamp: 
    secs: 1625854600
    nsecs: 683267548
  frame_id: ''
state: 
  voltage_input: 11.7
  temperature_pcb: 0.0
  current_motor: 11.8
  current_input: 0.62
  current_q: 11.02
  speed: 2396.0
  duty_cycle: 0.029
  charge_drawn: 104.0
  charge_regen: 0.0
  energy_drawn: 0.0
  energy_regen: 0.0
  displacement: 4019.0
  distance_traveled: 13099.0
  fault_code: 0
---
header: 
  seq: 191136
  stamp: 
    secs: 1625854600
    nsecs: 702937405
  frame_id: ''
state: 
  voltage_input: 11.6
  temperature_pcb: 0.0
  current_motor: 9.6
  current_input: 0.58
  current_q: 10.36
  speed: 2350.0
  duty_cycle: 0.064
  charge_drawn: 104.0
  charge_regen: 0.0
  energy_drawn: 0.0
  energy_regen: 0.0
  displacement: 4024.0
  distance_traveled: 13104.0
  fault_code: 0
---
header: 
  seq: 191137
  stamp: 
    secs: 1625854600
    nsecs: 723544084
  frame_id: ''
state: 
  voltage_input: 11.6
  temperature_pcb: 0.0
  current_motor: 9.58
  current_input: 0.5
  current_q: 8.72
  speed: 2393.0
  duty_cycle: 0.022
  charge_drawn: 104.0
  charge_regen: 0.0
  energy_drawn: 0.0
  energy_regen: 0.0
  displacement: 4029.0
  distance_traveled: 13109.0
  fault_code: 0
---
header: 
  seq: 191138
  stamp: 
    secs: 1625854600
    nsecs: 743250870
  frame_id: ''
state: 
  voltage_input: 11.7
  temperature_pcb: 0.0
  current_motor: 9.55
  current_input: 0.57
  current_q: 10.07
  speed: 2377.0
  duty_cycle: 0.064
  charge_drawn: 104.0
  charge_regen: 0.0
  energy_drawn: 0.0
  energy_regen: 0.0
  displacement: 4033.0
  distance_traveled: 13113.0
  fault_code: 0
---
header: 
  seq: 191139
  stamp: 
    secs: 1625854600
    nsecs: 762946041
  frame_id: ''
state: 
  voltage_input: 11.6
  temperature_pcb: 0.0
  current_motor: 6.02
  current_input: 0.31
  current_q: 5.82
  speed: 2381.0
  duty_cycle: 0.061
  charge_drawn: 104.0
  charge_regen: 0.0
  energy_drawn: 0.0
  energy_regen: 0.0
  displacement: 4038.0
  distance_traveled: 13118.0
  fault_code: 0
---
header: 
  seq: 191140
  stamp: 
    secs: 1625854600
    nsecs: 786362194
  frame_id: ''
state: 
  voltage_input: 11.6
  temperature_pcb: 0.0
  current_motor: 8.04
  current_input: 0.41
  current_q: 7.54
  speed: 2428.0
  duty_cycle: 0.024
  charge_drawn: 104.0
  charge_regen: 0.0
  energy_drawn: 0.0
  energy_regen: 0.0
  displacement: 4043.0
  distance_traveled: 13123.0
  fault_code: 0
---
header: 
  seq: 191141
  stamp: 
    secs: 1625854600
    nsecs: 804052882
  frame_id: ''
state: 
  voltage_input: 11.7
  temperature_pcb: 0.0
  current_motor: 7.36
  current_input: 0.42
  current_q: 7.74
  speed: 2413.0
  duty_cycle: 0.06
  charge_drawn: 104.0
  charge_regen: 0.0
  energy_drawn: 0.0
  energy_regen: 0.0
  displacement: 4048.0
  distance_traveled: 13128.0
  fault_code: 0
---
header: 
  seq: 191142
  stamp: 
    secs: 1625854600
    nsecs: 822377147
  frame_id: ''
state: 
  voltage_input: 11.7
  temperature_pcb: 0.0
  current_motor: 4.8
  current_input: 0.28
  current_q: 4.48
  speed: 2417.0
  duty_cycle: 0.052
  charge_drawn: 104.0
  charge_regen: 0.0
  energy_drawn: 0.0
  energy_regen: 0.0
  displacement: 4053.0
  distance_traveled: 13133.0
  fault_code: 0
---
header: 
  seq: 191143
  stamp: 
    secs: 1625854600
    nsecs: 843504947
  frame_id: ''
state: 
  voltage_input: 11.6
  temperature_pcb: 0.0
  current_motor: 7.68
  current_input: 0.39
  current_q: 7.33
  speed: 2462.0
  duty_cycle: 0.026
  charge_drawn: 104.0
  charge_regen: 0.0
  energy_drawn: 0.0
  energy_regen: 0.0
  displacement: 4058.0
  distance_traveled: 13138.0
  fault_code: 0
---
header: 
  seq: 191144
  stamp: 
    secs: 1625854600
    nsecs: 863149959
  frame_id: ''
state: 
  voltage_input: 11.6
  temperature_pcb: 0.0
  current_motor: 7.34
  current_input: 0.42
  current_q: 7.93
  speed: 2430.0
  duty_cycle: 0.06
  charge_drawn: 104.0
  charge_regen: 0.0
  energy_drawn: 0.0
  energy_regen: 0.0
  displacement: 4063.0
  distance_traveled: 13143.0
  fault_code: 0
---
header: 
  seq: 191145
  stamp: 
    secs: 1625854600
    nsecs: 883078268
  frame_id: ''
state: 
  voltage_input: 11.7
  temperature_pcb: 0.0
  current_motor: 6.84
  current_input: 0.33
  current_q: 6.11
  speed: 2442.0
  duty_cycle: 0.034
  charge_drawn: 104.0
  charge_regen: 0.0
  energy_drawn: 0.0
  energy_regen: 0.0
  displacement: 4068.0
  distance_traveled: 13148.0
  fault_code: 0
---
header: 
  seq: 191146
  stamp: 
    secs: 1625854600
    nsecs: 903531969
  frame_id: ''
state: 
  voltage_input: 11.6
  temperature_pcb: 0.0
  current_motor: 10.19
  current_input: 0.56
  current_q: 10.34
  speed: 2452.0
  duty_cycle: 0.047
  charge_drawn: 104.0
  charge_regen: 0.0
  energy_drawn: 0.0
  energy_regen: 0.0
  displacement: 4073.0
  distance_traveled: 13153.0
  fault_code: 0
---
header: 
  seq: 191147
  stamp: 
    secs: 1625854600
    nsecs: 923487155
  frame_id: ''
state: 
  voltage_input: 11.7
  temperature_pcb: 0.0
  current_motor: 7.5
  current_input: 0.44
  current_q: 7.82
  speed: 2411.0
  duty_cycle: 0.07
  charge_drawn: 104.0
  charge_regen: 0.0
  energy_drawn: 0.0
  energy_regen: 0.0
  displacement: 4077.0
  distance_traveled: 13157.0
  fault_code: 0
---
header: 
  seq: 191148
  stamp: 
    secs: 1625854600
    nsecs: 943632767
  frame_id: ''
state: 
  voltage_input: 11.7
  temperature_pcb: 0.0
  current_motor: 9.85
  current_input: 0.49
  current_q: 9.02
  speed: 2440.0
  duty_cycle: 0.027
  charge_drawn: 104.0
  charge_regen: 0.0
  energy_drawn: 0.0
  energy_regen: 0.0
  displacement: 4082.0
  distance_traveled: 13162.0
  fault_code: 0
---
header: 
  seq: 191149
  stamp: 
    secs: 1625854600
    nsecs: 963911876
  frame_id: ''
state: 
  voltage_input: 11.6
  temperature_pcb: 0.0
  current_motor: 10.24
  current_input: 0.61
  current_q: 10.91
  speed: 2389.0
  duty_cycle: 0.062
  charge_drawn: 104.0
  charge_regen: 0.0
  energy_drawn: 0.0
  energy_regen: 0.0
  displacement: 4087.0
  distance_traveled: 13167.0
  fault_code: 0
---
header: 
  seq: 191150
  stamp: 
    secs: 1625854600
    nsecs: 983970191
  frame_id: ''
state: 
  voltage_input: 11.7
  temperature_pcb: 0.0
  current_motor: 7.41
  current_input: 0.4
  current_q: 7.16
  speed: 2390.0
  duty_cycle: 0.062
  charge_drawn: 104.0
  charge_regen: 0.0
  energy_drawn: 0.0
  energy_regen: 0.0
  displacement: 4092.0
  distance_traveled: 13172.0
  fault_code: 0
---
header: 
  seq: 191151
  stamp: 
    secs: 1625854601
    nsecs:   3098666
  frame_id: ''
state: 
  voltage_input: 11.6
  temperature_pcb: 0.0
  current_motor: 11.01
  current_input: 0.58
  current_q: 10.43
  speed: 2426.0
  duty_cycle: 0.041
  charge_drawn: 104.0
  charge_regen: 0.0
  energy_drawn: 0.0
  energy_regen: 0.0
  displacement: 4097.0
  distance_traveled: 13177.0
  fault_code: 0
---
header: 
  seq: 191152
  stamp: 
    secs: 1625854601
    nsecs:  22794618
  frame_id: ''
state: 
  voltage_input: 11.6
  temperature_pcb: 0.0
  current_motor: 7.62
  current_input: 0.43
  current_q: 8.01
  speed: 2385.0
  duty_cycle: 0.066
  charge_drawn: 104.0
  charge_regen: 0.0
  energy_drawn: 0.0
  energy_regen: 0.0
  displacement: 4101.0
  distance_traveled: 13181.0
  fault_code: 0
---
header: 
  seq: 191153
  stamp: 
    secs: 1625854601
    nsecs:  43536408
  frame_id: ''
state: 
  voltage_input: 11.7
  temperature_pcb: 0.0
  current_motor: 9.5
  current_input: 0.49
  current_q: 8.73
  speed: 2424.0
  duty_cycle: 0.023
  charge_drawn: 104.0
  charge_regen: 0.0
  energy_drawn: 0.0
  energy_regen: 0.0
  displacement: 4106.0
  distance_traveled: 13186.0
  fault_code: 0
---
header: 
  seq: 191154
  stamp: 
    secs: 1625854601
    nsecs:  63288249
  frame_id: ''
state: 
  voltage_input: 11.6
  temperature_pcb: 0.0
  current_motor: 9.34
  current_input: 0.54
  current_q: 9.93
  speed: 2390.0
  duty_cycle: 0.062
  charge_drawn: 104.0
  charge_regen: 0.0
  energy_drawn: 0.0
  energy_regen: 0.0
  displacement: 4111.0
  distance_traveled: 13191.0
  fault_code: 0
---
header: 
  seq: 191155
  stamp: 
    secs: 1625854601
    nsecs:  83708928
  frame_id: ''
state: 
  voltage_input: 11.7
  temperature_pcb: 0.0
  current_motor: 5.96
  current_input: 0.29
  current_q: 5.32
  speed: 2408.0
  duty_cycle: 0.044
  charge_drawn: 104.0
  charge_regen: 0.0
  energy_drawn: 0.0
  energy_regen: 0.0
  displacement: 4116.0
  distance_traveled: 13196.0
  fault_code: 0
---
header: 
  seq: 191156
  stamp: 
    secs: 1625854601
    nsecs: 103878604
  frame_id: ''
state: 
  voltage_input: 11.6
  temperature_pcb: 0.0
  current_motor: 8.92
  current_input: 0.48
  current_q: 8.82
  speed: 2444.0
  duty_cycle: 0.035
  charge_drawn: 104.0
  charge_regen: 0.0
  energy_drawn: 0.0
  energy_regen: 0.0
  displacement: 4121.0
  distance_traveled: 13201.0
  fault_code: 0
---
header: 
  seq: 191157
  stamp: 
    secs: 1625854601
    nsecs: 123708886
  frame_id: ''
state: 
  voltage_input: 11.6
  temperature_pcb: 0.0
  current_motor: 7.36
  current_input: 0.45
  current_q: 7.93
  speed: 2407.0
  duty_cycle: 0.065
  charge_drawn: 104.0
  charge_regen: 0.0
  energy_drawn: 0.0
  energy_regen: 0.0
  displacement: 4126.0
  distance_traveled: 13206.0
  fault_code: 0
---
header: 
  seq: 191158
  stamp: 
    secs: 1625854601
    nsecs: 143600266
  frame_id: ''
state: 
  voltage_input: 11.7
  temperature_pcb: 0.0
  current_motor: 8.76
  current_input: 0.44
  current_q: 7.85
  speed: 2437.0
  duty_cycle: 0.025
  charge_drawn: 104.0
  charge_regen: 0.0
  energy_drawn: 0.0
  energy_regen: 0.0
  displacement: 4131.0
  distance_traveled: 13211.0
  fault_code: 0
---
header: 
  seq: 191159
  stamp: 
    secs: 1625854601
    nsecs: 163682646
  frame_id: ''
state: 
  voltage_input: 11.6
  temperature_pcb: 0.0
  current_motor: 10.6
  current_input: 0.61
  current_q: 11.02
  speed: 2400.0
  duty_cycle: 0.066
  charge_drawn: 104.0
  charge_regen: 0.0
  energy_drawn: 0.0
  energy_regen: 0.0
  displacement: 4135.0
  distance_traveled: 13215.0
  fault_code: 0
---
header: 
  seq: 191160
  stamp: 
    secs: 1625854601
    nsecs: 184286355
  frame_id: ''
state: 
  voltage_input: 11.6
  temperature_pcb: 0.0
  current_motor: 7.33
  current_input: 0.39
  current_q: 7.32
  speed: 2391.0
  duty_cycle: 0.064
  charge_drawn: 104.0
  charge_regen: 0.0
  energy_drawn: 0.0
  energy_regen: 0.0
  displacement: 4140.0
  distance_traveled: 13220.0
  fault_code: 0
---
header: 
  seq: 191161
  stamp: 
    secs: 1625854601
    nsecs: 202919386
  frame_id: ''
state: 
  voltage_input: 11.6
  temperature_pcb: 0.0
  current_motor: 12.41
  current_input: 0.69
  current_q: 12.22
  speed: 2406.0
  duty_cycle: 0.053
  charge_drawn: 104.0
  charge_regen: 0.0
  energy_drawn: 0.0
  energy_regen: 0.0
  displacement: 4145.0
  distance_traveled: 13225.0
  fault_code: 0
---
header: 
  seq: 191162
  stamp: 
    secs: 1625854601
    nsecs: 222964576
  frame_id: ''
state: 
  voltage_input: 11.7
  temperature_pcb: 0.0
  current_motor: 7.5
  current_input: 0.42
  current_q: 7.62
  speed: 2383.0
  duty_cycle: 0.061
  charge_drawn: 104.0
  charge_regen: 0.0
  energy_drawn: 0.0
  energy_regen: 0.0
  displacement: 4149.0
  distance_traveled: 13229.0
  fault_code: 0
---
header: 
  seq: 191163
  stamp: 
    secs: 1625854601
    nsecs: 244295252
  frame_id: ''
state: 
  voltage_input: 11.6
  temperature_pcb: 0.0
  current_motor: 11.9
  current_input: 0.66
  current_q: 11.26
  speed: 2421.0
  duty_cycle: 0.024
  charge_drawn: 104.0
  charge_regen: 0.0
  energy_drawn: 0.0
  energy_regen: 0.0
  displacement: 4154.0
  distance_traveled: 13234.0
  fault_code: 0
---
header: 
  seq: 191164
  stamp: 
    secs: 1625854601
    nsecs: 262804318
  frame_id: ''
state: 
  voltage_input: 11.6
  temperature_pcb: 0.0
  current_motor: 8.89
  current_input: 0.54
  current_q: 9.63
  speed: 2371.0
  duty_cycle: 0.066
  charge_drawn: 104.0
  charge_regen: 0.0
  energy_drawn: 0.0
  energy_regen: 0.0
  displacement: 4159.0
  distance_traveled: 13239.0
  fault_code: 0
---
header: 
  seq: 191165
  stamp: 
    secs: 1625854601
    nsecs: 283138273
  frame_id: ''
state: 
  voltage_input: 11.6
  temperature_pcb: 0.0
  current_motor: 7.19
  current_input: 0.37
  current_q: 6.43
  speed: 2412.0
  duty_cycle: 0.028
  charge_drawn: 104.0
  charge_regen: 0.0
  energy_drawn: 0.0
  energy_regen: 0.0
  displacement: 4164.0
  distance_traveled: 13244.0
  fault_code: 0
---
header: 
  seq: 191166
  stamp: 
    secs: 1625854601
    nsecs: 303028038
  frame_id: ''
state: 
  voltage_input: 11.7
  temperature_pcb: 0.0
  current_motor: 9.11
  current_input: 0.51
  current_q: 9.45
  speed: 2427.0
  duty_cycle: 0.046
  charge_drawn: 104.0
  charge_regen: 0.0
  energy_drawn: 0.0
  energy_regen: 0.0
  displacement: 4169.0
  distance_traveled: 13249.0
  fault_code: 0
---
header: 
  seq: 191167
  stamp: 
    secs: 1625854601
    nsecs: 322929627
  frame_id: ''
state: 
  voltage_input: 11.7
  temperature_pcb: 0.0
  current_motor: 6.61
  current_input: 0.43
  current_q: 7.07
  speed: 2404.0
  duty_cycle: 0.065
  charge_drawn: 104.0
  charge_regen: 0.0
  energy_drawn: 0.0
  energy_regen: 0.0
  displacement: 4174.0
  distance_traveled: 13254.0
  fault_code: 0
---
header: 
  seq: 191168
  stamp: 
    secs: 1625854601
    nsecs: 343041487
  frame_id: ''
state: 
  voltage_input: 11.6
  temperature_pcb: 0.0
  current_motor: 6.35
  current_input: 0.33
  current_q: 5.41
  speed: 2435.0
  duty_cycle: 0.03
  charge_drawn: 105.0
  charge_regen: 0.0
  energy_drawn: 0.0
  energy_regen: 0.0
  displacement: 4179.0
  distance_traveled: 13259.0
  fault_code: 0
---
header: 
  seq: 191169
  stamp: 
    secs: 1625854601
    nsecs: 363071781
  frame_id: ''
state: 
  voltage_input: 11.6
  temperature_pcb: 0.0
  current_motor: 8.26
  current_input: 0.44
  current_q: 8.37
  speed: 2457.0
  duty_cycle: 0.045
  charge_drawn: 105.0
  charge_regen: 0.0
  energy_drawn: 0.0
  energy_regen: 0.0
  displacement: 4184.0
  distance_traveled: 13264.0
  fault_code: 0
---
header: 
  seq: 191170
  stamp: 
