header: 
  seq: 62202
  stamp: 
    secs: 1626107498
    nsecs: 815885524
  frame_id: ''
state: 
  voltage_input: 11.5
  temperature_pcb: 0.0
  current_motor: 0.0
  current_input: 0.0
  current_q: 0.0
  speed: -1.0
  duty_cycle: 0.0
  charge_drawn: 75.0
  charge_regen: 0.0
  energy_drawn: 0.0
  energy_regen: 0.0
  displacement: 1467.0
  distance_traveled: 9483.0
  fault_code: 0
---
header: 
  seq: 62203
  stamp: 
    secs: 1626107498
    nsecs: 835970398
  frame_id: ''
state: 
  voltage_input: 11.5
  temperature_pcb: 0.0
  current_motor: 0.0
  current_input: 0.0
  current_q: 0.0
  speed: -1.0
  duty_cycle: 0.0
  charge_drawn: 75.0
  charge_regen: 0.0
  energy_drawn: 0.0
  energy_regen: 0.0
  displacement: 1467.0
  distance_traveled: 9483.0
  fault_code: 0
---
header: 
  seq: 62204
  stamp: 
    secs: 1626107498
    nsecs: 855866974
  frame_id: ''
state: 
  voltage_input: 11.6
  temperature_pcb: 0.0
  current_motor: 0.0
  current_input: 0.0
  current_q: 0.0
  speed: -1.0
  duty_cycle: 0.0
  charge_drawn: 75.0
  charge_regen: 0.0
  energy_drawn: 0.0
  energy_regen: 0.0
  displacement: 1467.0
  distance_traveled: 9483.0
  fault_code: 0
---
header: 
  seq: 62205
  stamp: 
    secs: 1626107498
    nsecs: 876026990
  frame_id: ''
state: 
  voltage_input: 11.5
  temperature_pcb: 0.0
  current_motor: 0.0
  current_input: 0.0
  current_q: 0.0
  speed: 0.0
  duty_cycle: 0.0
  charge_drawn: 75.0
  charge_regen: 0.0
  energy_drawn: 0.0
  energy_regen: 0.0
  displacement: 1467.0
  distance_traveled: 9483.0
  fault_code: 0
---
header: 
  seq: 62206
  stamp: 
    secs: 1626107498
    nsecs: 895832125
  frame_id: ''
state: 
  voltage_input: 11.6
  temperature_pcb: 0.0
  current_motor: 0.0
  current_input: 0.0
  current_q: 0.0
  speed: 0.0
  duty_cycle: 0.0
  charge_drawn: 75.0
  charge_regen: 0.0
  energy_drawn: 0.0
  energy_regen: 0.0
  displacement: 1467.0
  distance_traveled: 9483.0
  fault_code: 0
---
header: 
  seq: 62207
  stamp: 
    secs: 1626107498
    nsecs: 916146696
  frame_id: ''
state: 
  voltage_input: 11.5
  temperature_pcb: 0.0
  current_motor: 0.0
  current_input: 0.0
  current_q: 0.0
  speed: 1.0
  duty_cycle: 0.0
  charge_drawn: 75.0
  charge_regen: 0.0
  energy_drawn: 0.0
  energy_regen: 0.0
  displacement: 1467.0
  distance_traveled: 9483.0
  fault_code: 0
---
header: 
  seq: 62208
  stamp: 
    secs: 1626107498
    nsecs: 936245057
  frame_id: ''
state: 
  voltage_input: 11.5
  temperature_pcb: 0.0
  current_motor: 0.0
  current_input: 0.0
  current_q: 0.0
  speed: 0.0
  duty_cycle: 0.0
  charge_drawn: 75.0
  charge_regen: 0.0
  energy_drawn: 0.0
  energy_regen: 0.0
  displacement: 1467.0
  distance_traveled: 9483.0
  fault_code: 0
---
header: 
  seq: 62209
  stamp: 
    secs: 1626107498
    nsecs: 956118772
  frame_id: ''
state: 
  voltage_input: 11.5
  temperature_pcb: 0.0
  current_motor: 0.0
  current_input: 0.0
  current_q: 0.0
  speed: 0.0
  duty_cycle: 0.0
  charge_drawn: 75.0
  charge_regen: 0.0
  energy_drawn: 0.0
  energy_regen: 0.0
  displacement: 1467.0
  distance_traveled: 9483.0
  fault_code: 0
---
header: 
  seq: 62210
  stamp: 
    secs: 1626107498
    nsecs: 976183910
  frame_id: ''
state: 
  voltage_input: 11.5
  temperature_pcb: 0.0
  current_motor: 0.0
  current_input: 0.0
  current_q: 0.0
  speed: 0.0
  duty_cycle: 0.0
  charge_drawn: 75.0
  charge_regen: 0.0
  energy_drawn: 0.0
  energy_regen: 0.0
  displacement: 1467.0
  distance_traveled: 9483.0
  fault_code: 0
---
header: 
  seq: 62211
  stamp: 
    secs: 1626107498
    nsecs: 996271232
  frame_id: ''
state: 
  voltage_input: 11.5
  temperature_pcb: 0.0
  current_motor: 0.0
  current_input: 0.0
  current_q: 0.0
  speed: 0.0
  duty_cycle: 0.0
  charge_drawn: 75.0
  charge_regen: 0.0
  energy_drawn: 0.0
  energy_regen: 0.0
  displacement: 1467.0
  distance_traveled: 9483.0
  fault_code: 0
---
header: 
  seq: 62212
  stamp: 
    secs: 1626107499
    nsecs:  16499460
  frame_id: ''
state: 
  voltage_input: 11.5
  temperature_pcb: 0.0
  current_motor: 0.0
  current_input: 0.0
  current_q: 0.0
  speed: 0.0
  duty_cycle: 0.0
  charge_drawn: 75.0
  charge_regen: 0.0
  energy_drawn: 0.0
  energy_regen: 0.0
  displacement: 1467.0
  distance_traveled: 9483.0
  fault_code: 0
---
header: 
  seq: 62213
  stamp: 
    secs: 1626107499
    nsecs:  36325274
  frame_id: ''
state: 
  voltage_input: 11.4
  temperature_pcb: 0.0
  current_motor: 0.0
  current_input: 0.0
  current_q: 0.0
  speed: -1.0
  duty_cycle: 0.0
  charge_drawn: 75.0
  charge_regen: 0.0
  energy_drawn: 0.0
  energy_regen: 0.0
  displacement: 1467.0
  distance_traveled: 9483.0
  fault_code: 0
---
header: 
  seq: 62214
  stamp: 
    secs: 1626107499
    nsecs:  55948001
  frame_id: ''
state: 
  voltage_input: 11.5
  temperature_pcb: 0.0
  current_motor: 0.0
  current_input: 0.0
  current_q: 0.0
  speed: -1.0
  duty_cycle: 0.0
  charge_drawn: 75.0
  charge_regen: 0.0
  energy_drawn: 0.0
  energy_regen: 0.0
  displacement: 1467.0
  distance_traveled: 9483.0
  fault_code: 0
---
header: 
  seq: 62215
  stamp: 
    secs: 1626107499
    nsecs:  75991536
  frame_id: ''
state: 
  voltage_input: 11.5
  temperature_pcb: 0.0
  current_motor: 0.0
  current_input: 0.0
  current_q: 0.0
  speed: -2.0
  duty_cycle: 0.0
  charge_drawn: 75.0
  charge_regen: 0.0
  energy_drawn: 0.0
  energy_regen: 0.0
  displacement: 1467.0
  distance_traveled: 9483.0
  fault_code: 0
---
header: 
  seq: 62216
  stamp: 
    secs: 1626107499
    nsecs:  96008097
  frame_id: ''
state: 
  voltage_input: 11.5
  temperature_pcb: 0.0
  current_motor: 0.0
  current_input: 0.0
  current_q: 0.0
  speed: -1.0
  duty_cycle: 0.0
  charge_drawn: 75.0
  charge_regen: 0.0
  energy_drawn: 0.0
  energy_regen: 0.0
  displacement: 1467.0
  distance_traveled: 9483.0
  fault_code: 0
---
header: 
  seq: 62217
  stamp: 
    secs: 1626107499
    nsecs: 116011795
  frame_id: ''
state: 
  voltage_input: 11.4
  temperature_pcb: 0.0
  current_motor: 0.0
  current_input: 0.0
  current_q: 0.0
  speed: -1.0
  duty_cycle: 0.0
  charge_drawn: 75.0
  charge_regen: 0.0
  energy_drawn: 0.0
  energy_regen: 0.0
  displacement: 1467.0
  distance_traveled: 9483.0
  fault_code: 0
---
header: 
  seq: 62218
  stamp: 
    secs: 1626107499
    nsecs: 136953862
  frame_id: ''
state: 
  voltage_input: 11.5
  temperature_pcb: 0.0
  current_motor: 0.0
  current_input: 0.0
  current_q: 0.0
  speed: 0.0
  duty_cycle: 0.0
  charge_drawn: 75.0
  charge_regen: 0.0
  energy_drawn: 0.0
  energy_regen: 0.0
  displacement: 1467.0
  distance_traveled: 9483.0
  fault_code: 0
---
header: 
  seq: 62219
  stamp: 
    secs: 1626107499
    nsecs: 156359806
  frame_id: ''
state: 
  voltage_input: 11.5
  temperature_pcb: 0.0
  current_motor: 0.0
  current_input: 0.0
  current_q: 0.0
  speed: 0.0
  duty_cycle: 0.0
  charge_drawn: 75.0
  charge_regen: 0.0
  energy_drawn: 0.0
  energy_regen: 0.0
  displacement: 1467.0
  distance_traveled: 9483.0
  fault_code: 0
---
header: 
  seq: 62220
  stamp: 
    secs: 1626107499
    nsecs: 176283832
  frame_id: ''
state: 
  voltage_input: 11.4
  temperature_pcb: 0.0
  current_motor: 0.0
  current_input: 0.0
  current_q: 0.0
  speed: 0.0
  duty_cycle: 0.0
  charge_drawn: 75.0
  charge_regen: 0.0
  energy_drawn: 0.0
  energy_regen: 0.0
  displacement: 1467.0
  distance_traveled: 9483.0
  fault_code: 0
---
header: 
  seq: 62221
  stamp: 
    secs: 1626107499
    nsecs: 195818919
  frame_id: ''
state: 
  voltage_input: 11.5
  temperature_pcb: 0.0
  current_motor: 0.0
  current_input: 0.0
  current_q: 0.0
  speed: 2.0
  duty_cycle: 0.0
  charge_drawn: 75.0
  charge_regen: 0.0
  energy_drawn: 0.0
  energy_regen: 0.0
  displacement: 1467.0
  distance_traveled: 9483.0
  fault_code: 0
---
header: 
  seq: 62222
  stamp: 
    secs: 1626107499
    nsecs: 217040882
  frame_id: ''
state: 
  voltage_input: 11.6
  temperature_pcb: 0.0
  current_motor: 0.0
  current_input: 0.0
  current_q: 0.0
  speed: 1.0
  duty_cycle: 0.0
  charge_drawn: 75.0
  charge_regen: 0.0
  energy_drawn: 0.0
  energy_regen: 0.0
  displacement: 1467.0
  distance_traveled: 9483.0
  fault_code: 0
---
header: 
  seq: 62223
  stamp: 
    secs: 1626107499
    nsecs: 236052680
  frame_id: ''
state: 
  voltage_input: 11.5
  temperature_pcb: 0.0
  current_motor: 0.0
  current_input: 0.0
  current_q: 0.0
  speed: 1.0
  duty_cycle: 0.0
  charge_drawn: 75.0
  charge_regen: 0.0
  energy_drawn: 0.0
  energy_regen: 0.0
  displacement: 1467.0
  distance_traveled: 9483.0
  fault_code: 0
---
header: 
  seq: 62224
  stamp: 
    secs: 1626107499
    nsecs: 256234731
  frame_id: ''
state: 
  voltage_input: 11.5
  temperature_pcb: 0.0
  current_motor: 0.0
  current_input: 0.0
  current_q: 0.0
  speed: 0.0
  duty_cycle: 0.0
  charge_drawn: 75.0
  charge_regen: 0.0
  energy_drawn: 0.0
  energy_regen: 0.0
  displacement: 1467.0
  distance_traveled: 9483.0
  fault_code: 0
---
header: 
  seq: 62225
  stamp: 
    secs: 1626107499
    nsecs: 275986237
  frame_id: ''
state: 
  voltage_input: 11.5
  temperature_pcb: 0.0
  current_motor: 0.0
  current_input: 0.0
  current_q: 0.0
  speed: -1.0
  duty_cycle: 0.0
  charge_drawn: 75.0
  charge_regen: 0.0
  energy_drawn: 0.0
  energy_regen: 0.0
  displacement: 1467.0
  distance_traveled: 9483.0
  fault_code: 0
---
header: 
  seq: 62226
  stamp: 
    secs: 1626107499
    nsecs: 296619559
  frame_id: ''
state: 
  voltage_input: 11.5
  temperature_pcb: 0.0
  current_motor: 0.0
  current_input: 0.0
  current_q: 0.0
  speed: 0.0
  duty_cycle: 0.0
  charge_drawn: 75.0
  charge_regen: 0.0
  energy_drawn: 0.0
  energy_regen: 0.0
  displacement: 1467.0
  distance_traveled: 9483.0
  fault_code: 0
---
header: 
  seq: 62227
  stamp: 
    secs: 1626107499
    nsecs: 315988531
  frame_id: ''
state: 
  voltage_input: 11.5
  temperature_pcb: 0.0
  current_motor: 0.0
  current_input: 0.0
  current_q: 0.0
  speed: 0.0
  duty_cycle: 0.0
  charge_drawn: 75.0
  charge_regen: 0.0
  energy_drawn: 0.0
  energy_regen: 0.0
  displacement: 1467.0
  distance_traveled: 9483.0
  fault_code: 0
---
header: 
  seq: 62228
  stamp: 
    secs: 1626107499
    nsecs: 335907817
  frame_id: ''
state: 
  voltage_input: 11.5
  temperature_pcb: 0.0
  current_motor: 0.0
  current_input: 0.0
  current_q: 0.0
  speed: 0.0
  duty_cycle: 0.0
  charge_drawn: 75.0
  charge_regen: 0.0
  energy_drawn: 0.0
  energy_regen: 0.0
  displacement: 1467.0
  distance_traveled: 9483.0
  fault_code: 0
---
header: 
  seq: 62229
  stamp: 
    secs: 1626107499
    nsecs: 356199692
  frame_id: ''
state: 
  voltage_input: 11.4
  temperature_pcb: 0.0
  current_motor: 0.0
  current_input: 0.0
  current_q: 0.0
  speed: 1.0
  duty_cycle: 0.0
  charge_drawn: 75.0
  charge_regen: 0.0
  energy_drawn: 0.0
  energy_regen: 0.0
  displacement: 1467.0
  distance_traveled: 9483.0
  fault_code: 0
---
header: 
  seq: 62230
  stamp: 
    secs: 1626107499
    nsecs: 375873087
  frame_id: ''
state: 
  voltage_input: 11.5
  temperature_pcb: 0.0
  current_motor: 0.0
  current_input: 0.0
  current_q: 0.0
  speed: 2.0
  duty_cycle: 0.0
  charge_drawn: 75.0
  charge_regen: 0.0
  energy_drawn: 0.0
  energy_regen: 0.0
  displacement: 1467.0
  distance_traveled: 9483.0
  fault_code: 0
---
header: 
  seq: 62231
  stamp: 
    secs: 1626107499
    nsecs: 396136373
  frame_id: ''
state: 
  voltage_input: 11.6
  temperature_pcb: 0.0
  current_motor: 0.0
  current_input: 0.0
  current_q: 0.0
  speed: 2.0
  duty_cycle: 0.0
  charge_drawn: 75.0
  charge_regen: 0.0
  energy_drawn: 0.0
  energy_regen: 0.0
  displacement: 1467.0
  distance_traveled: 9483.0
  fault_code: 0
---
header: 
  seq: 62232
  stamp: 
    secs: 1626107499
    nsecs: 416442515
  frame_id: ''
state: 
  voltage_input: 11.5
  temperature_pcb: 0.0
  current_motor: 0.0
  current_input: 0.0
  current_q: 0.0
  speed: 1.0
  duty_cycle: 0.0
  charge_drawn: 75.0
  charge_regen: 0.0
  energy_drawn: 0.0
  energy_regen: 0.0
  displacement: 1467.0
  distance_traveled: 9483.0
  fault_code: 0
---
header: 
  seq: 62233
  stamp: 
    secs: 1626107499
    nsecs: 436672630
  frame_id: ''
state: 
  voltage_input: 11.5
  temperature_pcb: 0.0
  current_motor: 0.0
  current_input: 0.0
  current_q: 0.0
  speed: 1.0
  duty_cycle: 0.0
  charge_drawn: 75.0
  charge_regen: 0.0
  energy_drawn: 0.0
  energy_regen: 0.0
  displacement: 1467.0
  distance_traveled: 9483.0
  fault_code: 0
---
header: 
  seq: 62234
  stamp: 
    secs: 1626107499
    nsecs: 457129370
  frame_id: ''
state: 
  voltage_input: 11.5
  temperature_pcb: 0.0
  current_motor: 0.0
  current_input: 0.0
  current_q: 0.0
  speed: 1.0
  duty_cycle: 0.0
  charge_drawn: 75.0
  charge_regen: 0.0
  energy_drawn: 0.0
  energy_regen: 0.0
  displacement: 1467.0
  distance_traveled: 9483.0
  fault_code: 0
---
header: 
  seq: 62235
  stamp: 
    secs: 1626107499
    nsecs: 476781467
  frame_id: ''
state: 
  voltage_input: 11.5
  temperature_pcb: 0.0
  current_motor: 0.0
  current_input: 0.0
  current_q: 0.0
  speed: 1.0
  duty_cycle: 0.0
  charge_drawn: 75.0
  charge_regen: 0.0
  energy_drawn: 0.0
  energy_regen: 0.0
  displacement: 1467.0
  distance_traveled: 9483.0
  fault_code: 0
---
header: 
  seq: 62236
  stamp: 
    secs: 1626107499
    nsecs: 496230216
  frame_id: ''
state: 
  voltage_input: 11.5
  temperature_pcb: 0.0
  current_motor: 0.0
  current_input: 0.0
  current_q: 0.0
  speed: 0.0
  duty_cycle: 0.0
  charge_drawn: 75.0
  charge_regen: 0.0
  energy_drawn: 0.0
  energy_regen: 0.0
  displacement: 1467.0
  distance_traveled: 9483.0
  fault_code: 0
---
header: 
  seq: 62237
  stamp: 
    secs: 1626107499
    nsecs: 516054624
  frame_id: ''
state: 
  voltage_input: 11.5
  temperature_pcb: 0.0
  current_motor: 0.0
  current_input: 0.0
  current_q: 0.0
  speed: 0.0
  duty_cycle: 0.0
  charge_drawn: 75.0
  charge_regen: 0.0
  energy_drawn: 0.0
  energy_regen: 0.0
  displacement: 1467.0
  distance_traveled: 9483.0
  fault_code: 0
---
header: 
  seq: 62238
  stamp: 
    secs: 1626107499
    nsecs: 536016143
  frame_id: ''
state: 
  voltage_input: 11.4
  temperature_pcb: 0.0
  current_motor: 0.0
  current_input: 0.0
  current_q: 0.0
  speed: 0.0
  duty_cycle: 0.0
  charge_drawn: 75.0
  charge_regen: 0.0
  energy_drawn: 0.0
  energy_regen: 0.0
  displacement: 1467.0
  distance_traveled: 9483.0
  fault_code: 0
---
header: 
  seq: 62239
  stamp: 
    secs: 1626107499
    nsecs: 555929025
  frame_id: ''
state: 
  voltage_input: 11.5
  temperature_pcb: 0.0
  current_motor: 0.0
  current_input: 0.0
  current_q: 0.0
  speed: 1.0
  duty_cycle: 0.0
  charge_drawn: 75.0
  charge_regen: 0.0
  energy_drawn: 0.0
  energy_regen: 0.0
  displacement: 1467.0
  distance_traveled: 9483.0
  fault_code: 0
---
header: 
  seq: 62240
  stamp: 
    secs: 1626107499
    nsecs: 575932880
  frame_id: ''
state: 
  voltage_input: 11.6
  temperature_pcb: 0.0
  current_motor: 0.0
  current_input: 0.0
  current_q: 0.0
  speed: 0.0
  duty_cycle: 0.0
  charge_drawn: 75.0
  charge_regen: 0.0
  energy_drawn: 0.0
  energy_regen: 0.0
  displacement: 1467.0
  distance_traveled: 9483.0
  fault_code: 0
---
header: 
  seq: 62241
  stamp: 
    secs: 1626107499
    nsecs: 595879453
  frame_id: ''
state: 
  voltage_input: 11.6
  temperature_pcb: 0.0
  current_motor: 0.0
  current_input: 0.0
  current_q: 0.0
  speed: 1.0
  duty_cycle: 0.0
  charge_drawn: 75.0
  charge_regen: 0.0
  energy_drawn: 0.0
  energy_regen: 0.0
  displacement: 1467.0
  distance_traveled: 9483.0
  fault_code: 0
---
header: 
  seq: 62242
  stamp: 
    secs: 1626107499
    nsecs: 616117327
  frame_id: ''
state: 
  voltage_input: 11.5
  temperature_pcb: 0.0
  current_motor: 0.0
  current_input: 0.0
  current_q: 0.0
  speed: 2.0
  duty_cycle: 0.001
  charge_drawn: 75.0
  charge_regen: 0.0
  energy_drawn: 0.0
  energy_regen: 0.0
  displacement: 1467.0
  distance_traveled: 9483.0
  fault_code: 0
---
header: 
  seq: 62243
  stamp: 
    secs: 1626107499
    nsecs: 636168100
  frame_id: ''
state: 
  voltage_input: 11.5
  temperature_pcb: 0.0
  current_motor: 0.0
  current_input: 0.0
  current_q: 0.0
  speed: 0.0
  duty_cycle: 0.0
  charge_drawn: 75.0
  charge_regen: 0.0
  energy_drawn: 0.0
  energy_regen: 0.0
  displacement: 1467.0
  distance_traveled: 9483.0
  fault_code: 0
---
header: 
  seq: 62244
  stamp: 
    secs: 1626107499
    nsecs: 657345488
  frame_id: ''
state: 
  voltage_input: 11.5
  temperature_pcb: 0.0
  current_motor: 0.0
  current_input: 0.0
  current_q: 0.0
  speed: 0.0
  duty_cycle: 0.0
  charge_drawn: 75.0
  charge_regen: 0.0
  energy_drawn: 0.0
  energy_regen: 0.0
  displacement: 1467.0
  distance_traveled: 9483.0
  fault_code: 0
---
header: 
  seq: 62245
  stamp: 
    secs: 1626107499
    nsecs: 676463308
  frame_id: ''
state: 
  voltage_input: 11.5
  temperature_pcb: 0.0
  current_motor: 0.0
  current_input: 0.0
  current_q: 0.0
  speed: 1.0
  duty_cycle: 0.0
  charge_drawn: 75.0
  charge_regen: 0.0
  energy_drawn: 0.0
  energy_regen: 0.0
  displacement: 1467.0
  distance_traveled: 9483.0
  fault_code: 0
---
header: 
  seq: 62246
  stamp: 
    secs: 1626107499
    nsecs: 697375224
  frame_id: ''
state: 
  voltage_input: 11.5
  temperature_pcb: 0.0
  current_motor: 0.0
  current_input: 0.0
  current_q: 0.0
  speed: 1.0
  duty_cycle: 0.0
  charge_drawn: 75.0
  charge_regen: 0.0
  energy_drawn: 0.0
  energy_regen: 0.0
  displacement: 1467.0
  distance_traveled: 9483.0
  fault_code: 0
---
header: 
  seq: 62247
  stamp: 
    secs: 1626107499
    nsecs: 717532332
  frame_id: ''
state: 
  voltage_input: 11.5
  temperature_pcb: 0.0
  current_motor: 0.0
  current_input: 0.0
  current_q: 0.0
  speed: 1.0
  duty_cycle: 0.0
  charge_drawn: 75.0
  charge_regen: 0.0
  energy_drawn: 0.0
  energy_regen: 0.0
  displacement: 1467.0
  distance_traveled: 9483.0
  fault_code: 0
---
header: 
  seq: 62248
  stamp: 
    secs: 1626107499
    nsecs: 736348177
  frame_id: ''
state: 
  voltage_input: 11.6
  temperature_pcb: 0.0
  current_motor: 0.0
  current_input: 0.0
  current_q: 0.0
  speed: 0.0
  duty_cycle: 0.0
  charge_drawn: 75.0
  charge_regen: 0.0
  energy_drawn: 0.0
  energy_regen: 0.0
  displacement: 1467.0
  distance_traveled: 9483.0
  fault_code: 0
---
header: 
  seq: 62249
  stamp: 
    secs: 1626107499
    nsecs: 756443213
  frame_id: ''
state: 
  voltage_input: 11.5
  temperature_pcb: 0.0
  current_motor: 0.0
  current_input: 0.0
  current_q: 0.0
  speed: 1.0
  duty_cycle: 0.0
  charge_drawn: 75.0
  charge_regen: 0.0
  energy_drawn: 0.0
  energy_regen: 0.0
  displacement: 1467.0
  distance_traveled: 9483.0
  fault_code: 0
---
header: 
  seq: 62250
  stamp: 
    secs: 1626107499
    nsecs: 777370126
  frame_id: ''
state: 
  voltage_input: 11.4
  temperature_pcb: 0.0
  current_motor: 33.08
  current_input: 2.38
  current_q: 34.71
  speed: 100.0
  duty_cycle: 0.112
  charge_drawn: 75.0
  charge_regen: 0.0
  energy_drawn: 0.0
  energy_regen: 0.0
  displacement: 1468.0
  distance_traveled: 9484.0
  fault_code: 0
---
header: 
  seq: 62251
  stamp: 
    secs: 1626107499
    nsecs: 796696137
  frame_id: ''
state: 
  voltage_input: 11.6
  temperature_pcb: 0.0
  current_motor: 44.63
  current_input: 3.29
  current_q: 44.88
  speed: 444.0
  duty_cycle: 0.077
  charge_drawn: 75.0
  charge_regen: 0.0
  energy_drawn: 0.0
  energy_regen: 0.0
  displacement: 1471.0
  distance_traveled: 9487.0
  fault_code: 0
---
header: 
  seq: 62252
  stamp: 
    secs: 1626107499
    nsecs: 816870273
  frame_id: ''
state: 
  voltage_input: 11.5
  temperature_pcb: 0.0
  current_motor: 59.51
  current_input: 4.55
  current_q: 59.61
  speed: 591.0
  duty_cycle: 0.085
  charge_drawn: 75.0
  charge_regen: 0.0
  energy_drawn: 0.0
  energy_regen: 0.0
  displacement: 1473.0
  distance_traveled: 9489.0
  fault_code: 0
---
header: 
  seq: 62253
  stamp: 
    secs: 1626107499
    nsecs: 837354351
  frame_id: ''
state: 
  voltage_input: 11.4
  temperature_pcb: 0.0
  current_motor: 59.04
  current_input: 4.14
  current_q: 58.75
  speed: 628.0
  duty_cycle: 0.1
  charge_drawn: 75.0
  charge_regen: 0.0
  energy_drawn: 0.0
  energy_regen: 0.0
  displacement: 1474.0
  distance_traveled: 9492.0
  fault_code: 0
---
header: 
  seq: 62254
  stamp: 
    secs: 1626107499
    nsecs: 856825805
  frame_id: ''
state: 
  voltage_input: 11.5
  temperature_pcb: 0.0
  current_motor: 55.54
  current_input: 4.35
  current_q: 55.71
  speed: 832.0
  duty_cycle: 0.101
  charge_drawn: 76.0
  charge_regen: 0.0
  energy_drawn: 0.0
  energy_regen: 0.0
  displacement: 1477.0
  distance_traveled: 9495.0
  fault_code: 0
---
header: 
  seq: 62255
  stamp: 
    secs: 1626107499
    nsecs: 877186833
  frame_id: ''
state: 
  voltage_input: 11.5
  temperature_pcb: 0.0
  current_motor: 52.08
  current_input: 4.39
  current_q: 52.81
  speed: 953.0
  duty_cycle: 0.082
  charge_drawn: 76.0
  charge_regen: 0.0
  energy_drawn: 0.0
  energy_regen: 0.0
  displacement: 1479.0
  distance_traveled: 9497.0
  fault_code: 0
---
header: 
  seq: 62256
  stamp: 
    secs: 1626107499
    nsecs: 896749727
  frame_id: ''
state: 
  voltage_input: 11.5
  temperature_pcb: 0.0
  current_motor: 61.34
  current_input: 3.87
  current_q: 59.25
  speed: 769.0
  duty_cycle: 0.073
  charge_drawn: 76.0
  charge_regen: 0.0
  energy_drawn: 0.0
  energy_regen: 0.0
  displacement: 1480.0
  distance_traveled: 9498.0
  fault_code: 0
---
header: 
  seq: 62257
  stamp: 
    secs: 1626107499
    nsecs: 917078626
  frame_id: ''
state: 
  voltage_input: 11.5
  temperature_pcb: 0.0
  current_motor: 60.27
  current_input: 3.8
  current_q: 60.03
  speed: 689.0
  duty_cycle: 0.072
  charge_drawn: 76.0
  charge_regen: 0.0
  energy_drawn: 0.0
  energy_regen: 0.0
  displacement: 1481.0
  distance_traveled: 9499.0
  fault_code: 0
---
header: 
  seq: 62258
  stamp: 
    secs: 1626107499
    nsecs: 937494540
  frame_id: ''
state: 
  voltage_input: 11.5
  temperature_pcb: 0.0
  current_motor: 60.23
  current_input: 3.76
  current_q: 60.03
  speed: 693.0
  duty_cycle: 0.071
  charge_drawn: 76.0
  charge_regen: 0.0
  energy_drawn: 0.0
  energy_regen: 0.0
  displacement: 1482.0
  distance_traveled: 9500.0
  fault_code: 0
---
header: 
  seq: 62259
  stamp: 
    secs: 1626107499
    nsecs: 956992655
  frame_id: ''
state: 
  voltage_input: 11.5
  temperature_pcb: 0.0
  current_motor: 60.13
  current_input: 3.72
  current_q: 60.07
  speed: 752.0
  duty_cycle: 0.072
  charge_drawn: 77.0
  charge_regen: 0.0
  energy_drawn: 0.0
  energy_regen: 0.0
  displacement: 1484.0
  distance_traveled: 9502.0
  fault_code: 0
---
header: 
  seq: 62260
  stamp: 
    secs: 1626107499
    nsecs: 976819407
  frame_id: ''
state: 
  voltage_input: 11.6
  temperature_pcb: 0.0
  current_motor: 60.11
  current_input: 3.79
  current_q: 59.95
  speed: 852.0
  duty_cycle: 0.073
  charge_drawn: 77.0
  charge_regen: 0.0
  energy_drawn: 0.0
  energy_regen: 0.0
  displacement: 1486.0
  distance_traveled: 9504.0
  fault_code: 0
---
header: 
  seq: 62261
  stamp: 
    secs: 1626107499
    nsecs: 999370759
  frame_id: ''
state: 
  voltage_input: 11.5
  temperature_pcb: 0.0
  current_motor: 60.17
  current_input: 3.85
  current_q: 59.97
  speed: 938.0
  duty_cycle: 0.075
  charge_drawn: 77.0
  charge_regen: 0.0
  energy_drawn: 0.0
  energy_regen: 0.0
  displacement: 1489.0
  distance_traveled: 9507.0
  fault_code: 0
---
header: 
  seq: 62262
  stamp: 
    secs: 1626107500
    nsecs:  16961460
  frame_id: ''
state: 
  voltage_input: 11.6
  temperature_pcb: 0.0
  current_motor: 60.18
  current_input: 3.91
  current_q: 59.96
  speed: 992.0
  duty_cycle: 0.077
  charge_drawn: 77.0
  charge_regen: 0.0
  energy_drawn: 0.0
  energy_regen: 0.0
  displacement: 1491.0
  distance_traveled: 9509.0
  fault_code: 0
---
header: 
  seq: 62263
  stamp: 
    secs: 1626107500
    nsecs:  37201893
  frame_id: ''
state: 
  voltage_input: 11.6
  temperature_pcb: 0.0
  current_motor: 25.83
  current_input: 2.15
  current_q: 24.06
  speed: 1665.0
  duty_cycle: 0.059
  charge_drawn: 77.0
  charge_regen: 0.0
  energy_drawn: 0.0
  energy_regen: 0.0
  displacement: 1498.0
  distance_traveled: 9516.0
  fault_code: 0
---
header: 
  seq: 62264
  stamp: 
    secs: 1626107500
    nsecs:  57142276
  frame_id: ''
state: 
  voltage_input: 11.5
  temperature_pcb: 0.0
  current_motor: 56.06
  current_input: 5.01
  current_q: 57.56
  speed: 1692.0
  duty_cycle: 0.098
  charge_drawn: 78.0
  charge_regen: 0.0
  energy_drawn: 0.0
  energy_regen: 0.0
  displacement: 1502.0
  distance_traveled: 9520.0
  fault_code: 0
---
header: 
  seq: 62265
  stamp: 
    secs: 1626107500
    nsecs:  77466599
  frame_id: ''
state: 
  voltage_input: 11.5
  temperature_pcb: 0.0
  current_motor: 59.96
  current_input: 4.94
  current_q: 59.78
  speed: 1627.0
  duty_cycle: 0.1
  charge_drawn: 78.0
  charge_regen: 0.0
  energy_drawn: 0.0
  energy_regen: 0.0
  displacement: 1505.0
  distance_traveled: 9523.0
  fault_code: 0
---
header: 
  seq: 62266
  stamp: 
    secs: 1626107500
    nsecs:  96866768
  frame_id: ''
state: 
  voltage_input: 11.5
  temperature_pcb: 0.0
  current_motor: 60.09
  current_input: 5.29
  current_q: 59.97
  speed: 1672.0
  duty_cycle: 0.101
  charge_drawn: 78.0
  charge_regen: 0.0
  energy_drawn: 0.0
  energy_regen: 0.0
  displacement: 1508.0
  distance_traveled: 9526.0
  fault_code: 0
---
header: 
  seq: 62267
  stamp: 
    secs: 1626107500
    nsecs: 117603933
  frame_id: ''
state: 
  voltage_input: 11.4
  temperature_pcb: 0.0
  current_motor: 59.77
  current_input: 5.47
  current_q: 59.69
  speed: 1786.0
  duty_cycle: 0.108
  charge_drawn: 79.0
  charge_regen: 0.0
  energy_drawn: 0.0
  energy_regen: 0.0
  displacement: 1512.0
  distance_traveled: 9530.0
  fault_code: 0
---
header: 
  seq: 62268
  stamp: 
    secs: 1626107500
    nsecs: 136870428
  frame_id: ''
state: 
  voltage_input: 11.5
  temperature_pcb: 0.0
  current_motor: 59.94
  current_input: 5.69
  current_q: 59.89
  speed: 1928.0
  duty_cycle: 0.111
  charge_drawn: 79.0
  charge_regen: 0.0
  energy_drawn: 0.0
  energy_regen: 0.0
  displacement: 1517.0
  distance_traveled: 9535.0
  fault_code: 0
---
header: 
  seq: 62269
  stamp: 
    secs: 1626107500
    nsecs: 157170589
  frame_id: ''
state: 
  voltage_input: 11.5
  temperature_pcb: 0.0
  current_motor: 59.76
  current_input: 5.88
  current_q: 59.61
  speed: 2116.0
  duty_cycle: 0.119
  charge_drawn: 79.0
  charge_regen: 0.0
  energy_drawn: 0.0
  energy_regen: 0.0
  displacement: 1522.0
  distance_traveled: 9540.0
  fault_code: 0
---
header: 
  seq: 62270
  stamp: 
    secs: 1626107500
    nsecs: 177479655
  frame_id: ''
state: 
  voltage_input: 11.5
  temperature_pcb: 0.0
  current_motor: 59.15
  current_input: 5.94
  current_q: 59.07
  speed: 2300.0
  duty_cycle: 0.118
  charge_drawn: 80.0
  charge_regen: 0.0
  energy_drawn: 0.0
  energy_regen: 0.0
  displacement: 1528.0
  distance_traveled: 9546.0
  fault_code: 0
---
header: 
  seq: 62271
  stamp: 
    secs: 1626107500
    nsecs: 196879198
  frame_id: ''
state: 
  voltage_input: 11.4
  temperature_pcb: 0.0
  current_motor: 56.95
  current_input: 5.73
  current_q: 56.9
  speed: 2474.0
  duty_cycle: 0.116
  charge_drawn: 80.0
  charge_regen: 0.0
  energy_drawn: 0.0
  energy_regen: 0.0
  displacement: 1534.0
  distance_traveled: 9552.0
  fault_code: 0
---
header: 
  seq: 62272
  stamp: 
    secs: 1626107500
    nsecs: 216505420
  frame_id: ''
state: 
  voltage_input: 11.5
  temperature_pcb: 0.0
  current_motor: 51.78
  current_input: 5.06
  current_q: 51.34
  speed: 2669.0
  duty_cycle: 0.116
  charge_drawn: 80.0
  charge_regen: 0.0
  energy_drawn: 0.0
  energy_regen: 0.0
  displacement: 1540.0
  distance_traveled: 9558.0
  fault_code: 0
---
header: 
  seq: 62273
  stamp: 
    secs: 1626107500
    nsecs: 237197697
  frame_id: ''
state: 
  voltage_input: 11.5
  temperature_pcb: 0.0
  current_motor: 46.81
  current_input: 4.48
  current_q: 46.46
  speed: 2872.0
  duty_cycle: 0.109
  charge_drawn: 80.0
  charge_regen: 0.0
  energy_drawn: 0.0
  energy_regen: 0.0
  displacement: 1547.0
  distance_traveled: 9565.0
  fault_code: 0
---
header: 
  seq: 62274
  stamp: 
    secs: 1626107500
    nsecs: 257417404
  frame_id: ''
state: 
  voltage_input: 11.5
  temperature_pcb: 0.0
  current_motor: 40.42
  current_input: 3.76
  current_q: 40.37
  speed: 3070.0
  duty_cycle: 0.116
  charge_drawn: 81.0
  charge_regen: 0.0
  energy_drawn: 0.0
  energy_regen: 0.0
  displacement: 1554.0
  distance_traveled: 9572.0
  fault_code: 0
---
header: 
  seq: 62275
  stamp: 
    secs: 1626107500
    nsecs: 277454019
  frame_id: ''
state: 
  voltage_input: 11.5
  temperature_pcb: 0.0
  current_motor: 35.63
  current_input: 3.21
  current_q: 35.04
  speed: 3285.0
  duty_cycle: 0.101
  charge_drawn: 81.0
  charge_regen: 0.0
  energy_drawn: 0.0
  energy_regen: 0.0
  displacement: 1562.0
  distance_traveled: 9580.0
  fault_code: 0
---
header: 
  seq: 62276
  stamp: 
    secs: 1626107500
    nsecs: 296323764
  frame_id: ''
state: 
  voltage_input: 11.5
  temperature_pcb: 0.0
  current_motor: 31.91
  current_input: 2.85
  current_q: 32.04
  speed: 3455.0
  duty_cycle: 0.103
  charge_drawn: 81.0
  charge_regen: 0.0
  energy_drawn: 0.0
  energy_regen: 0.0
  displacement: 1570.0
  distance_traveled: 9588.0
  fault_code: 0
---
header: 
  seq: 62277
  stamp: 
    secs: 1626107500
    nsecs: 316928505
  frame_id: ''
state: 
  voltage_input: 11.5
  temperature_pcb: 0.0
  current_motor: 31.56
  current_input: 2.8
  current_q: 31.26
  speed: 3612.0
  duty_cycle: 0.103
  charge_drawn: 81.0
  charge_regen: 0.0
  energy_drawn: 0.0
  energy_regen: 0.0
  displacement: 1578.0
  distance_traveled: 9596.0
  fault_code: 0
---
header: 
  seq: 62278
  stamp: 
    secs: 1626107500
    nsecs: 337523456
  frame_id: ''
state: 
  voltage_input: 11.5
  temperature_pcb: 0.0
  current_motor: 31.09
  current_input: 2.82
  current_q: 31.13
  speed: 3744.0
  duty_cycle: 0.107
  charge_drawn: 81.0
  charge_regen: 0.0
  energy_drawn: 0.0
  energy_regen: 0.0
  displacement: 1587.0
  distance_traveled: 9605.0
  fault_code: 0
---
header: 
  seq: 62279
  stamp: 
    secs: 1626107500
    nsecs: 358402210
  frame_id: ''
state: 
  voltage_input: 11.6
  temperature_pcb: 0.0
  current_motor: 26.98
  current_input: 2.35
  current_q: 26.74
  speed: 3870.0
  duty_cycle: 0.092
  charge_drawn: 81.0
  charge_regen: 0.0
  energy_drawn: 0.0
  energy_regen: 0.0
  displacement: 1595.0
  distance_traveled: 9613.0
  fault_code: 0
---
header: 
  seq: 62280
  stamp: 
    secs: 1626107500
    nsecs: 376623322
  frame_id: ''
state: 
  voltage_input: 11.4
  temperature_pcb: 0.0
  current_motor: 25.6
  current_input: 2.28
  current_q: 25.49
  speed: 3995.0
  duty_cycle: 0.109
  charge_drawn: 81.0
  charge_regen: 0.0
  energy_drawn: 0.0
  energy_regen: 0.0
  displacement: 1604.0
  distance_traveled: 9622.0
  fault_code: 0
---
header: 
  seq: 62281
  stamp: 
    secs: 1626107500
    nsecs: 396732164
  frame_id: ''
state: 
  voltage_input: 11.5
  temperature_pcb: 0.0
  current_motor: 19.59
  current_input: 1.65
  current_q: 19.18
  speed: 4139.0
  duty_cycle: 0.085
  charge_drawn: 82.0
  charge_regen: 0.0
  energy_drawn: 0.0
  energy_regen: 0.0
  displacement: 1613.0
  distance_traveled: 9631.0
  fault_code: 0
---
header: 
  seq: 62282
  stamp: 
    secs: 1626107500
    nsecs: 417133609
  frame_id: ''
state: 
  voltage_input: 11.5
  temperature_pcb: 0.0
  current_motor: 20.72
  current_input: 1.88
  current_q: 21.09
  speed: 4228.0
  duty_cycle: 0.113
  charge_drawn: 82.0
  charge_regen: 0.0
  energy_drawn: 0.0
  energy_regen: 0.0
  displacement: 1622.0
  distance_traveled: 9640.0
  fault_code: 0
---
header: 
  seq: 62283
  stamp: 
    secs: 1626107500
    nsecs: 438211649
  frame_id: ''
state: 
  voltage_input: 11.5
  temperature_pcb: 0.0
  current_motor: 15.15
  current_input: 1.38
  current_q: 14.47
  speed: 4346.0
  duty_cycle: 0.089
  charge_drawn: 82.0
  charge_regen: 0.0
  energy_drawn: 0.0
  energy_regen: 0.0
  displacement: 1632.0
  distance_traveled: 9650.0
  fault_code: 0
---
header: 
  seq: 62284
  stamp: 
    secs: 1626107500
    nsecs: 457278545
  frame_id: ''
state: 
  voltage_input: 11.6
  temperature_pcb: 0.0
  current_motor: 21.98
  current_input: 2.19
  current_q: 21.77
  speed: 4458.0
  duty_cycle: 0.092
  charge_drawn: 82.0
  charge_regen: 0.0
  energy_drawn: 0.0
  energy_regen: 0.0
  displacement: 1641.0
  distance_traveled: 9659.0
  fault_code: 0
---
header: 
  seq: 62285
  stamp: 
    secs: 1626107500
    nsecs: 477030212
  frame_id: ''
state: 
  voltage_input: 11.5
  temperature_pcb: 0.0
  current_motor: 14.81
  current_input: 1.52
  current_q: 15.52
  speed: 4480.0
  duty_cycle: 0.12
  charge_drawn: 82.0
  charge_regen: 0.0
  energy_drawn: 0.0
  energy_regen: 0.0
  displacement: 1650.0
  distance_traveled: 9668.0
  fault_code: 0
---
header: 
  seq: 62286
  stamp: 
    secs: 1626107500
    nsecs: 497927036
  frame_id: ''
state: 
  voltage_input: 11.4
  temperature_pcb: 0.0
  current_motor: 16.2
  current_input: 1.47
  current_q: 14.6
  speed: 4570.0
  duty_cycle: 0.067
  charge_drawn: 82.0
  charge_regen: 0.0
  energy_drawn: 0.0
  energy_regen: 0.0
  displacement: 1660.0
  distance_traveled: 9678.0
  fault_code: 0
---
header: 
  seq: 62287
  stamp: 
    secs: 1626107500
    nsecs: 517393911
  frame_id: ''
state: 
  voltage_input: 11.5
  temperature_pcb: 0.0
  current_motor: 21.15
  current_input: 2.14
  current_q: 21.59
  speed: 4610.0
  duty_cycle: 0.098
  charge_drawn: 82.0
  charge_regen: 0.0
  energy_drawn: 0.0
  energy_regen: 0.0
  displacement: 1669.0
  distance_traveled: 9687.0
  fault_code: 0
---
header: 
  seq: 62288
  stamp: 
    secs: 1626107500
    nsecs: 539374964
  frame_id: ''
state: 
  voltage_input: 11.5
  temperature_pcb: 0.0
  current_motor: 14.33
  current_input: 1.39
  current_q: 14.41
  speed: 4620.0
  duty_cycle: 0.123
  charge_drawn: 82.0
  charge_regen: 0.0
  energy_drawn: 0.0
  energy_regen: 0.0
  displacement: 1678.0
  distance_traveled: 9696.0
  fault_code: 0
---
header: 
  seq: 62289
  stamp: 
    secs: 1626107500
    nsecs: 556437694
  frame_id: ''
state: 
  voltage_input: 11.5
  temperature_pcb: 0.0
  current_motor: 15.84
  current_input: 1.39
  current_q: 14.29
  speed: 4732.0
  duty_cycle: 0.063
  charge_drawn: 82.0
  charge_regen: 0.0
  energy_drawn: 0.0
  energy_regen: 0.0
  displacement: 1688.0
  distance_traveled: 9706.0
  fault_code: 0
---
header: 
  seq: 62290
  stamp: 
    secs: 1626107500
    nsecs: 576750561
  frame_id: ''
state: 
  voltage_input: 11.5
  temperature_pcb: 0.0
  current_motor: 13.1
  current_input: 1.26
  current_q: 13.61
  speed: 4758.0
  duty_cycle: 0.099
  charge_drawn: 82.0
  charge_regen: 0.0
  energy_drawn: 0.0
  energy_regen: 0.0
  displacement: 1698.0
  distance_traveled: 9716.0
  fault_code: 0
---
header: 
  seq: 62291
  stamp: 
    secs: 1626107500
    nsecs: 597090298
  frame_id: ''
state: 
  voltage_input: 11.5
  temperature_pcb: 0.0
  current_motor: 11.75
  current_input: 1.04
  current_q: 11.57
  speed: 4778.0
  duty_cycle: 0.114
  charge_drawn: 82.0
  charge_regen: 0.0
  energy_drawn: 0.0
  energy_regen: 0.0
  displacement: 1708.0
  distance_traveled: 9726.0
  fault_code: 0
---
header: 
  seq: 62292
  stamp: 
    secs: 1626107500
    nsecs: 616961996
  frame_id: ''
state: 
  voltage_input: 11.4
  temperature_pcb: 0.0
  current_motor: 14.52
  current_input: 1.27
  current_q: 13.04
  speed: 4841.0
  duty_cycle: 0.064
  charge_drawn: 83.0
  charge_regen: 0.0
  energy_drawn: 0.0
  energy_regen: 0.0
  displacement: 1718.0
  distance_traveled: 9736.0
  fault_code: 0
---
header: 
  seq: 62293
  stamp: 
    secs: 1626107500
    nsecs: 637327145
  frame_id: ''
state: 
  voltage_input: 11.6
  temperature_pcb: 0.0
  current_motor: 17.48
  current_input: 1.72
  current_q: 17.59
  speed: 4860.0
  duty_cycle: 0.089
  charge_drawn: 83.0
  charge_regen: 0.0
  energy_drawn: 0.0
  energy_regen: 0.0
  displacement: 1727.0
  distance_traveled: 9745.0
  fault_code: 0
---
header: 
  seq: 62294
  stamp: 
    secs: 1626107500
    nsecs: 656909156
  frame_id: ''
state: 
  voltage_input: 11.5
  temperature_pcb: 0.0
  current_motor: 12.36
  current_input: 1.27
  current_q: 12.9
  speed: 4846.0
  duty_cycle: 0.116
  charge_drawn: 83.0
  charge_regen: 0.0
  energy_drawn: 0.0
  energy_regen: 0.0
  displacement: 1737.0
  distance_traveled: 9755.0
  fault_code: 0
---
header: 
  seq: 62295
  stamp: 
    secs: 1626107500
    nsecs: 677035807
  frame_id: ''
state: 
  voltage_input: 11.5
  temperature_pcb: 0.0
  current_motor: 9.7
  current_input: 0.87
  current_q: 9.03
  speed: 4877.0
  duty_cycle: 0.11
  charge_drawn: 83.0
  charge_regen: 0.0
  energy_drawn: 0.0
  energy_regen: 0.0
  displacement: 1747.0
  distance_traveled: 9765.0
  fault_code: 0
---
header: 
  seq: 62296
  stamp: 
    secs: 1626107500
    nsecs: 696631096
  frame_id: ''
state: 
  voltage_input: 11.5
  temperature_pcb: 0.0
  current_motor: 10.44
  current_input: 0.95
  current_q: 9.5
  speed: 4932.0
  duty_cycle: 0.086
  charge_drawn: 83.0
  charge_regen: 0.0
  energy_drawn: 0.0
  energy_regen: 0.0
  displacement: 1757.0
  distance_traveled: 9775.0
  fault_code: 0
---
header: 
  seq: 62297
  stamp: 
    secs: 1626107500
    nsecs: 716689426
  frame_id: ''
state: 
  voltage_input: 11.5
  temperature_pcb: 0.0
  current_motor: 11.91
  current_input: 1.11
  current_q: 11.53
  speed: 4994.0
  duty_cycle: 0.062
  charge_drawn: 83.0
  charge_regen: 0.0
  energy_drawn: 0.0
  energy_regen: 0.0
  displacement: 1767.0
  distance_traveled: 9785.0
  fault_code: 0
---
header: 
  seq: 62298
  stamp: 
    secs: 1626107500
    nsecs: 737146538
  frame_id: ''
state: 
  voltage_input: 11.6
  temperature_pcb: 0.0
  current_motor: 10.46
  current_input: 1.0
  current_q: 10.79
  speed: 4997.0
  duty_cycle: 0.088
  charge_drawn: 83.0
  charge_regen: 0.0
  energy_drawn: 0.0
  energy_regen: 0.0
  displacement: 1778.0
  distance_traveled: 9796.0
  fault_code: 0
---
header: 
  seq: 62299
  stamp: 
    secs: 1626107500
    nsecs: 757128215
  frame_id: ''
state: 
  voltage_input: 11.5
  temperature_pcb: 0.0
  current_motor: 10.28
  current_input: 0.97
  current_q: 10.36
  speed: 4975.0
  duty_cycle: 0.114
  charge_drawn: 83.0
  charge_regen: 0.0
  energy_drawn: 0.0
  energy_regen: 0.0
  displacement: 1787.0
  distance_traveled: 9805.0
  fault_code: 0
---
header: 
  seq: 62300
  stamp: 
    secs: 1626107500
    nsecs: 777218154
  frame_id: ''
state: 
  voltage_input: 11.6
  temperature_pcb: 0.0
  current_motor: 10.91
  current_input: 0.93
  current_q: 10.12
  speed: 4986.0
  duty_cycle: 0.092
  charge_drawn: 83.0
  charge_regen: 0.0
  energy_drawn: 0.0
  energy_regen: 0.0
  displacement: 1797.0
  distance_traveled: 9815.0
  fault_code: 0
---
header: 
  seq: 62301
  stamp: 
    secs: 1626107500
    nsecs: 796291299
  frame_id: ''
state: 
  voltage_input: 11.4
  temperature_pcb: 0.0
  current_motor: 15.64
  current_input: 1.46
  current_q: 15.37
  speed: 5013.0
  duty_cycle: 0.079
  charge_drawn: 83.0
  charge_regen: 0.0
  energy_drawn: 0.0
  energy_regen: 0.0
  displacement: 1807.0
  distance_traveled: 9825.0
  fault_code: 0
---
header: 
  seq: 62302
  stamp: 
    secs: 1626107500
    nsecs: 816912496
  frame_id: ''
state: 
  voltage_input: 11.6
  temperature_pcb: 0.0
  current_motor: 12.04
  current_input: 1.13
  current_q: 12.03
  speed: 4989.0
  duty_cycle: 0.105
  charge_drawn: 83.0
  charge_regen: 0.0
  energy_drawn: 0.0
  energy_regen: 0.0
  displacement: 1817.0
  distance_traveled: 9835.0
  fault_code: 0
---
header: 
  seq: 62303
  stamp: 
    secs: 1626107500
    nsecs: 837083514
  frame_id: ''
state: 
  voltage_input: 11.5
  temperature_pcb: 0.0
  current_motor: 9.8
  current_input: 0.91
  current_q: 9.77
  speed: 4994.0
  duty_cycle: 0.113
  charge_drawn: 83.0
  charge_regen: 0.0
  energy_drawn: 0.0
  energy_regen: 0.0
  displacement: 1827.0
  distance_traveled: 9845.0
  fault_code: 0
---
header: 
  seq: 62304
  stamp: 
    secs: 1626107500
    nsecs: 856760351
  frame_id: ''
state: 
  voltage_input: 11.5
  temperature_pcb: 0.0
  current_motor: 9.58
  current_input: 0.91
  current_q: 9.39
  speed: 4999.0
  duty_cycle: 0.118
  charge_drawn: 83.0
  charge_regen: 0.0
  energy_drawn: 0.0
  energy_regen: 0.0
  displacement: 1838.0
  distance_traveled: 9856.0
  fault_code: 0
---
header: 
  seq: 62305
  stamp: 
    secs: 1626107500
    nsecs: 877031455
  frame_id: ''
state: 
  voltage_input: 11.5
  temperature_pcb: 0.0
  current_motor: 10.66
  current_input: 1.0
  current_q: 10.01
  speed: 4997.0
  duty_cycle: 0.108
  charge_drawn: 83.0
  charge_regen: 0.0
  energy_drawn: 0.0
  energy_regen: 0.0
  displacement: 1848.0
  distance_traveled: 9866.0
  fault_code: 0
---
header: 
  seq: 62306
  stamp: 
    secs: 1626107500
    nsecs: 898063045
  frame_id: ''
state: 
  voltage_input: 11.5
  temperature_pcb: 0.0
  current_motor: 13.16
  current_input: 1.21
  current_q: 12.29
  speed: 5039.0
  duty_cycle: 0.063
  charge_drawn: 83.0
  charge_regen: 0.0
  energy_drawn: 0.0
  energy_regen: 0.0
  displacement: 1858.0
  distance_traveled: 9876.0
  fault_code: 0
---
header: 
  seq: 62307
  stamp: 
    secs: 1626107500
    nsecs: 916716423
  frame_id: ''
state: 
  voltage_input: 11.5
  temperature_pcb: 0.0
  current_motor: 11.43
  current_input: 1.1
  current_q: 11.84
  speed: 5041.0
  duty_cycle: 0.091
  charge_drawn: 83.0
  charge_regen: 0.0
  energy_drawn: 0.0
  energy_regen: 0.0
  displacement: 1868.0
  distance_traveled: 9886.0
  fault_code: 0
---
header: 
  seq: 62308
  stamp: 
    secs: 1626107500
    nsecs: 936768920
  frame_id: ''
state: 
  voltage_input: 11.5
  temperature_pcb: 0.0
  current_motor: 9.23
  current_input: 0.87
  current_q: 9.28
  speed: 5041.0
  duty_cycle: 0.1
  charge_drawn: 83.0
  charge_regen: 0.0
  energy_drawn: 0.0
  energy_regen: 0.0
  displacement: 1878.0
  distance_traveled: 9896.0
  fault_code: 0
---
header: 
  seq: 62309
  stamp: 
    secs: 1626107500
    nsecs: 957370433
  frame_id: ''
state: 
  voltage_input: 11.5
  temperature_pcb: 0.0
  current_motor: 8.41
  current_input: 0.76
  current_q: 8.12
  speed: 5045.0
  duty_cycle: 0.108
  charge_drawn: 84.0
  charge_regen: 0.0
  energy_drawn: 0.0
  energy_regen: 0.0
  displacement: 1888.0
  distance_traveled: 9906.0
  fault_code: 0
---
header: 
  seq: 62310
  stamp: 
    secs: 1626107500
    nsecs: 977370232
  frame_id: ''
state: 
  voltage_input: 11.5
  temperature_pcb: 0.0
  current_motor: 8.57
  current_input: 0.78
  current_q: 8.3
  speed: 5047.0
  duty_cycle: 0.117
  charge_drawn: 84.0
  charge_regen: 0.0
  energy_drawn: 0.0
  energy_regen: 0.0
  displacement: 1898.0
  distance_traveled: 9916.0
  fault_code: 0
---
header: 
  seq: 62311
  stamp: 
    secs: 1626107500
    nsecs: 996863769
  frame_id: ''
state: 
  voltage_input: 11.5
  temperature_pcb: 0.0
  current_motor: 9.51
  current_input: 0.85
  current_q: 8.78
  speed: 5053.0
  duty_cycle: 0.107
  charge_drawn: 84.0
  charge_regen: 0.0
  energy_drawn: 0.0
  energy_regen: 0.0
  displacement: 1909.0
  distance_traveled: 9927.0
  fault_code: 0
---
header: 
  seq: 62312
  stamp: 
    secs: 1626107501
    nsecs:  16557002
  frame_id: ''
state: 
  voltage_input: 11.5
  temperature_pcb: 0.0
  current_motor: 12.39
  current_input: 1.14
  current_q: 11.61
  speed: 5083.0
  duty_cycle: 0.064
  charge_drawn: 84.0
  charge_regen: 0.0
  energy_drawn: 0.0
  energy_regen: 0.0
  displacement: 1919.0
  distance_traveled: 9937.0
  fault_code: 0
---
header: 
  seq: 62313
  stamp: 
    secs: 1626107501
    nsecs:  36791712
  frame_id: ''
state: 
  voltage_input: 11.5
  temperature_pcb: 0.0
  current_motor: 14.35
  current_input: 1.37
  current_q: 14.31
  speed: 5071.0
  duty_cycle: 0.076
  charge_drawn: 84.0
  charge_regen: 0.0
  energy_drawn: 0.0
  energy_regen: 0.0
  displacement: 1929.0
  distance_traveled: 9947.0
  fault_code: 0
---
header: 
  seq: 62314
  stamp: 
    secs: 1626107501
    nsecs:  56616600
  frame_id: ''
state: 
  voltage_input: 11.6
  temperature_pcb: 0.0
  current_motor: 11.5
  current_input: 1.17
  current_q: 12.1
  speed: 5014.0
  duty_cycle: 0.118
  charge_drawn: 84.0
  charge_regen: 0.0
  energy_drawn: 0.0
  energy_regen: 0.0
  displacement: 1939.0
  distance_traveled: 9957.0
  fault_code: 0
---
header: 
  seq: 62315
  stamp: 
    secs: 1626107501
    nsecs:  77033101
  frame_id: ''
state: 
  voltage_input: 11.5
  temperature_pcb: 0.0
  current_motor: 9.61
  current_input: 0.84
  current_q: 9.0
  speed: 5027.0
  duty_cycle: 0.095
  charge_drawn: 84.0
  charge_regen: 0.0
  energy_drawn: 0.0
  energy_regen: 0.0
  displacement: 1949.0
  distance_traveled: 9967.0
  fault_code: 0
---
header: 
  seq: 62316
  stamp: 
    secs: 1626107501
    nsecs:  97138147
  frame_id: ''
state: 
  voltage_input: 11.5
  temperature_pcb: 0.0
  current_motor: 10.92
  current_input: 0.93
  current_q: 10.07
  speed: 5069.0
  duty_cycle: 0.065
  charge_drawn: 84.0
  charge_regen: 0.0
  energy_drawn: 0.0
  energy_regen: 0.0
  displacement: 1959.0
  distance_traveled: 9977.0
  fault_code: 0
---
header: 
  seq: 62317
  stamp: 
    secs: 1626107501
    nsecs: 116423860
  frame_id: ''
state: 
  voltage_input: 11.5
  temperature_pcb: 0.0
  current_motor: 10.79
  current_input: 1.03
  current_q: 11.11
  speed: 5059.0
  duty_cycle: 0.095
  charge_drawn: 84.0
  charge_regen: 0.0
  energy_drawn: 0.0
  energy_regen: 0.0
  displacement: 1969.0
  distance_traveled: 9987.0
  fault_code: 0
---
header: 
  seq: 62318
  stamp: 
    secs: 1626107501
    nsecs: 136464074
  frame_id: ''
state: 
  voltage_input: 11.6
  temperature_pcb: 0.0
  current_motor: 10.03
  current_input: 0.96
  current_q: 10.43
  speed: 5021.0
  duty_cycle: 0.114
  charge_drawn: 84.0
  charge_regen: 0.0
  energy_drawn: 0.0
  energy_regen: 0.0
  displacement: 1979.0
  distance_traveled: 9997.0
  fault_code: 0
---
header: 
  seq: 62319
  stamp: 
    secs: 1626107501
    nsecs: 156896770
  frame_id: ''
state: 
  voltage_input: 11.5
  temperature_pcb: 0.0
  current_motor: 11.58
  current_input: 0.96
  current_q: 10.46
  speed: 5035.0
  duty_cycle: 0.081
  charge_drawn: 84.0
  charge_regen: 0.0
  energy_drawn: 0.0
  energy_regen: 0.0
  displacement: 1989.0
  distance_traveled: 10007.0
  fault_code: 0
---
header: 
  seq: 62320
  stamp: 
    secs: 1626107501
    nsecs: 177275152
  frame_id: ''
state: 
  voltage_input: 11.6
  temperature_pcb: 0.0
  current_motor: 12.38
  current_input: 1.13
  current_q: 12.26
  speed: 5061.0
  duty_cycle: 0.075
  charge_drawn: 84.0
  charge_regen: 0.0
  energy_drawn: 0.0
  energy_regen: 0.0
  displacement: 2000.0
  distance_traveled: 10018.0
  fault_code: 0
---
header: 
  seq: 62321
  stamp: 
    secs: 1626107501
    nsecs: 197068588
  frame_id: ''
state: 
  voltage_input: 11.5
  temperature_pcb: 0.0
  current_motor: 8.49
  current_input: 0.82
  current_q: 9.05
  speed: 5040.0
  duty_cycle: 0.107
  charge_drawn: 84.0
  charge_regen: 0.0
  energy_drawn: 0.0
  energy_regen: 0.0
  displacement: 2010.0
  distance_traveled: 10028.0
  fault_code: 0
---
header: 
  seq: 62322
  stamp: 
    secs: 1626107501
    nsecs: 216694865
  frame_id: ''
state: 
  voltage_input: 11.5
  temperature_pcb: 0.0
  current_motor: 7.75
  current_input: 0.64
  current_q: 7.21
  speed: 5056.0
  duty_cycle: 0.092
  charge_drawn: 84.0
  charge_regen: 0.0
  energy_drawn: 0.0
  energy_regen: 0.0
  displacement: 2020.0
  distance_traveled: 10038.0
  fault_code: 0
---
header: 
  seq: 62323
  stamp: 
    secs: 1626107501
    nsecs: 237082152
  frame_id: ''
state: 
  voltage_input: 11.5
  temperature_pcb: 0.0
  current_motor: 11.25
  current_input: 0.99
  current_q: 10.99
  speed: 5093.0
  duty_cycle: 0.076
  charge_drawn: 84.0
  charge_regen: 0.0
  energy_drawn: 0.0
  energy_regen: 0.0
  displacement: 2030.0
  distance_traveled: 10048.0
  fault_code: 0
---
header: 
  seq: 62324
  stamp: 
    secs: 1626107501
    nsecs: 256873244
  frame_id: ''
state: 
  voltage_input: 11.5
  temperature_pcb: 0.0
  current_motor: 8.41
  current_input: 0.83
  current_q: 9.26
  speed: 5046.0
  duty_cycle: 0.109
  charge_drawn: 84.0
  charge_regen: 0.0
  energy_drawn: 0.0
  energy_regen: 0.0
  displacement: 2040.0
  distance_traveled: 10058.0
  fault_code: 0
---
header: 
  seq: 62325
  stamp: 
    secs: 1626107501
    nsecs: 277257251
  frame_id: ''
state: 
  voltage_input: 11.5
  temperature_pcb: 0.0
  current_motor: 11.55
  current_input: 0.98
  current_q: 10.27
  speed: 5079.0
  duty_cycle: 0.071
  charge_drawn: 84.0
  charge_regen: 0.0
  energy_drawn: 0.0
  energy_regen: 0.0
  displacement: 2050.0
  distance_traveled: 10068.0
  fault_code: 0
---
header: 
  seq: 62326
  stamp: 
    secs: 1626107501
    nsecs: 297125724
  frame_id: ''
state: 
  voltage_input: 11.5
  temperature_pcb: 0.0
  current_motor: 14.5
  current_input: 1.4
  current_q: 14.88
  speed: 5041.0
  duty_cycle: 0.101
  charge_drawn: 84.0
  charge_regen: 0.0
  energy_drawn: 0.0
  energy_regen: 0.0
  displacement: 2060.0
  distance_traveled: 10078.0
  fault_code: 0
---
header: 
  seq: 62327
  stamp: 
    secs: 1626107501
    nsecs: 316852036
  frame_id: ''
state: 
  voltage_input: 11.5
  temperature_pcb: 0.0
  current_motor: 10.72
  current_input: 1.04
  current_q: 10.85
  speed: 5001.0
  duty_cycle: 0.109
  charge_drawn: 85.0
  charge_regen: 0.0
  energy_drawn: 0.0
  energy_regen: 0.0
  displacement: 2070.0
  distance_traveled: 10088.0
  fault_code: 0
---
header: 
  seq: 62328
  stamp: 
    secs: 1626107501
    nsecs: 338348552
  frame_id: ''
state: 
  voltage_input: 11.5
  temperature_pcb: 0.0
  current_motor: 11.12
  current_input: 0.96
  current_q: 10.12
  speed: 5029.0
  duty_cycle: 0.079
  charge_drawn: 85.0
  charge_regen: 0.0
  energy_drawn: 0.0
  energy_regen: 0.0
  displacement: 2080.0
  distance_traveled: 10098.0
  fault_code: 0
---
header: 
  seq: 62329
  stamp: 
    secs: 1626107501
    nsecs: 357326091
  frame_id: ''
state: 
  voltage_input: 11.5
  temperature_pcb: 0.0
  current_motor: 12.31
  current_input: 1.08
  current_q: 11.86
  speed: 5065.0
  duty_cycle: 0.068
  charge_drawn: 85.0
  charge_regen: 0.0
  energy_drawn: 0.0
  energy_regen: 0.0
  displacement: 2090.0
  distance_traveled: 10108.0
  fault_code: 0
---
header: 
  seq: 62330
  stamp: 
    secs: 1626107501
    nsecs: 376808905
  frame_id: ''
state: 
  voltage_input: 11.5
  temperature_pcb: 0.0
  current_motor: 10.87
  current_input: 1.06
  current_q: 11.37
  speed: 5033.0
  duty_cycle: 0.102
  charge_drawn: 85.0
  charge_regen: 0.0
  energy_drawn: 0.0
  energy_regen: 0.0
  displacement: 2100.0
  distance_traveled: 10118.0
  fault_code: 0
---
header: 
  seq: 62331
  stamp: 
    secs: 1626107501
    nsecs: 396238916
  frame_id: ''
state: 
  voltage_input: 11.6
  temperature_pcb: 0.0
  current_motor: 8.76
  current_input: 0.78
  current_q: 8.42
  speed: 5020.0
  duty_cycle: 0.09
  charge_drawn: 85.0
  charge_regen: 0.0
  energy_drawn: 0.0
  energy_regen: 0.0
  displacement: 2110.0
  distance_traveled: 10128.0
  fault_code: 0
---
header: 
  seq: 62332
  stamp: 
    secs: 1626107501
    nsecs: 416729257
  frame_id: ''
state: 
  voltage_input: 11.5
  temperature_pcb: 0.0
  current_motor: 13.86
  current_input: 1.28
  current_q: 13.86
  speed: 5046.0
  duty_cycle: 0.087
  charge_drawn: 85.0
  charge_regen: 0.0
  energy_drawn: 0.0
  energy_regen: 0.0
  displacement: 2121.0
  distance_traveled: 10139.0
  fault_code: 0
---
header: 
  seq: 62333
  stamp: 
    secs: 1626107501
    nsecs: 438346949
  frame_id: ''
state: 
  voltage_input: 11.5
  temperature_pcb: 0.0
  current_motor: 9.21
  current_input: 0.87
  current_q: 9.61
  speed: 5015.0
  duty_cycle: 0.112
  charge_drawn: 85.0
  charge_regen: 0.0
  energy_drawn: 0.0
  energy_regen: 0.0
  displacement: 2130.0
  distance_traveled: 10148.0
  fault_code: 0
---
header: 
  seq: 62334
  stamp: 
    secs: 1626107501
    nsecs: 457228464
  frame_id: ''
state: 
  voltage_input: 11.6
  temperature_pcb: 0.0
  current_motor: 8.69
  current_input: 0.75
  current_q: 7.9
  speed: 5050.0
  duty_cycle: 0.077
  charge_drawn: 85.0
  charge_regen: 0.0
  energy_drawn: 0.0
  energy_regen: 0.0
  displacement: 2141.0
  distance_traveled: 10159.0
  fault_code: 0
---
header: 
  seq: 62335
  stamp: 
    secs: 1626107501
    nsecs: 477124746
  frame_id: ''
state: 
  voltage_input: 11.5
  temperature_pcb: 0.0
  current_motor: 10.3
  current_input: 0.89
  current_q: 9.9
  speed: 5084.0
  duty_cycle: 0.065
  charge_drawn: 85.0
  charge_regen: 0.0
  energy_drawn: 0.0
  energy_regen: 0.0
  displacement: 2151.0
  distance_traveled: 10169.0
  fault_code: 0
---
header: 
  seq: 62336
  stamp: 
    secs: 1626107501
    nsecs: 497023214
  frame_id: ''
state: 
  voltage_input: 11.5
  temperature_pcb: 0.0
  current_motor: 9.24
  current_input: 0.87
  current_q: 9.35
  speed: 5093.0
  duty_cycle: 0.077
  charge_drawn: 85.0
  charge_regen: 0.0
  energy_drawn: 0.0
  energy_regen: 0.0
  displacement: 2161.0
  distance_traveled: 10179.0
  fault_code: 0
---
header: 
  seq: 62337
  stamp: 
    secs: 1626107501
    nsecs: 516849768
  frame_id: ''
state: 
  voltage_input: 11.5
  temperature_pcb: 0.0
  current_motor: 9.96
  current_input: 0.93
  current_q: 9.9
  speed: 5085.0
  duty_cycle: 0.093
  charge_drawn: 85.0
  charge_regen: 0.0
  energy_drawn: 0.0
  energy_regen: 0.0
  displacement: 2171.0
  distance_traveled: 10189.0
  fault_code: 0
---
header: 
  seq: 62338
  stamp: 
    secs: 1626107501
    nsecs: 536985121
  frame_id: ''
state: 
  voltage_input: 11.5
  temperature_pcb: 0.0
  current_motor: 10.69
  current_input: 1.02
  current_q: 10.56
  speed: 5052.0
  duty_cycle: 0.113
  charge_drawn: 85.0
  charge_regen: 0.0
  energy_drawn: 0.0
  energy_regen: 0.0
  displacement: 2181.0
  distance_traveled: 10199.0
  fault_code: 0
---
header: 
  seq: 62339
  stamp: 
    secs: 1626107501
    nsecs: 556444710
  frame_id: ''
state: 
  voltage_input: 11.5
  temperature_pcb: 0.0
  current_motor: 9.33
  current_input: 0.86
  current_q: 8.98
  speed: 5032.0
  duty_cycle: 0.108
  charge_drawn: 85.0
  charge_regen: 0.0
  energy_drawn: 0.0
  energy_regen: 0.0
  displacement: 2191.0
  distance_traveled: 10209.0
  fault_code: 0
---
header: 
  seq: 62340
  stamp: 
    secs: 1626107501
    nsecs: 577685438
  frame_id: ''
state: 
  voltage_input: 11.5
  temperature_pcb: 0.0
  current_motor: 11.08
  current_input: 0.99
  current_q: 10.01
  speed: 5056.0
  duty_cycle: 0.076
  charge_drawn: 85.0
  charge_regen: 0.0
  energy_drawn: 0.0
  energy_regen: 0.0
  displacement: 2201.0
  distance_traveled: 10219.0
  fault_code: 0
---
header: 
  seq: 62341
  stamp: 
    secs: 1626107501
    nsecs: 597321037
  frame_id: ''
state: 
  voltage_input: 11.5
  temperature_pcb: 0.0
  current_motor: 10.41
  current_input: 0.94
  current_q: 9.93
  speed: 5090.0
  duty_cycle: 0.057
  charge_drawn: 85.0
  charge_regen: 0.0
  energy_drawn: 0.0
  energy_regen: 0.0
  displacement: 2212.0
  distance_traveled: 10230.0
  fault_code: 0
---
header: 
  seq: 62342
  stamp: 
    secs: 1626107501
    nsecs: 616787499
  frame_id: ''
state: 
  voltage_input: 11.5
  temperature_pcb: 0.0
  current_motor: 8.94
  current_input: 0.84
  current_q: 8.83
  speed: 5103.0
  duty_cycle: 0.074
  charge_drawn: 85.0
  charge_regen: 0.0
  energy_drawn: 0.0
  energy_regen: 0.0
  displacement: 2222.0
  distance_traveled: 10240.0
  fault_code: 0
---
header: 
  seq: 62343
  stamp: 
    secs: 1626107501
    nsecs: 636940610
  frame_id: ''
state: 
  voltage_input: 11.5
  temperature_pcb: 0.0
  current_motor: 8.64
  current_input: 0.78
  current_q: 8.46
  speed: 5103.0
  duty_cycle: 0.092
  charge_drawn: 85.0
  charge_regen: 0.0
  energy_drawn: 0.0
  energy_regen: 0.0
  displacement: 2232.0
  distance_traveled: 10250.0
  fault_code: 0
---
header: 
  seq: 62344
  stamp: 
    secs: 1626107501
    nsecs: 657003736
  frame_id: ''
state: 
  voltage_input: 11.5
  temperature_pcb: 0.0
  current_motor: 8.88
  current_input: 0.83
  current_q: 8.75
  speed: 5081.0
  duty_cycle: 0.106
  charge_drawn: 85.0
  charge_regen: 0.0
  energy_drawn: 0.0
  energy_regen: 0.0
  displacement: 2242.0
  distance_traveled: 10260.0
  fault_code: 0
---
header: 
  seq: 62345
  stamp: 
    secs: 1626107501
    nsecs: 676848985
  frame_id: ''
state: 
  voltage_input: 11.5
  temperature_pcb: 0.0
  current_motor: 7.73
  current_input: 0.72
  current_q: 7.44
  speed: 5073.0
  duty_cycle: 0.112
  charge_drawn: 85.0
  charge_regen: 0.0
  energy_drawn: 0.0
  energy_regen: 0.0
  displacement: 2252.0
  distance_traveled: 10270.0
  fault_code: 0
---
header: 
  seq: 62346
  stamp: 
    secs: 1626107501
    nsecs: 696907945
  frame_id: ''
state: 
  voltage_input: 11.5
  temperature_pcb: 0.0
  current_motor: 8.11
  current_input: 0.77
  current_q: 7.92
  speed: 5078.0
  duty_cycle: 0.104
  charge_drawn: 86.0
  charge_regen: 0.0
  energy_drawn: 0.0
  energy_regen: 0.0
  displacement: 2263.0
  distance_traveled: 10281.0
  fault_code: 0
---
header: 
  seq: 62347
  stamp: 
    secs: 1626107501
    nsecs: 716685029
  frame_id: ''
state: 
  voltage_input: 11.5
  temperature_pcb: 0.0
  current_motor: 7.71
  current_input: 0.67
  current_q: 6.89
  speed: 5100.0
  duty_cycle: 0.087
  charge_drawn: 86.0
  charge_regen: 0.0
  energy_drawn: 0.0
  energy_regen: 0.0
  displacement: 2273.0
  distance_traveled: 10291.0
  fault_code: 0
---
header: 
  seq: 62348
  stamp: 
    secs: 1626107501
    nsecs: 736304225
  frame_id: ''
state: 
  voltage_input: 11.5
  temperature_pcb: 0.0
  current_motor: 8.34
  current_input: 0.76
  current_q: 7.71
  speed: 5121.0
  duty_cycle: 0.074
  charge_drawn: 86.0
  charge_regen: 0.0
  energy_drawn: 0.0
  energy_regen: 0.0
  displacement: 2283.0
  distance_traveled: 10301.0
  fault_code: 0
---
header: 
  seq: 62349
  stamp: 
    secs: 1626107501
    nsecs: 757115447
  frame_id: ''
state: 
  voltage_input: 11.6
  temperature_pcb: 0.0
  current_motor: 7.91
  current_input: 0.74
  current_q: 7.91
  speed: 5119.0
  duty_cycle: 0.079
  charge_drawn: 86.0
  charge_regen: 0.0
  energy_drawn: 0.0
  energy_regen: 0.0
  displacement: 2294.0
  distance_traveled: 10312.0
  fault_code: 0
---
header: 
  seq: 62350
  stamp: 
    secs: 1626107501
    nsecs: 776535667
  frame_id: ''
state: 
  voltage_input: 11.5
  temperature_pcb: 0.0
  current_motor: 10.73
  current_input: 0.98
  current_q: 10.12
  speed: 5130.0
  duty_cycle: 0.058
  charge_drawn: 86.0
  charge_regen: 0.0
  energy_drawn: 0.0
  energy_regen: 0.0
  displacement: 2304.0
  distance_traveled: 10322.0
  fault_code: 0
---
header: 
  seq: 62351
  stamp: 
    secs: 1626107501
    nsecs: 796725906
  frame_id: ''
state: 
  voltage_input: 11.4
  temperature_pcb: 0.0
  current_motor: 13.48
  current_input: 1.33
  current_q: 13.69
  speed: 5103.0
  duty_cycle: 0.086
  charge_drawn: 86.0
  charge_regen: 0.0
  energy_drawn: 0.0
  energy_regen: 0.0
  displacement: 2314.0
  distance_traveled: 10332.0
  fault_code: 0
---
header: 
  seq: 62352
  stamp: 
    secs: 1626107501
    nsecs: 816984831
  frame_id: ''
state: 
  voltage_input: 11.6
  temperature_pcb: 0.0
  current_motor: 11.89
  current_input: 1.18
  current_q: 12.12
  speed: 5049.0
  duty_cycle: 0.112
  charge_drawn: 86.0
  charge_regen: 0.0
  energy_drawn: 0.0
  energy_regen: 0.0
  displacement: 2324.0
  distance_traveled: 10342.0
  fault_code: 0
---
header: 
  seq: 62353
  stamp: 
    secs: 1626107501
    nsecs: 836601735
  frame_id: ''
state: 
  voltage_input: 11.5
  temperature_pcb: 0.0
  current_motor: 8.98
  current_input: 0.84
  current_q: 8.51
  speed: 5042.0
  duty_cycle: 0.106
  charge_drawn: 86.0
  charge_regen: 0.0
  energy_drawn: 0.0
  energy_regen: 0.0
  displacement: 2334.0
  distance_traveled: 10352.0
  fault_code: 0
---
header: 
  seq: 62354
  stamp: 
    secs: 1626107501
    nsecs: 856921118
  frame_id: ''
state: 
  voltage_input: 11.4
  temperature_pcb: 0.0
  current_motor: 9.67
  current_input: 0.81
  current_q: 8.59
  speed: 5069.0
  duty_cycle: 0.079
  charge_drawn: 86.0
  charge_regen: 0.0
  energy_drawn: 0.0
  energy_regen: 0.0
  displacement: 2344.0
  distance_traveled: 10362.0
  fault_code: 0
---
header: 
  seq: 62355
  stamp: 
    secs: 1626107501
    nsecs: 877013562
  frame_id: ''
state: 
  voltage_input: 11.5
  temperature_pcb: 0.0
  current_motor: 10.12
  current_input: 0.9
  current_q: 10.02
  speed: 5094.0
  duty_cycle: 0.07
