header: 
  seq: 159365
  stamp: 
    secs: 1626109442
    nsecs:  75832858
  frame_id: ''
state: 
  voltage_input: 11.4
  temperature_pcb: 0.0
  current_motor: 0.0
  current_input: 0.0
  current_q: 0.0
  speed: 0.0
  duty_cycle: 0.0
  charge_drawn: 283.0
  charge_regen: 0.0
  energy_drawn: 0.0
  energy_regen: 0.0
  displacement: 4467.0
  distance_traveled: 22651.0
  fault_code: 0
---
header: 
  seq: 159366
  stamp: 
    secs: 1626109442
    nsecs:  95819386
  frame_id: ''
state: 
  voltage_input: 11.4
  temperature_pcb: 0.0
  current_motor: 0.0
  current_input: 0.0
  current_q: 0.0
  speed: -2.0
  duty_cycle: -0.001
  charge_drawn: 283.0
  charge_regen: 0.0
  energy_drawn: 0.0
  energy_regen: 0.0
  displacement: 4467.0
  distance_traveled: 22651.0
  fault_code: 0
---
header: 
  seq: 159367
  stamp: 
    secs: 1626109442
    nsecs: 116469364
  frame_id: ''
state: 
  voltage_input: 11.5
  temperature_pcb: 0.0
  current_motor: 0.0
  current_input: 0.0
  current_q: 0.0
  speed: -1.0
  duty_cycle: -0.001
  charge_drawn: 283.0
  charge_regen: 0.0
  energy_drawn: 0.0
  energy_regen: 0.0
  displacement: 4467.0
  distance_traveled: 22651.0
  fault_code: 0
---
header: 
  seq: 159368
  stamp: 
    secs: 1626109442
    nsecs: 135968344
  frame_id: ''
state: 
  voltage_input: 11.4
  temperature_pcb: 0.0
  current_motor: 0.0
  current_input: 0.0
  current_q: 0.0
  speed: -1.0
  duty_cycle: 0.0
  charge_drawn: 283.0
  charge_regen: 0.0
  energy_drawn: 0.0
  energy_regen: 0.0
  displacement: 4467.0
  distance_traveled: 22651.0
  fault_code: 0
---
header: 
  seq: 159369
  stamp: 
    secs: 1626109442
    nsecs: 155984094
  frame_id: ''
state: 
  voltage_input: 11.4
  temperature_pcb: 0.0
  current_motor: 0.0
  current_input: 0.0
  current_q: 0.0
  speed: 0.0
  duty_cycle: 0.0
  charge_drawn: 283.0
  charge_regen: 0.0
  energy_drawn: 0.0
  energy_regen: 0.0
  displacement: 4467.0
  distance_traveled: 22651.0
  fault_code: 0
---
header: 
  seq: 159370
  stamp: 
    secs: 1626109442
    nsecs: 176007240
  frame_id: ''
state: 
  voltage_input: 11.5
  temperature_pcb: 0.0
  current_motor: 0.0
  current_input: 0.0
  current_q: 0.0
  speed: 0.0
  duty_cycle: 0.0
  charge_drawn: 283.0
  charge_regen: 0.0
  energy_drawn: 0.0
  energy_regen: 0.0
  displacement: 4467.0
  distance_traveled: 22651.0
  fault_code: 0
---
header: 
  seq: 159371
  stamp: 
    secs: 1626109442
    nsecs: 195854223
  frame_id: ''
state: 
  voltage_input: 11.5
  temperature_pcb: 0.0
  current_motor: 0.0
  current_input: 0.0
  current_q: 0.0
  speed: 0.0
  duty_cycle: 0.0
  charge_drawn: 283.0
  charge_regen: 0.0
  energy_drawn: 0.0
  energy_regen: 0.0
  displacement: 4467.0
  distance_traveled: 22651.0
  fault_code: 0
---
header: 
  seq: 159372
  stamp: 
    secs: 1626109442
    nsecs: 215975139
  frame_id: ''
state: 
  voltage_input: 11.4
  temperature_pcb: 0.0
  current_motor: 0.0
  current_input: 0.0
  current_q: 0.0
  speed: 0.0
  duty_cycle: 0.0
  charge_drawn: 283.0
  charge_regen: 0.0
  energy_drawn: 0.0
  energy_regen: 0.0
  displacement: 4467.0
  distance_traveled: 22651.0
  fault_code: 0
---
header: 
  seq: 159373
  stamp: 
    secs: 1626109442
    nsecs: 235912131
  frame_id: ''
state: 
  voltage_input: 11.4
  temperature_pcb: 0.0
  current_motor: 0.0
  current_input: 0.0
  current_q: 0.0
  speed: 0.0
  duty_cycle: 0.0
  charge_drawn: 283.0
  charge_regen: 0.0
  energy_drawn: 0.0
  energy_regen: 0.0
  displacement: 4467.0
  distance_traveled: 22651.0
  fault_code: 0
---
header: 
  seq: 159374
  stamp: 
    secs: 1626109442
    nsecs: 256467047
  frame_id: ''
state: 
  voltage_input: 11.5
  temperature_pcb: 0.0
  current_motor: 0.0
  current_input: 0.0
  current_q: 0.0
  speed: 0.0
  duty_cycle: 0.0
  charge_drawn: 283.0
  charge_regen: 0.0
  energy_drawn: 0.0
  energy_regen: 0.0
  displacement: 4467.0
  distance_traveled: 22651.0
  fault_code: 0
---
header: 
  seq: 159375
  stamp: 
    secs: 1626109442
    nsecs: 275853413
  frame_id: ''
state: 
  voltage_input: 11.4
  temperature_pcb: 0.0
  current_motor: 0.0
  current_input: 0.0
  current_q: 0.0
  speed: 0.0
  duty_cycle: 0.0
  charge_drawn: 283.0
  charge_regen: 0.0
  energy_drawn: 0.0
  energy_regen: 0.0
  displacement: 4467.0
  distance_traveled: 22651.0
  fault_code: 0
---
header: 
  seq: 159376
  stamp: 
    secs: 1626109442
    nsecs: 295950628
  frame_id: ''
state: 
  voltage_input: 11.4
  temperature_pcb: 0.0
  current_motor: 0.0
  current_input: 0.0
  current_q: 0.0
  speed: 1.0
  duty_cycle: 0.0
  charge_drawn: 283.0
  charge_regen: 0.0
  energy_drawn: 0.0
  energy_regen: 0.0
  displacement: 4467.0
  distance_traveled: 22651.0
  fault_code: 0
---
header: 
  seq: 159377
  stamp: 
    secs: 1626109442
    nsecs: 315967628
  frame_id: ''
state: 
  voltage_input: 11.4
  temperature_pcb: 0.0
  current_motor: 0.0
  current_input: 0.0
  current_q: 0.0
  speed: 0.0
  duty_cycle: 0.0
  charge_drawn: 283.0
  charge_regen: 0.0
  energy_drawn: 0.0
  energy_regen: 0.0
  displacement: 4467.0
  distance_traveled: 22651.0
  fault_code: 0
---
header: 
  seq: 159378
  stamp: 
    secs: 1626109442
    nsecs: 335978742
  frame_id: ''
state: 
  voltage_input: 11.4
  temperature_pcb: 0.0
  current_motor: 0.0
  current_input: 0.0
  current_q: 0.0
  speed: 0.0
  duty_cycle: 0.0
  charge_drawn: 283.0
  charge_regen: 0.0
  energy_drawn: 0.0
  energy_regen: 0.0
  displacement: 4467.0
  distance_traveled: 22651.0
  fault_code: 0
---
header: 
  seq: 159379
  stamp: 
    secs: 1626109442
    nsecs: 355939069
  frame_id: ''
state: 
  voltage_input: 11.5
  temperature_pcb: 0.0
  current_motor: 0.0
  current_input: 0.0
  current_q: 0.0
  speed: 0.0
  duty_cycle: 0.0
  charge_drawn: 283.0
  charge_regen: 0.0
  energy_drawn: 0.0
  energy_regen: 0.0
  displacement: 4467.0
  distance_traveled: 22651.0
  fault_code: 0
---
header: 
  seq: 159380
  stamp: 
    secs: 1626109442
    nsecs: 375995552
  frame_id: ''
state: 
  voltage_input: 11.4
  temperature_pcb: 0.0
  current_motor: 0.0
  current_input: 0.0
  current_q: 0.0
  speed: 0.0
  duty_cycle: 0.0
  charge_drawn: 283.0
  charge_regen: 0.0
  energy_drawn: 0.0
  energy_regen: 0.0
  displacement: 4467.0
  distance_traveled: 22651.0
  fault_code: 0
---
header: 
  seq: 159381
  stamp: 
    secs: 1626109442
    nsecs: 396530466
  frame_id: ''
state: 
  voltage_input: 11.4
  temperature_pcb: 0.0
  current_motor: 0.0
  current_input: 0.0
  current_q: 0.0
  speed: 0.0
  duty_cycle: 0.0
  charge_drawn: 283.0
  charge_regen: 0.0
  energy_drawn: 0.0
  energy_regen: 0.0
  displacement: 4467.0
  distance_traveled: 22651.0
  fault_code: 0
---
header: 
  seq: 159382
  stamp: 
    secs: 1626109442
    nsecs: 415962565
  frame_id: ''
state: 
  voltage_input: 11.5
  temperature_pcb: 0.0
  current_motor: 0.0
  current_input: 0.0
  current_q: 0.0
  speed: 0.0
  duty_cycle: 0.0
  charge_drawn: 283.0
  charge_regen: 0.0
  energy_drawn: 0.0
  energy_regen: 0.0
  displacement: 4467.0
  distance_traveled: 22651.0
  fault_code: 0
---
header: 
  seq: 159383
  stamp: 
    secs: 1626109442
    nsecs: 435963782
  frame_id: ''
state: 
  voltage_input: 11.5
  temperature_pcb: 0.0
  current_motor: 0.0
  current_input: 0.0
  current_q: 0.0
  speed: 0.0
  duty_cycle: 0.0
  charge_drawn: 283.0
  charge_regen: 0.0
  energy_drawn: 0.0
  energy_regen: 0.0
  displacement: 4467.0
  distance_traveled: 22651.0
  fault_code: 0
---
header: 
  seq: 159384
  stamp: 
    secs: 1626109442
    nsecs: 455871396
  frame_id: ''
state: 
  voltage_input: 11.4
  temperature_pcb: 0.0
  current_motor: 0.0
  current_input: 0.0
  current_q: 0.0
  speed: 0.0
  duty_cycle: 0.0
  charge_drawn: 283.0
  charge_regen: 0.0
  energy_drawn: 0.0
  energy_regen: 0.0
  displacement: 4467.0
  distance_traveled: 22651.0
  fault_code: 0
---
header: 
  seq: 159385
  stamp: 
    secs: 1626109442
    nsecs: 475903033
  frame_id: ''
state: 
  voltage_input: 11.4
  temperature_pcb: 0.0
  current_motor: 0.0
  current_input: 0.0
  current_q: 0.0
  speed: 0.0
  duty_cycle: 0.0
  charge_drawn: 283.0
  charge_regen: 0.0
  energy_drawn: 0.0
  energy_regen: 0.0
  displacement: 4467.0
  distance_traveled: 22651.0
  fault_code: 0
---
header: 
  seq: 159386
  stamp: 
    secs: 1626109442
    nsecs: 495914303
  frame_id: ''
state: 
  voltage_input: 11.4
  temperature_pcb: 0.0
  current_motor: 0.0
  current_input: 0.0
  current_q: 0.0
  speed: -1.0
  duty_cycle: 0.0
  charge_drawn: 283.0
  charge_regen: 0.0
  energy_drawn: 0.0
  energy_regen: 0.0
  displacement: 4467.0
  distance_traveled: 22651.0
  fault_code: 0
---
header: 
  seq: 159387
  stamp: 
    secs: 1626109442
    nsecs: 515910155
  frame_id: ''
state: 
  voltage_input: 11.4
  temperature_pcb: 0.0
  current_motor: 0.0
  current_input: 0.0
  current_q: 0.0
  speed: 0.0
  duty_cycle: 0.0
  charge_drawn: 283.0
  charge_regen: 0.0
  energy_drawn: 0.0
  energy_regen: 0.0
  displacement: 4467.0
  distance_traveled: 22651.0
  fault_code: 0
---
header: 
  seq: 159388
  stamp: 
    secs: 1626109442
    nsecs: 536540703
  frame_id: ''
state: 
  voltage_input: 11.4
  temperature_pcb: 0.0
  current_motor: 0.0
  current_input: 0.0
  current_q: 0.0
  speed: 0.0
  duty_cycle: 0.0
  charge_drawn: 283.0
  charge_regen: 0.0
  energy_drawn: 0.0
  energy_regen: 0.0
  displacement: 4467.0
  distance_traveled: 22651.0
  fault_code: 0
---
header: 
  seq: 159389
  stamp: 
    secs: 1626109442
    nsecs: 555899722
  frame_id: ''
state: 
  voltage_input: 11.4
  temperature_pcb: 0.0
  current_motor: 0.0
  current_input: 0.0
  current_q: 0.0
  speed: 0.0
  duty_cycle: 0.0
  charge_drawn: 283.0
  charge_regen: 0.0
  energy_drawn: 0.0
  energy_regen: 0.0
  displacement: 4467.0
  distance_traveled: 22651.0
  fault_code: 0
---
header: 
  seq: 159390
  stamp: 
    secs: 1626109442
    nsecs: 576237222
  frame_id: ''
state: 
  voltage_input: 11.4
  temperature_pcb: 0.0
  current_motor: 0.0
  current_input: 0.0
  current_q: 0.0
  speed: 1.0
  duty_cycle: 0.0
  charge_drawn: 283.0
  charge_regen: 0.0
  energy_drawn: 0.0
  energy_regen: 0.0
  displacement: 4467.0
  distance_traveled: 22651.0
  fault_code: 0
---
header: 
  seq: 159391
  stamp: 
    secs: 1626109442
    nsecs: 595939608
  frame_id: ''
state: 
  voltage_input: 11.5
  temperature_pcb: 0.0
  current_motor: 0.0
  current_input: 0.0
  current_q: 0.0
  speed: 0.0
  duty_cycle: 0.0
  charge_drawn: 283.0
  charge_regen: 0.0
  energy_drawn: 0.0
  energy_regen: 0.0
  displacement: 4467.0
  distance_traveled: 22651.0
  fault_code: 0
---
header: 
  seq: 159392
  stamp: 
    secs: 1626109442
    nsecs: 615943585
  frame_id: ''
state: 
  voltage_input: 11.4
  temperature_pcb: 0.0
  current_motor: 0.0
  current_input: 0.0
  current_q: 0.0
  speed: 0.0
  duty_cycle: 0.0
  charge_drawn: 283.0
  charge_regen: 0.0
  energy_drawn: 0.0
  energy_regen: 0.0
  displacement: 4467.0
  distance_traveled: 22651.0
  fault_code: 0
---
header: 
  seq: 159393
  stamp: 
    secs: 1626109442
    nsecs: 635943083
  frame_id: ''
state: 
  voltage_input: 11.4
  temperature_pcb: 0.0
  current_motor: 0.0
  current_input: 0.0
  current_q: 0.0
  speed: 0.0
  duty_cycle: 0.0
  charge_drawn: 283.0
  charge_regen: 0.0
  energy_drawn: 0.0
  energy_regen: 0.0
  displacement: 4467.0
  distance_traveled: 22651.0
  fault_code: 0
---
header: 
  seq: 159394
  stamp: 
    secs: 1626109442
    nsecs: 655944977
  frame_id: ''
state: 
  voltage_input: 11.5
  temperature_pcb: 0.0
  current_motor: 0.0
  current_input: 0.0
  current_q: 0.0
  speed: 0.0
  duty_cycle: 0.0
  charge_drawn: 283.0
  charge_regen: 0.0
  energy_drawn: 0.0
  energy_regen: 0.0
  displacement: 4467.0
  distance_traveled: 22651.0
  fault_code: 0
---
header: 
  seq: 159395
  stamp: 
    secs: 1626109442
    nsecs: 675848633
  frame_id: ''
state: 
  voltage_input: 11.5
  temperature_pcb: 0.0
  current_motor: 0.0
  current_input: 0.0
  current_q: 0.0
  speed: 0.0
  duty_cycle: 0.0
  charge_drawn: 283.0
  charge_regen: 0.0
  energy_drawn: 0.0
  energy_regen: 0.0
  displacement: 4467.0
  distance_traveled: 22651.0
  fault_code: 0
---
header: 
  seq: 159396
  stamp: 
    secs: 1626109442
    nsecs: 695934233
  frame_id: ''
state: 
  voltage_input: 11.4
  temperature_pcb: 0.0
  current_motor: 0.0
  current_input: 0.0
  current_q: 0.0
  speed: 0.0
  duty_cycle: 0.0
  charge_drawn: 283.0
  charge_regen: 0.0
  energy_drawn: 0.0
  energy_regen: 0.0
  displacement: 4467.0
  distance_traveled: 22651.0
  fault_code: 0
---
header: 
  seq: 159397
  stamp: 
    secs: 1626109442
    nsecs: 715961858
  frame_id: ''
state: 
  voltage_input: 11.5
  temperature_pcb: 0.0
  current_motor: 0.0
  current_input: 0.0
  current_q: 0.0
  speed: 2.0
  duty_cycle: 0.0
  charge_drawn: 283.0
  charge_regen: 0.0
  energy_drawn: 0.0
  energy_regen: 0.0
  displacement: 4467.0
  distance_traveled: 22651.0
  fault_code: 0
---
header: 
  seq: 159398
  stamp: 
    secs: 1626109442
    nsecs: 735790298
  frame_id: ''
state: 
  voltage_input: 11.4
  temperature_pcb: 0.0
  current_motor: 0.0
  current_input: 0.0
  current_q: 0.0
  speed: 2.0
  duty_cycle: -0.001
  charge_drawn: 283.0
  charge_regen: 0.0
  energy_drawn: 0.0
  energy_regen: 0.0
  displacement: 4467.0
  distance_traveled: 22651.0
  fault_code: 0
---
header: 
  seq: 159399
  stamp: 
    secs: 1626109442
    nsecs: 755885847
  frame_id: ''
state: 
  voltage_input: 11.4
  temperature_pcb: 0.0
  current_motor: 0.0
  current_input: 0.0
  current_q: 0.0
  speed: 2.0
  duty_cycle: 0.0
  charge_drawn: 283.0
  charge_regen: 0.0
  energy_drawn: 0.0
  energy_regen: 0.0
  displacement: 4467.0
  distance_traveled: 22651.0
  fault_code: 0
---
header: 
  seq: 159400
  stamp: 
    secs: 1626109442
    nsecs: 775893419
  frame_id: ''
state: 
  voltage_input: 11.5
  temperature_pcb: 0.0
  current_motor: 0.0
  current_input: 0.0
  current_q: 0.0
  speed: 1.0
  duty_cycle: 0.0
  charge_drawn: 283.0
  charge_regen: 0.0
  energy_drawn: 0.0
  energy_regen: 0.0
  displacement: 4467.0
  distance_traveled: 22651.0
  fault_code: 0
---
header: 
  seq: 159401
  stamp: 
    secs: 1626109442
    nsecs: 795954381
  frame_id: ''
state: 
  voltage_input: 11.4
  temperature_pcb: 0.0
  current_motor: 0.0
  current_input: 0.0
  current_q: 0.0
  speed: 1.0
  duty_cycle: 0.0
  charge_drawn: 283.0
  charge_regen: 0.0
  energy_drawn: 0.0
  energy_regen: 0.0
  displacement: 4467.0
  distance_traveled: 22651.0
  fault_code: 0
---
header: 
  seq: 159402
  stamp: 
    secs: 1626109442
    nsecs: 815995549
  frame_id: ''
state: 
  voltage_input: 11.4
  temperature_pcb: 0.0
  current_motor: 0.0
  current_input: 0.0
  current_q: 0.0
  speed: 1.0
  duty_cycle: 0.0
  charge_drawn: 283.0
  charge_regen: 0.0
  energy_drawn: 0.0
  energy_regen: 0.0
  displacement: 4467.0
  distance_traveled: 22651.0
  fault_code: 0
---
header: 
  seq: 159403
  stamp: 
    secs: 1626109442
    nsecs: 835909206
  frame_id: ''
state: 
  voltage_input: 11.4
  temperature_pcb: 0.0
  current_motor: 0.0
  current_input: 0.0
  current_q: 0.0
  speed: 1.0
  duty_cycle: 0.0
  charge_drawn: 283.0
  charge_regen: 0.0
  energy_drawn: 0.0
  energy_regen: 0.0
  displacement: 4467.0
  distance_traveled: 22651.0
  fault_code: 0
---
header: 
  seq: 159404
  stamp: 
    secs: 1626109442
    nsecs: 856121381
  frame_id: ''
state: 
  voltage_input: 11.4
  temperature_pcb: 0.0
  current_motor: 0.0
  current_input: 0.0
  current_q: 0.0
  speed: 0.0
  duty_cycle: 0.0
  charge_drawn: 283.0
  charge_regen: 0.0
  energy_drawn: 0.0
  energy_regen: 0.0
  displacement: 4467.0
  distance_traveled: 22651.0
  fault_code: 0
---
header: 
  seq: 159405
  stamp: 
    secs: 1626109442
    nsecs: 875927526
  frame_id: ''
state: 
  voltage_input: 11.5
  temperature_pcb: 0.0
  current_motor: 0.0
  current_input: 0.0
  current_q: 0.0
  speed: 1.0
  duty_cycle: 0.0
  charge_drawn: 283.0
  charge_regen: 0.0
  energy_drawn: 0.0
  energy_regen: 0.0
  displacement: 4467.0
  distance_traveled: 22651.0
  fault_code: 0
---
header: 
  seq: 159406
  stamp: 
    secs: 1626109442
    nsecs: 896001198
  frame_id: ''
state: 
  voltage_input: 11.4
  temperature_pcb: 0.0
  current_motor: 0.0
  current_input: 0.0
  current_q: 0.0
  speed: 0.0
  duty_cycle: 0.0
  charge_drawn: 283.0
  charge_regen: 0.0
  energy_drawn: 0.0
  energy_regen: 0.0
  displacement: 4467.0
  distance_traveled: 22651.0
  fault_code: 0
---
header: 
  seq: 159407
  stamp: 
    secs: 1626109442
    nsecs: 915824221
  frame_id: ''
state: 
  voltage_input: 11.4
  temperature_pcb: 0.0
  current_motor: 0.0
  current_input: 0.0
  current_q: 0.0
  speed: -1.0
  duty_cycle: 0.0
  charge_drawn: 283.0
  charge_regen: 0.0
  energy_drawn: 0.0
  energy_regen: 0.0
  displacement: 4467.0
  distance_traveled: 22651.0
  fault_code: 0
---
header: 
  seq: 159408
  stamp: 
    secs: 1626109442
    nsecs: 935976338
  frame_id: ''
state: 
  voltage_input: 11.5
  temperature_pcb: 0.0
  current_motor: 0.0
  current_input: 0.0
  current_q: 0.0
  speed: 0.0
  duty_cycle: 0.0
  charge_drawn: 283.0
  charge_regen: 0.0
  energy_drawn: 0.0
  energy_regen: 0.0
  displacement: 4467.0
  distance_traveled: 22651.0
  fault_code: 0
---
header: 
  seq: 159409
  stamp: 
    secs: 1626109442
    nsecs: 956940773
  frame_id: ''
state: 
  voltage_input: 11.4
  temperature_pcb: 0.0
  current_motor: 0.0
  current_input: 0.0
  current_q: 0.0
  speed: 0.0
  duty_cycle: 0.0
  charge_drawn: 283.0
  charge_regen: 0.0
  energy_drawn: 0.0
  energy_regen: 0.0
  displacement: 4467.0
  distance_traveled: 22651.0
  fault_code: 0
---
header: 
  seq: 159410
  stamp: 
    secs: 1626109442
    nsecs: 976221868
  frame_id: ''
state: 
  voltage_input: 11.5
  temperature_pcb: 0.0
  current_motor: 0.0
  current_input: 0.0
  current_q: 0.0
  speed: 0.0
  duty_cycle: 0.0
  charge_drawn: 283.0
  charge_regen: 0.0
  energy_drawn: 0.0
  energy_regen: 0.0
  displacement: 4467.0
  distance_traveled: 22651.0
  fault_code: 0
---
header: 
  seq: 159411
  stamp: 
    secs: 1626109442
    nsecs: 996745167
  frame_id: ''
state: 
  voltage_input: 11.4
  temperature_pcb: 0.0
  current_motor: 0.0
  current_input: 0.0
  current_q: 0.0
  speed: -1.0
  duty_cycle: 0.0
  charge_drawn: 283.0
  charge_regen: 0.0
  energy_drawn: 0.0
  energy_regen: 0.0
  displacement: 4467.0
  distance_traveled: 22651.0
  fault_code: 0
---
header: 
  seq: 159412
  stamp: 
    secs: 1626109443
    nsecs:  16485988
  frame_id: ''
state: 
  voltage_input: 11.4
  temperature_pcb: 0.0
  current_motor: 0.0
  current_input: 0.0
  current_q: 0.0
  speed: 0.0
  duty_cycle: 0.0
  charge_drawn: 283.0
  charge_regen: 0.0
  energy_drawn: 0.0
  energy_regen: 0.0
  displacement: 4467.0
  distance_traveled: 22651.0
  fault_code: 0
---
header: 
  seq: 159413
  stamp: 
    secs: 1626109443
    nsecs:  36767120
  frame_id: ''
state: 
  voltage_input: 11.4
  temperature_pcb: 0.0
  current_motor: 0.0
  current_input: 0.0
  current_q: 0.0
  speed: -2.0
  duty_cycle: 0.0
  charge_drawn: 283.0
  charge_regen: 0.0
  energy_drawn: 0.0
  energy_regen: 0.0
  displacement: 4467.0
  distance_traveled: 22651.0
  fault_code: 0
---
header: 
  seq: 159414
  stamp: 
    secs: 1626109443
    nsecs:  56399751
  frame_id: ''
state: 
  voltage_input: 11.4
  temperature_pcb: 0.0
  current_motor: 0.0
  current_input: 0.0
  current_q: 0.0
  speed: -1.0
  duty_cycle: 0.0
  charge_drawn: 283.0
  charge_regen: 0.0
  energy_drawn: 0.0
  energy_regen: 0.0
  displacement: 4467.0
  distance_traveled: 22651.0
  fault_code: 0
---
header: 
  seq: 159415
  stamp: 
    secs: 1626109443
    nsecs:  76866005
  frame_id: ''
state: 
  voltage_input: 11.4
  temperature_pcb: 0.0
  current_motor: 0.0
  current_input: 0.0
  current_q: 0.0
  speed: 0.0
  duty_cycle: 0.0
  charge_drawn: 283.0
  charge_regen: 0.0
  energy_drawn: 0.0
  energy_regen: 0.0
  displacement: 4467.0
  distance_traveled: 22651.0
  fault_code: 0
---
header: 
  seq: 159416
  stamp: 
    secs: 1626109443
    nsecs:  96007756
  frame_id: ''
state: 
  voltage_input: 11.4
  temperature_pcb: 0.0
  current_motor: 0.0
  current_input: 0.0
  current_q: 0.0
  speed: 0.0
  duty_cycle: 0.0
  charge_drawn: 283.0
  charge_regen: 0.0
  energy_drawn: 0.0
  energy_regen: 0.0
  displacement: 4467.0
  distance_traveled: 22651.0
  fault_code: 0
---
header: 
  seq: 159417
  stamp: 
    secs: 1626109443
    nsecs: 115932864
  frame_id: ''
state: 
  voltage_input: 11.4
  temperature_pcb: 0.0
  current_motor: 0.0
  current_input: 0.0
  current_q: 0.0
  speed: 0.0
  duty_cycle: 0.0
  charge_drawn: 283.0
  charge_regen: 0.0
  energy_drawn: 0.0
  energy_regen: 0.0
  displacement: 4467.0
  distance_traveled: 22651.0
  fault_code: 0
---
header: 
  seq: 159418
  stamp: 
    secs: 1626109443
    nsecs: 136115600
  frame_id: ''
state: 
  voltage_input: 11.4
  temperature_pcb: 0.0
  current_motor: 0.0
  current_input: 0.0
  current_q: 0.0
  speed: -1.0
  duty_cycle: 0.0
  charge_drawn: 283.0
  charge_regen: 0.0
  energy_drawn: 0.0
  energy_regen: 0.0
  displacement: 4467.0
  distance_traveled: 22651.0
  fault_code: 0
---
header: 
  seq: 159419
  stamp: 
    secs: 1626109443
    nsecs: 155977004
  frame_id: ''
state: 
  voltage_input: 11.5
  temperature_pcb: 0.0
  current_motor: 0.0
  current_input: 0.0
  current_q: 0.0
  speed: 0.0
  duty_cycle: 0.0
  charge_drawn: 283.0
  charge_regen: 0.0
  energy_drawn: 0.0
  energy_regen: 0.0
  displacement: 4467.0
  distance_traveled: 22651.0
  fault_code: 0
---
header: 
  seq: 159420
  stamp: 
    secs: 1626109443
    nsecs: 175993944
  frame_id: ''
state: 
  voltage_input: 11.4
  temperature_pcb: 0.0
  current_motor: 0.0
  current_input: 0.0
  current_q: 0.0
  speed: 0.0
  duty_cycle: 0.0
  charge_drawn: 283.0
  charge_regen: 0.0
  energy_drawn: 0.0
  energy_regen: 0.0
  displacement: 4467.0
  distance_traveled: 22651.0
  fault_code: 0
---
header: 
  seq: 159421
  stamp: 
    secs: 1626109443
    nsecs: 196889354
  frame_id: ''
state: 
  voltage_input: 11.5
  temperature_pcb: 0.0
  current_motor: 0.0
  current_input: 0.0
  current_q: 0.0
  speed: 0.0
  duty_cycle: 0.0
  charge_drawn: 283.0
  charge_regen: 0.0
  energy_drawn: 0.0
  energy_regen: 0.0
  displacement: 4467.0
  distance_traveled: 22651.0
  fault_code: 0
---
header: 
  seq: 159422
  stamp: 
    secs: 1626109443
    nsecs: 217622457
  frame_id: ''
state: 
  voltage_input: 11.4
  temperature_pcb: 0.0
  current_motor: 0.0
  current_input: 0.0
  current_q: 0.0
  speed: -1.0
  duty_cycle: 0.0
  charge_drawn: 283.0
  charge_regen: 0.0
  energy_drawn: 0.0
  energy_regen: 0.0
  displacement: 4467.0
  distance_traveled: 22651.0
  fault_code: 0
---
header: 
  seq: 159423
  stamp: 
    secs: 1626109443
    nsecs: 237321553
  frame_id: ''
state: 
  voltage_input: 11.4
  temperature_pcb: 0.0
  current_motor: 0.0
  current_input: 0.0
  current_q: 0.0
  speed: -1.0
  duty_cycle: 0.0
  charge_drawn: 283.0
  charge_regen: 0.0
  energy_drawn: 0.0
  energy_regen: 0.0
  displacement: 4467.0
  distance_traveled: 22651.0
  fault_code: 0
---
header: 
  seq: 159424
  stamp: 
    secs: 1626109443
    nsecs: 256000707
  frame_id: ''
state: 
  voltage_input: 11.4
  temperature_pcb: 0.0
  current_motor: 0.0
  current_input: 0.0
  current_q: 0.0
  speed: 0.0
  duty_cycle: 0.0
  charge_drawn: 283.0
  charge_regen: 0.0
  energy_drawn: 0.0
  energy_regen: 0.0
  displacement: 4467.0
  distance_traveled: 22651.0
  fault_code: 0
---
header: 
  seq: 159425
  stamp: 
    secs: 1626109443
    nsecs: 276433676
  frame_id: ''
state: 
  voltage_input: 11.4
  temperature_pcb: 0.0
  current_motor: 0.0
  current_input: 0.0
  current_q: 0.0
  speed: -1.0
  duty_cycle: 0.0
  charge_drawn: 283.0
  charge_regen: 0.0
  energy_drawn: 0.0
  energy_regen: 0.0
  displacement: 4467.0
  distance_traveled: 22651.0
  fault_code: 0
---
header: 
  seq: 159426
  stamp: 
    secs: 1626109443
    nsecs: 297403208
  frame_id: ''
state: 
  voltage_input: 11.5
  temperature_pcb: 0.0
  current_motor: 0.0
  current_input: 0.0
  current_q: 0.0
  speed: -2.0
  duty_cycle: 0.0
  charge_drawn: 283.0
  charge_regen: 0.0
  energy_drawn: 0.0
  energy_regen: 0.0
  displacement: 4467.0
  distance_traveled: 22651.0
  fault_code: 0
---
header: 
  seq: 159427
  stamp: 
    secs: 1626109443
    nsecs: 317064332
  frame_id: ''
state: 
  voltage_input: 11.4
  temperature_pcb: 0.0
  current_motor: 0.0
  current_input: 0.0
  current_q: 0.0
  speed: -1.0
  duty_cycle: 0.0
  charge_drawn: 283.0
  charge_regen: 0.0
  energy_drawn: 0.0
  energy_regen: 0.0
  displacement: 4467.0
  distance_traveled: 22651.0
  fault_code: 0
---
header: 
  seq: 159428
  stamp: 
    secs: 1626109443
    nsecs: 337044549
  frame_id: ''
state: 
  voltage_input: 11.4
  temperature_pcb: 0.0
  current_motor: 0.0
  current_input: 0.0
  current_q: 0.0
  speed: 0.0
  duty_cycle: 0.0
  charge_drawn: 283.0
  charge_regen: 0.0
  energy_drawn: 0.0
  energy_regen: 0.0
  displacement: 4467.0
  distance_traveled: 22651.0
  fault_code: 0
---
header: 
  seq: 159429
  stamp: 
    secs: 1626109443
    nsecs: 357435223
  frame_id: ''
state: 
  voltage_input: 11.5
  temperature_pcb: 0.0
  current_motor: 0.0
  current_input: 0.0
  current_q: 0.0
  speed: 0.0
  duty_cycle: 0.0
  charge_drawn: 283.0
  charge_regen: 0.0
  energy_drawn: 0.0
  energy_regen: 0.0
  displacement: 4467.0
  distance_traveled: 22651.0
  fault_code: 0
---
header: 
  seq: 159430
  stamp: 
    secs: 1626109443
    nsecs: 377223703
  frame_id: ''
state: 
  voltage_input: 11.4
  temperature_pcb: 0.0
  current_motor: 0.0
  current_input: 0.0
  current_q: 0.0
  speed: 0.0
  duty_cycle: 0.0
  charge_drawn: 283.0
  charge_regen: 0.0
  energy_drawn: 0.0
  energy_regen: 0.0
  displacement: 4467.0
  distance_traveled: 22651.0
  fault_code: 0
---
header: 
  seq: 159431
  stamp: 
    secs: 1626109443
    nsecs: 396746480
  frame_id: ''
state: 
  voltage_input: 11.5
  temperature_pcb: 0.0
  current_motor: 0.0
  current_input: 0.0
  current_q: 0.0
  speed: 0.0
  duty_cycle: -0.001
  charge_drawn: 283.0
  charge_regen: 0.0
  energy_drawn: 0.0
  energy_regen: 0.0
  displacement: 4467.0
  distance_traveled: 22651.0
  fault_code: 0
---
header: 
  seq: 159432
  stamp: 
    secs: 1626109443
    nsecs: 417197732
  frame_id: ''
state: 
  voltage_input: 11.4
  temperature_pcb: 0.0
  current_motor: 0.0
  current_input: 0.0
  current_q: 0.0
  speed: 0.0
  duty_cycle: 0.0
  charge_drawn: 283.0
  charge_regen: 0.0
  energy_drawn: 0.0
  energy_regen: 0.0
  displacement: 4467.0
  distance_traveled: 22651.0
  fault_code: 0
---
header: 
  seq: 159433
  stamp: 
    secs: 1626109443
    nsecs: 437794051
  frame_id: ''
state: 
  voltage_input: 11.4
  temperature_pcb: 0.0
  current_motor: 6.06
  current_input: 0.11
  current_q: 6.4
  speed: 188.0
  duty_cycle: 0.02
  charge_drawn: 283.0
  charge_regen: 0.0
  energy_drawn: 0.0
  energy_regen: 0.0
  displacement: 4468.0
  distance_traveled: 22652.0
  fault_code: 0
---
header: 
  seq: 159434
  stamp: 
    secs: 1626109443
    nsecs: 457145145
  frame_id: ''
state: 
  voltage_input: 11.5
  temperature_pcb: 0.0
  current_motor: 9.99
  current_input: 0.17
  current_q: 9.98
  speed: 158.0
  duty_cycle: 0.02
  charge_drawn: 283.0
  charge_regen: 0.0
  energy_drawn: 0.0
  energy_regen: 0.0
  displacement: 4468.0
  distance_traveled: 22652.0
  fault_code: 0
---
header: 
  seq: 159435
  stamp: 
    secs: 1626109443
    nsecs: 476957013
  frame_id: ''
state: 
  voltage_input: 11.5
  temperature_pcb: 0.0
  current_motor: 10.0
  current_input: 0.17
  current_q: 9.97
  speed: 150.0
  duty_cycle: 0.02
  charge_drawn: 283.0
  charge_regen: 0.0
  energy_drawn: 0.0
  energy_regen: 0.0
  displacement: 4469.0
  distance_traveled: 22653.0
  fault_code: 0
---
header: 
  seq: 159436
  stamp: 
    secs: 1626109443
    nsecs: 498383047
  frame_id: ''
state: 
  voltage_input: 11.4
  temperature_pcb: 0.0
  current_motor: 9.96
  current_input: 0.17
  current_q: 9.96
  speed: 160.0
  duty_cycle: 0.02
  charge_drawn: 283.0
  charge_regen: 0.0
  energy_drawn: 0.0
  energy_regen: 0.0
  displacement: 4469.0
  distance_traveled: 22653.0
  fault_code: 0
---
header: 
  seq: 159437
  stamp: 
    secs: 1626109443
    nsecs: 516311243
  frame_id: ''
state: 
  voltage_input: 11.4
  temperature_pcb: 0.0
  current_motor: 10.1
  current_input: 0.17
  current_q: 10.1
  speed: 182.0
  duty_cycle: 0.019
  charge_drawn: 283.0
  charge_regen: 0.0
  energy_drawn: 0.0
  energy_regen: 0.0
  displacement: 4470.0
  distance_traveled: 22654.0
  fault_code: 0
---
header: 
  seq: 159438
  stamp: 
    secs: 1626109443
    nsecs: 537124509
  frame_id: ''
state: 
  voltage_input: 11.4
  temperature_pcb: 0.0
  current_motor: 9.9
  current_input: 0.17
  current_q: 9.87
  speed: 211.0
  duty_cycle: 0.022
  charge_drawn: 283.0
  charge_regen: 0.0
  energy_drawn: 0.0
  energy_regen: 0.0
  displacement: 4470.0
  distance_traveled: 22654.0
  fault_code: 0
---
header: 
  seq: 159439
  stamp: 
    secs: 1626109443
    nsecs: 557536071
  frame_id: ''
state: 
  voltage_input: 11.5
  temperature_pcb: 0.0
  current_motor: 9.94
  current_input: 0.21
  current_q: 9.94
  speed: 233.0
  duty_cycle: 0.026
  charge_drawn: 283.0
  charge_regen: 0.0
  energy_drawn: 0.0
  energy_regen: 0.0
  displacement: 4471.0
  distance_traveled: 22655.0
  fault_code: 0
---
header: 
  seq: 159440
  stamp: 
    secs: 1626109443
    nsecs: 576825335
  frame_id: ''
state: 
  voltage_input: 11.4
  temperature_pcb: 0.0
  current_motor: 10.05
  current_input: 0.19
  current_q: 9.91
  speed: 386.0
  duty_cycle: 0.026
  charge_drawn: 283.0
  charge_regen: 0.0
  energy_drawn: 0.0
  energy_regen: 0.0
  displacement: 4472.0
  distance_traveled: 22656.0
  fault_code: 0
---
header: 
  seq: 159441
  stamp: 
    secs: 1626109443
    nsecs: 597959779
  frame_id: ''
state: 
  voltage_input: 11.4
  temperature_pcb: 0.0
  current_motor: 10.33
  current_input: 0.19
  current_q: 10.3
  speed: 383.0
  duty_cycle: 0.021
  charge_drawn: 283.0
  charge_regen: 0.0
  energy_drawn: 0.0
  energy_regen: 0.0
  displacement: 4473.0
  distance_traveled: 22657.0
  fault_code: 0
---
header: 
  seq: 159442
  stamp: 
    secs: 1626109443
    nsecs: 616396357
  frame_id: ''
state: 
  voltage_input: 11.5
  temperature_pcb: 0.0
  current_motor: 10.09
  current_input: 0.17
  current_q: 10.12
  speed: 357.0
  duty_cycle: 0.019
  charge_drawn: 283.0
  charge_regen: 0.0
  energy_drawn: 0.0
  energy_regen: 0.0
  displacement: 4474.0
  distance_traveled: 22658.0
  fault_code: 0
---
header: 
  seq: 159443
  stamp: 
    secs: 1626109443
    nsecs: 637131908
  frame_id: ''
state: 
  voltage_input: 11.4
  temperature_pcb: 0.0
  current_motor: 9.9
  current_input: 0.17
  current_q: 9.88
  speed: 345.0
  duty_cycle: 0.021
  charge_drawn: 283.0
  charge_regen: 0.0
  energy_drawn: 0.0
  energy_regen: 0.0
  displacement: 4474.0
  distance_traveled: 22658.0
  fault_code: 0
---
header: 
  seq: 159444
  stamp: 
    secs: 1626109443
    nsecs: 657495183
  frame_id: ''
state: 
  voltage_input: 11.5
  temperature_pcb: 0.0
  current_motor: 9.59
  current_input: 0.18
  current_q: 9.48
  speed: 380.0
  duty_cycle: 0.03
  charge_drawn: 283.0
  charge_regen: 0.0
  energy_drawn: 0.0
  energy_regen: 0.0
  displacement: 4475.0
  distance_traveled: 22659.0
  fault_code: 0
---
header: 
  seq: 159445
  stamp: 
    secs: 1626109443
    nsecs: 677175424
  frame_id: ''
state: 
  voltage_input: 11.4
  temperature_pcb: 0.0
  current_motor: 10.78
  current_input: 0.2
  current_q: 10.66
  speed: 361.0
  duty_cycle: 0.019
  charge_drawn: 283.0
  charge_regen: 0.0
  energy_drawn: 0.0
  energy_regen: 0.0
  displacement: 4476.0
  distance_traveled: 22660.0
  fault_code: 0
---
header: 
  seq: 159446
  stamp: 
    secs: 1626109443
    nsecs: 696986510
  frame_id: ''
state: 
  voltage_input: 11.4
  temperature_pcb: 0.0
  current_motor: 8.55
  current_input: 0.21
  current_q: 8.48
  speed: 584.0
  duty_cycle: 0.046
  charge_drawn: 283.0
  charge_regen: 0.0
  energy_drawn: 0.0
  energy_regen: 0.0
  displacement: 4478.0
  distance_traveled: 22662.0
  fault_code: 0
---
header: 
  seq: 159447
  stamp: 
    secs: 1626109443
    nsecs: 717089968
  frame_id: ''
state: 
  voltage_input: 11.5
  temperature_pcb: 0.0
  current_motor: 12.07
  current_input: 0.39
  current_q: 12.06
  speed: 772.0
  duty_cycle: 0.016
  charge_drawn: 284.0
  charge_regen: 0.0
  energy_drawn: 0.0
  energy_regen: 0.0
  displacement: 4481.0
  distance_traveled: 22665.0
  fault_code: 0
---
header: 
  seq: 159448
  stamp: 
    secs: 1626109443
    nsecs: 737013878
  frame_id: ''
state: 
  voltage_input: 11.4
  temperature_pcb: 0.0
  current_motor: 9.66
  current_input: 0.15
  current_q: 9.6
  speed: 623.0
  duty_cycle: 0.02
  charge_drawn: 284.0
  charge_regen: 0.0
  energy_drawn: 0.0
  energy_regen: 0.0
  displacement: 4481.0
  distance_traveled: 22665.0
  fault_code: 0
---
header: 
  seq: 159449
  stamp: 
    secs: 1626109443
    nsecs: 756676461
  frame_id: ''
state: 
  voltage_input: 11.4
  temperature_pcb: 0.0
  current_motor: 9.26
  current_input: 0.18
  current_q: 9.13
  speed: 651.0
  duty_cycle: 0.034
  charge_drawn: 284.0
  charge_regen: 0.0
  energy_drawn: 0.0
  energy_regen: 0.0
  displacement: 4483.0
  distance_traveled: 22667.0
  fault_code: 0
---
header: 
  seq: 159450
  stamp: 
    secs: 1626109443
    nsecs: 776308727
  frame_id: ''
state: 
  voltage_input: 11.5
  temperature_pcb: 0.0
  current_motor: 10.89
  current_input: 0.2
  current_q: 10.63
  speed: 555.0
  duty_cycle: 0.023
  charge_drawn: 284.0
  charge_regen: 0.0
  energy_drawn: 0.0
  energy_regen: 0.0
  displacement: 4483.0
  distance_traveled: 22667.0
  fault_code: 0
---
header: 
  seq: 159451
  stamp: 
    secs: 1626109443
    nsecs: 796905046
  frame_id: ''
state: 
  voltage_input: 11.4
  temperature_pcb: 0.0
  current_motor: 9.38
  current_input: 0.29
  current_q: 9.15
  speed: 936.0
  duty_cycle: 0.043
  charge_drawn: 284.0
  charge_regen: 0.0
  energy_drawn: 0.0
  energy_regen: 0.0
  displacement: 4487.0
  distance_traveled: 22671.0
  fault_code: 0
---
header: 
  seq: 159452
  stamp: 
    secs: 1626109443
    nsecs: 817427295
  frame_id: ''
state: 
  voltage_input: 11.5
  temperature_pcb: 0.0
  current_motor: 11.44
  current_input: 0.24
  current_q: 11.32
  speed: 792.0
  duty_cycle: 0.019
  charge_drawn: 284.0
  charge_regen: 0.0
  energy_drawn: 0.0
  energy_regen: 0.0
  displacement: 4488.0
  distance_traveled: 22672.0
  fault_code: 0
---
header: 
  seq: 159453
  stamp: 
    secs: 1626109443
    nsecs: 836936946
  frame_id: ''
state: 
  voltage_input: 11.5
  temperature_pcb: 0.0
  current_motor: 9.1
  current_input: 0.16
  current_q: 8.98
  speed: 750.0
  duty_cycle: 0.034
  charge_drawn: 284.0
  charge_regen: 0.0
  energy_drawn: 0.0
  energy_regen: 0.0
  displacement: 4489.0
  distance_traveled: 22673.0
  fault_code: 0
---
header: 
  seq: 159454
  stamp: 
    secs: 1626109443
    nsecs: 856900130
  frame_id: ''
state: 
  voltage_input: 11.4
  temperature_pcb: 0.0
  current_motor: 10.7
  current_input: 0.21
  current_q: 10.34
  speed: 707.0
  duty_cycle: 0.029
  charge_drawn: 284.0
  charge_regen: 0.0
  energy_drawn: 0.0
  energy_regen: 0.0
  displacement: 4490.0
  distance_traveled: 22674.0
  fault_code: 0
---
header: 
  seq: 159455
  stamp: 
    secs: 1626109443
    nsecs: 876947125
  frame_id: ''
state: 
  voltage_input: 11.4
  temperature_pcb: 0.0
  current_motor: 10.79
  current_input: 0.29
  current_q: 10.48
  speed: 1045.0
  duty_cycle: 0.027
  charge_drawn: 284.0
  charge_regen: 0.0
  energy_drawn: 0.0
  energy_regen: 0.0
  displacement: 4494.0
  distance_traveled: 22678.0
  fault_code: 0
---
header: 
  seq: 159456
  stamp: 
    secs: 1626109443
    nsecs: 896706748
  frame_id: ''
state: 
  voltage_input: 11.4
  temperature_pcb: 0.0
  current_motor: 10.26
  current_input: 0.16
  current_q: 10.13
  speed: 823.0
  duty_cycle: 0.02
  charge_drawn: 284.0
  charge_regen: 0.0
  energy_drawn: 0.0
  energy_regen: 0.0
  displacement: 4495.0
  distance_traveled: 22679.0
  fault_code: 0
---
header: 
  seq: 159457
  stamp: 
    secs: 1626109443
    nsecs: 916888391
  frame_id: ''
state: 
  voltage_input: 11.5
  temperature_pcb: 0.0
  current_motor: 9.45
  current_input: 0.17
  current_q: 9.35
  speed: 732.0
  duty_cycle: 0.029
  charge_drawn: 284.0
  charge_regen: 0.0
  energy_drawn: 0.0
  energy_regen: 0.0
  displacement: 4496.0
  distance_traveled: 22680.0
  fault_code: 0
---
header: 
  seq: 159458
  stamp: 
    secs: 1626109443
    nsecs: 937075399
  frame_id: ''
state: 
  voltage_input: 11.5
  temperature_pcb: 0.0
  current_motor: 10.44
  current_input: 0.2
  current_q: 10.24
  speed: 655.0
  duty_cycle: 0.024
  charge_drawn: 284.0
  charge_regen: 0.0
  energy_drawn: 0.0
  energy_regen: 0.0
  displacement: 4497.0
  distance_traveled: 22683.0
  fault_code: 0
---
header: 
  seq: 159459
  stamp: 
    secs: 1626109443
    nsecs: 956853930
  frame_id: ''
state: 
  voltage_input: 11.4
  temperature_pcb: 0.0
  current_motor: 9.24
  current_input: 0.25
  current_q: 9.1
  speed: 929.0
  duty_cycle: 0.042
  charge_drawn: 284.0
  charge_regen: 0.0
  energy_drawn: 0.0
  energy_regen: 0.0
  displacement: 4500.0
  distance_traveled: 22686.0
  fault_code: 0
---
header: 
  seq: 159460
  stamp: 
    secs: 1626109443
    nsecs: 977170951
  frame_id: ''
state: 
  voltage_input: 11.4
  temperature_pcb: 0.0
  current_motor: 11.47
  current_input: 0.26
  current_q: 11.33
  speed: 836.0
  duty_cycle: 0.019
  charge_drawn: 284.0
  charge_regen: 0.0
  energy_drawn: 0.0
  energy_regen: 0.0
  displacement: 4501.0
  distance_traveled: 22687.0
  fault_code: 0
---
header: 
  seq: 159461
  stamp: 
    secs: 1626109443
    nsecs: 997112310
  frame_id: ''
state: 
  voltage_input: 11.5
  temperature_pcb: 0.0
  current_motor: 9.84
  current_input: 0.16
  current_q: 9.84
  speed: 681.0
  duty_cycle: 0.019
  charge_drawn: 284.0
  charge_regen: 0.0
  energy_drawn: 0.0
  energy_regen: 0.0
  displacement: 4502.0
  distance_traveled: 22688.0
  fault_code: 0
---
header: 
  seq: 159462
  stamp: 
    secs: 1626109444
    nsecs:  17153725
  frame_id: ''
state: 
  voltage_input: 11.4
  temperature_pcb: 0.0
  current_motor: 9.66
  current_input: 0.2
  current_q: 9.54
  speed: 723.0
  duty_cycle: 0.03
  charge_drawn: 284.0
  charge_regen: 0.0
  energy_drawn: 0.0
  energy_regen: 0.0
  displacement: 4503.0
  distance_traveled: 22689.0
  fault_code: 0
---
header: 
  seq: 159463
  stamp: 
    secs: 1626109444
    nsecs:  37297388
  frame_id: ''
state: 
  voltage_input: 11.4
  temperature_pcb: 0.0
  current_motor: 10.34
  current_input: 0.18
  current_q: 9.92
  speed: 644.0
  duty_cycle: 0.028
  charge_drawn: 284.0
  charge_regen: 0.0
  energy_drawn: 0.0
  energy_regen: 0.0
  displacement: 4504.0
  distance_traveled: 22690.0
  fault_code: 0
---
header: 
  seq: 159464
  stamp: 
    secs: 1626109444
    nsecs:  57442457
  frame_id: ''
state: 
  voltage_input: 11.5
  temperature_pcb: 0.0
  current_motor: 10.65
  current_input: 0.31
  current_q: 10.68
  speed: 904.0
  duty_cycle: 0.02
  charge_drawn: 284.0
  charge_regen: 0.0
  energy_drawn: 0.0
  energy_regen: 0.0
  displacement: 4507.0
  distance_traveled: 22693.0
  fault_code: 0
---
header: 
  seq: 159465
  stamp: 
    secs: 1626109444
    nsecs:  76979082
  frame_id: ''
state: 
  voltage_input: 11.4
  temperature_pcb: 0.0
  current_motor: 9.99
  current_input: 0.14
  current_q: 9.82
  speed: 702.0
  duty_cycle: 0.02
  charge_drawn: 284.0
  charge_regen: 0.0
  energy_drawn: 0.0
  energy_regen: 0.0
  displacement: 4508.0
  distance_traveled: 22694.0
  fault_code: 0
---
header: 
  seq: 159466
  stamp: 
    secs: 1626109444
    nsecs:  96710517
  frame_id: ''
state: 
  voltage_input: 11.4
  temperature_pcb: 0.0
  current_motor: 9.93
  current_input: 0.17
  current_q: 9.86
  speed: 587.0
  duty_cycle: 0.02
  charge_drawn: 284.0
  charge_regen: 0.0
  energy_drawn: 0.0
  energy_regen: 0.0
  displacement: 4508.0
  distance_traveled: 22694.0
  fault_code: 0
---
header: 
  seq: 159467
  stamp: 
    secs: 1626109444
    nsecs: 116314180
  frame_id: ''
state: 
  voltage_input: 11.4
  temperature_pcb: 0.0
  current_motor: 9.35
  current_input: 0.17
  current_q: 9.22
  speed: 573.0
  duty_cycle: 0.032
  charge_drawn: 284.0
  charge_regen: 0.0
  energy_drawn: 0.0
  energy_regen: 0.0
  displacement: 4509.0
  distance_traveled: 22695.0
  fault_code: 0
---
header: 
  seq: 159468
  stamp: 
    secs: 1626109444
    nsecs: 136946536
  frame_id: ''
state: 
  voltage_input: 11.4
  temperature_pcb: 0.0
  current_motor: 10.85
  current_input: 0.2
  current_q: 10.71
  speed: 495.0
  duty_cycle: 0.019
  charge_drawn: 284.0
  charge_regen: 0.0
  energy_drawn: 0.0
  energy_regen: 0.0
  displacement: 4510.0
  distance_traveled: 22696.0
  fault_code: 0
---
header: 
  seq: 159469
  stamp: 
    secs: 1626109444
    nsecs: 156397579
  frame_id: ''
state: 
  voltage_input: 11.5
  temperature_pcb: 0.0
  current_motor: 8.62
  current_input: 0.22
  current_q: 8.56
  speed: 688.0
  duty_cycle: 0.045
  charge_drawn: 284.0
  charge_regen: 0.0
  energy_drawn: 0.0
  energy_regen: 0.0
  displacement: 4512.0
  distance_traveled: 22698.0
  fault_code: 0
---
header: 
  seq: 159470
  stamp: 
    secs: 1626109444
    nsecs: 177177241
  frame_id: ''
state: 
  voltage_input: 11.5
  temperature_pcb: 0.0
  current_motor: 11.88
  current_input: 0.31
  current_q: 11.83
  speed: 706.0
  duty_cycle: 0.016
  charge_drawn: 284.0
  charge_regen: 0.0
  energy_drawn: 0.0
  energy_regen: 0.0
  displacement: 4514.0
  distance_traveled: 22700.0
  fault_code: 0
---
header: 
  seq: 159471
  stamp: 
    secs: 1626109444
    nsecs: 196183085
  frame_id: ''
state: 
  voltage_input: 11.4
  temperature_pcb: 0.0
  current_motor: 9.65
  current_input: 0.15
  current_q: 9.63
  speed: 566.0
  duty_cycle: 0.021
  charge_drawn: 284.0
  charge_regen: 0.0
  energy_drawn: 0.0
  energy_regen: 0.0
  displacement: 4514.0
  distance_traveled: 22700.0
  fault_code: 0
---
header: 
  seq: 159472
  stamp: 
    secs: 1626109444
    nsecs: 217979095
  frame_id: ''
state: 
  voltage_input: 11.5
  temperature_pcb: 0.0
  current_motor: 10.28
  current_input: 0.21
  current_q: 9.98
  speed: 645.0
  duty_cycle: 0.02
  charge_drawn: 284.0
  charge_regen: 0.0
  energy_drawn: 0.0
  energy_regen: 0.0
  displacement: 4516.0
  distance_traveled: 22702.0
  fault_code: 0
---
header: 
  seq: 159473
  stamp: 
    secs: 1626109444
    nsecs: 236928476
  frame_id: ''
state: 
  voltage_input: 11.5
  temperature_pcb: 0.0
  current_motor: 9.19
  current_input: 0.23
  current_q: 9.13
  speed: 903.0
  duty_cycle: 0.038
  charge_drawn: 284.0
  charge_regen: 0.0
  energy_drawn: 0.0
  energy_regen: 0.0
  displacement: 4519.0
  distance_traveled: 22705.0
  fault_code: 0
---
header: 
  seq: 159474
  stamp: 
    secs: 1626109444
    nsecs: 258171880
  frame_id: ''
state: 
  voltage_input: 11.4
  temperature_pcb: 0.0
  current_motor: 11.18
  current_input: 0.23
  current_q: 11.07
  speed: 815.0
  duty_cycle: 0.018
  charge_drawn: 284.0
  charge_regen: 0.0
  energy_drawn: 0.0
  energy_regen: 0.0
  displacement: 4520.0
  distance_traveled: 22706.0
  fault_code: 0
---
header: 
  seq: 159475
  stamp: 
    secs: 1626109444
    nsecs: 277179652
  frame_id: ''
state: 
  voltage_input: 11.4
  temperature_pcb: 0.0
  current_motor: 9.74
  current_input: 0.2
  current_q: 9.56
  speed: 834.0
  duty_cycle: 0.03
  charge_drawn: 284.0
  charge_regen: 0.0
  energy_drawn: 0.0
  energy_regen: 0.0
  displacement: 4522.0
  distance_traveled: 22708.0
  fault_code: 0
---
header: 
  seq: 159476
  stamp: 
    secs: 1626109444
    nsecs: 296980521
  frame_id: ''
state: 
  voltage_input: 11.4
  temperature_pcb: 0.0
  current_motor: 10.16
  current_input: 0.19
  current_q: 9.77
  speed: 767.0
  duty_cycle: 0.03
  charge_drawn: 284.0
  charge_regen: 0.0
  energy_drawn: 0.0
  energy_regen: 0.0
  displacement: 4523.0
  distance_traveled: 22709.0
  fault_code: 0
---
header: 
  seq: 159477
  stamp: 
    secs: 1626109444
    nsecs: 316963335
  frame_id: ''
state: 
  voltage_input: 11.5
  temperature_pcb: 0.0
  current_motor: 11.02
  current_input: 0.28
  current_q: 10.86
  speed: 953.0
  duty_cycle: 0.017
  charge_drawn: 284.0
  charge_regen: 0.0
  energy_drawn: 0.0
  energy_regen: 0.0
  displacement: 4526.0
  distance_traveled: 22712.0
  fault_code: 0
---
header: 
  seq: 159478
  stamp: 
    secs: 1626109444
    nsecs: 337813003
  frame_id: ''
state: 
  voltage_input: 11.4
  temperature_pcb: 0.0
  current_motor: 9.66
  current_input: 0.15
  current_q: 9.61
  speed: 762.0
  duty_cycle: 0.021
  charge_drawn: 284.0
  charge_regen: 0.0
  energy_drawn: 0.0
  energy_regen: 0.0
  displacement: 4527.0
  distance_traveled: 22713.0
  fault_code: 0
---
header: 
  seq: 159479
  stamp: 
    secs: 1626109444
    nsecs: 356395577
  frame_id: ''
state: 
  voltage_input: 11.4
  temperature_pcb: 0.0
  current_motor: 10.68
  current_input: 0.22
  current_q: 10.32
  speed: 773.0
  duty_cycle: 0.02
  charge_drawn: 284.0
  charge_regen: 0.0
  energy_drawn: 0.0
  energy_regen: 0.0
  displacement: 4528.0
  distance_traveled: 22714.0
  fault_code: 0
---
header: 
  seq: 159480
  stamp: 
    secs: 1626109444
    nsecs: 377368643
  frame_id: ''
state: 
  voltage_input: 11.4
  temperature_pcb: 0.0
  current_motor: 9.11
  current_input: 0.19
  current_q: 8.84
  speed: 802.0
  duty_cycle: 0.036
  charge_drawn: 284.0
  charge_regen: 0.0
  energy_drawn: 0.0
  energy_regen: 0.0
  displacement: 4530.0
  distance_traveled: 22716.0
  fault_code: 0
---
header: 
  seq: 159481
  stamp: 
    secs: 1626109444
    nsecs: 397267178
  frame_id: ''
state: 
  voltage_input: 11.4
  temperature_pcb: 0.0
  current_motor: 11.44
  current_input: 0.27
  current_q: 11.31
  speed: 844.0
  duty_cycle: 0.016
  charge_drawn: 284.0
  charge_regen: 0.0
  energy_drawn: 0.0
  energy_regen: 0.0
  displacement: 4532.0
  distance_traveled: 22718.0
  fault_code: 0
---
header: 
  seq: 159482
  stamp: 
    secs: 1626109444
    nsecs: 417086226
  frame_id: ''
state: 
  voltage_input: 11.4
  temperature_pcb: 0.0
  current_motor: 9.69
  current_input: 0.16
  current_q: 9.69
  speed: 692.0
  duty_cycle: 0.019
  charge_drawn: 284.0
  charge_regen: 0.0
  energy_drawn: 0.0
  energy_regen: 0.0
  displacement: 4533.0
  distance_traveled: 22719.0
  fault_code: 0
---
header: 
  seq: 159483
  stamp: 
    secs: 1626109444
    nsecs: 436960071
  frame_id: ''
state: 
  voltage_input: 11.5
  temperature_pcb: 0.0
  current_motor: 9.28
  current_input: 0.17
  current_q: 9.15
  speed: 648.0
  duty_cycle: 0.032
  charge_drawn: 284.0
  charge_regen: 0.0
  energy_drawn: 0.0
  energy_regen: 0.0
  displacement: 4534.0
  distance_traveled: 22720.0
  fault_code: 0
---
header: 
  seq: 159484
  stamp: 
    secs: 1626109444
    nsecs: 456474610
  frame_id: ''
state: 
  voltage_input: 11.5
  temperature_pcb: 0.0
  current_motor: 10.71
  current_input: 0.21
  current_q: 10.48
  speed: 604.0
  duty_cycle: 0.024
  charge_drawn: 284.0
  charge_regen: 0.0
  energy_drawn: 0.0
  energy_regen: 0.0
  displacement: 4535.0
  distance_traveled: 22721.0
  fault_code: 0
---
header: 
  seq: 159485
  stamp: 
    secs: 1626109444
    nsecs: 476877204
  frame_id: ''
state: 
  voltage_input: 11.4
  temperature_pcb: 0.0
  current_motor: 9.18
  current_input: 0.23
  current_q: 9.13
  speed: 806.0
  duty_cycle: 0.041
  charge_drawn: 284.0
  charge_regen: 0.0
  energy_drawn: 0.0
  energy_regen: 0.0
  displacement: 4537.0
  distance_traveled: 22723.0
  fault_code: 0
---
header: 
  seq: 159486
  stamp: 
    secs: 1626109444
    nsecs: 496762300
  frame_id: ''
state: 
  voltage_input: 11.5
  temperature_pcb: 0.0
  current_motor: 11.51
  current_input: 0.23
  current_q: 11.35
  speed: 696.0
  duty_cycle: 0.018
  charge_drawn: 284.0
  charge_regen: 0.0
  energy_drawn: 0.0
  energy_regen: 0.0
  displacement: 4538.0
  distance_traveled: 22724.0
  fault_code: 0
---
header: 
  seq: 159487
  stamp: 
    secs: 1626109444
    nsecs: 516950759
  frame_id: ''
state: 
  voltage_input: 11.4
  temperature_pcb: 0.0
  current_motor: 9.81
  current_input: 0.16
  current_q: 9.77
  speed: 583.0
  duty_cycle: 0.02
  charge_drawn: 284.0
  charge_regen: 0.0
  energy_drawn: 0.0
  energy_regen: 0.0
  displacement: 4539.0
  distance_traveled: 22725.0
  fault_code: 0
---
header: 
  seq: 159488
  stamp: 
    secs: 1626109444
    nsecs: 536859659
  frame_id: ''
state: 
  voltage_input: 11.4
  temperature_pcb: 0.0
  current_motor: 9.51
  current_input: 0.17
  current_q: 9.44
  speed: 552.0
  duty_cycle: 0.028
  charge_drawn: 284.0
  charge_regen: 0.0
  energy_drawn: 0.0
  energy_regen: 0.0
  displacement: 4540.0
  distance_traveled: 22726.0
  fault_code: 0
---
header: 
  seq: 159489
  stamp: 
    secs: 1626109444
    nsecs: 557138856
  frame_id: ''
state: 
  voltage_input: 11.4
  temperature_pcb: 0.0
  current_motor: 10.6
  current_input: 0.21
  current_q: 10.4
  speed: 528.0
  duty_cycle: 0.021
  charge_drawn: 284.0
  charge_regen: 0.0
  energy_drawn: 0.0
  energy_regen: 0.0
  displacement: 4541.0
  distance_traveled: 22727.0
  fault_code: 0
---
header: 
  seq: 159490
  stamp: 
    secs: 1626109444
    nsecs: 576848310
  frame_id: ''
state: 
  voltage_input: 11.4
  temperature_pcb: 0.0
  current_motor: 9.1
  current_input: 0.2
  current_q: 9.04
  speed: 635.0
  duty_cycle: 0.038
  charge_drawn: 284.0
  charge_regen: 0.0
  energy_drawn: 0.0
  energy_regen: 0.0
  displacement: 4542.0
  distance_traveled: 22728.0
  fault_code: 0
---
header: 
  seq: 159491
  stamp: 
    secs: 1626109444
    nsecs: 596756585
  frame_id: ''
state: 
  voltage_input: 11.4
  temperature_pcb: 0.0
  current_motor: 11.69
  current_input: 0.29
  current_q: 11.66
  speed: 715.0
  duty_cycle: 0.012
  charge_drawn: 284.0
  charge_regen: 0.0
  energy_drawn: 0.0
  energy_regen: 0.0
  displacement: 4544.0
  distance_traveled: 22732.0
  fault_code: 0
---
header: 
  seq: 159492
  stamp: 
    secs: 1626109444
    nsecs: 617036355
  frame_id: ''
state: 
  voltage_input: 11.5
  temperature_pcb: 0.0
  current_motor: 9.45
  current_input: 0.13
  current_q: 9.38
  speed: 556.0
  duty_cycle: 0.02
  charge_drawn: 284.0
  charge_regen: 0.0
  energy_drawn: 0.0
  energy_regen: 0.0
  displacement: 4545.0
  distance_traveled: 22733.0
  fault_code: 0
---
header: 
  seq: 159493
  stamp: 
    secs: 1626109444
    nsecs: 635947503
  frame_id: ''
state: 
  voltage_input: 11.4
  temperature_pcb: 0.0
  current_motor: 9.7
  current_input: 0.17
  current_q: 9.61
  speed: 524.0
  duty_cycle: 0.026
  charge_drawn: 284.0
  charge_regen: 0.0
  energy_drawn: 0.0
  energy_regen: 0.0
  displacement: 4545.0
  distance_traveled: 22733.0
  fault_code: 0
---
header: 
  seq: 159494
  stamp: 
    secs: 1626109444
    nsecs: 656832799
  frame_id: ''
state: 
  voltage_input: 11.5
  temperature_pcb: 0.0
  current_motor: 10.57
  current_input: 0.21
  current_q: 10.36
  speed: 519.0
  duty_cycle: 0.02
  charge_drawn: 284.0
  charge_regen: 0.0
  energy_drawn: 0.0
  energy_regen: 0.0
  displacement: 4547.0
  distance_traveled: 22737.0
  fault_code: 0
---
header: 
  seq: 159495
  stamp: 
    secs: 1626109444
    nsecs: 676550275
  frame_id: ''
state: 
  voltage_input: 11.4
  temperature_pcb: 0.0
  current_motor: 7.33
  current_input: 0.15
  current_q: -3.37
  speed: 323.0
  duty_cycle: -0.03
  charge_drawn: 284.0
  charge_regen: 0.0
  energy_drawn: 0.0
  energy_regen: 0.0
  displacement: 4546.0
  distance_traveled: 22738.0
  fault_code: 0
---
header: 
  seq: 159496
  stamp: 
    secs: 1626109444
    nsecs: 696933440
  frame_id: ''
state: 
  voltage_input: 11.4
  temperature_pcb: 0.0
  current_motor: 10.85
  current_input: 0.29
  current_q: -10.89
  speed: 31.0
  duty_cycle: -0.019
  charge_drawn: 284.0
  charge_regen: 0.0
  energy_drawn: 0.0
  energy_regen: 0.0
  displacement: 4545.0
  distance_traveled: 22739.0
  fault_code: 0
---
header: 
  seq: 159497
  stamp: 
    secs: 1626109444
    nsecs: 716565855
  frame_id: ''
state: 
  voltage_input: 11.4
  temperature_pcb: 0.0
  current_motor: 9.98
  current_input: 0.15
  current_q: -9.87
  speed: -12.0
  duty_cycle: -0.021
  charge_drawn: 284.0
  charge_regen: 0.0
  energy_drawn: 0.0
  energy_regen: 0.0
  displacement: 4544.0
  distance_traveled: 22740.0
  fault_code: 0
---
header: 
  seq: 159498
  stamp: 
    secs: 1626109444
    nsecs: 736451628
  frame_id: ''
state: 
  voltage_input: 11.4
  temperature_pcb: 0.0
  current_motor: 10.17
  current_input: 0.18
  current_q: -10.13
  speed: -89.0
  duty_cycle: -0.02
  charge_drawn: 284.0
  charge_regen: 0.0
  energy_drawn: 0.0
  energy_regen: 0.0
  displacement: 4544.0
  distance_traveled: 22740.0
  fault_code: 0
---
header: 
  seq: 159499
  stamp: 
    secs: 1626109444
    nsecs: 756623263
  frame_id: ''
state: 
  voltage_input: 11.5
  temperature_pcb: 0.0
  current_motor: 9.58
  current_input: 0.18
  current_q: -9.47
  speed: -191.0
  duty_cycle: -0.03
  charge_drawn: 284.0
  charge_regen: 0.0
  energy_drawn: 0.0
  energy_regen: 0.0
  displacement: 4543.0
  distance_traveled: 22741.0
  fault_code: 0
---
header: 
  seq: 159500
  stamp: 
    secs: 1626109444
    nsecs: 777402924
  frame_id: ''
state: 
  voltage_input: 11.5
  temperature_pcb: 0.0
  current_motor: 10.54
  current_input: 0.21
  current_q: -10.34
  speed: -260.0
  duty_cycle: -0.026
  charge_drawn: 284.0
  charge_regen: 0.0
  energy_drawn: 0.0
  energy_regen: 0.0
  displacement: 4542.0
  distance_traveled: 22742.0
  fault_code: 0
---
header: 
  seq: 159501
  stamp: 
    secs: 1626109444
    nsecs: 796505393
  frame_id: ''
state: 
  voltage_input: 11.5
  temperature_pcb: 0.0
  current_motor: 10.16
  current_input: 0.27
  current_q: -9.63
  speed: -777.0
  duty_cycle: -0.042
  charge_drawn: 284.0
  charge_regen: 0.0
  energy_drawn: 0.0
  energy_regen: 0.0
  displacement: 4537.0
  distance_traveled: 22747.0
  fault_code: 0
---
header: 
  seq: 159502
  stamp: 
    secs: 1626109444
    nsecs: 817411993
  frame_id: ''
state: 
  voltage_input: 11.4
  temperature_pcb: 0.0
  current_motor: 11.48
  current_input: 0.26
  current_q: -11.48
  speed: -683.0
  duty_cycle: -0.013
  charge_drawn: 284.0
  charge_regen: 0.0
  energy_drawn: 0.0
  energy_regen: 0.0
  displacement: 4536.0
  distance_traveled: 22748.0
  fault_code: 0
---
header: 
  seq: 159503
  stamp: 
    secs: 1626109444
    nsecs: 836510711
  frame_id: ''
state: 
  voltage_input: 11.4
  temperature_pcb: 0.0
  current_motor: 9.5
  current_input: 0.15
  current_q: -9.49
  speed: -568.0
  duty_cycle: -0.02
  charge_drawn: 284.0
  charge_regen: 0.0
  energy_drawn: 0.0
  energy_regen: 0.0
  displacement: 4536.0
  distance_traveled: 22750.0
  fault_code: 0
---
header: 
  seq: 159504
  stamp: 
    secs: 1626109444
    nsecs: 856429717
  frame_id: ''
state: 
  voltage_input: 11.4
  temperature_pcb: 0.0
  current_motor: 9.99
  current_input: 0.17
  current_q: -9.98
  speed: -491.0
  duty_cycle: -0.019
  charge_drawn: 284.0
  charge_regen: 0.0
  energy_drawn: 0.0
  energy_regen: 0.0
  displacement: 4535.0
  distance_traveled: 22751.0
  fault_code: 0
---
header: 
  seq: 159505
  stamp: 
    secs: 1626109444
    nsecs: 877070771
  frame_id: ''
state: 
  voltage_input: 11.5
  temperature_pcb: 0.0
  current_motor: 9.76
  current_input: 0.17
  current_q: -9.72
  speed: -447.0
  duty_cycle: -0.023
  charge_drawn: 284.0
  charge_regen: 0.0
  energy_drawn: 0.0
  energy_regen: 0.0
  displacement: 4535.0
  distance_traveled: 22751.0
  fault_code: 0
---
header: 
  seq: 159506
  stamp: 
    secs: 1626109444
    nsecs: 897049366
  frame_id: ''
state: 
  voltage_input: 11.5
  temperature_pcb: 0.0
  current_motor: 10.32
  current_input: 0.2
  current_q: -10.06
  speed: -453.0
  duty_cycle: -0.022
  charge_drawn: 284.0
  charge_regen: 0.0
  energy_drawn: 0.0
  energy_regen: 0.0
  displacement: 4534.0
  distance_traveled: 22752.0
  fault_code: 0
---
header: 
  seq: 159507
  stamp: 
    secs: 1626109444
    nsecs: 916656883
  frame_id: ''
state: 
  voltage_input: 11.5
  temperature_pcb: 0.0
  current_motor: 9.99
  current_input: 0.18
  current_q: -9.96
  speed: -454.0
  duty_cycle: -0.023
  charge_drawn: 284.0
  charge_regen: 0.0
  energy_drawn: 0.0
  energy_regen: 0.0
  displacement: 4533.0
  distance_traveled: 22753.0
  fault_code: 0
---
header: 
  seq: 159508
  stamp: 
    secs: 1626109444
    nsecs: 937479361
  frame_id: ''
state: 
  voltage_input: 11.5
  temperature_pcb: 0.0
  current_motor: 9.58
  current_input: 0.28
  current_q: -9.16
  speed: -888.0
  duty_cycle: -0.044
  charge_drawn: 284.0
  charge_regen: 0.0
  energy_drawn: 0.0
  energy_regen: 0.0
  displacement: 4529.0
  distance_traveled: 22757.0
  fault_code: 0
---
header: 
  seq: 159509
  stamp: 
    secs: 1626109444
    nsecs: 957328360
  frame_id: ''
state: 
  voltage_input: 11.5
  temperature_pcb: 0.0
  current_motor: 11.33
  current_input: 0.26
  current_q: -11.25
  speed: -779.0
  duty_cycle: -0.021
  charge_drawn: 284.0
  charge_regen: 0.0
  energy_drawn: 0.0
  energy_regen: 0.0
  displacement: 4528.0
  distance_traveled: 22758.0
  fault_code: 0
---
header: 
  seq: 159510
  stamp: 
    secs: 1626109444
    nsecs: 977561459
  frame_id: ''
state: 
  voltage_input: 11.4
  temperature_pcb: 0.0
  current_motor: 9.94
  current_input: 0.17
  current_q: -9.93
  speed: -635.0
  duty_cycle: -0.02
  charge_drawn: 284.0
  charge_regen: 0.0
  energy_drawn: 0.0
  energy_regen: 0.0
  displacement: 4527.0
  distance_traveled: 22759.0
  fault_code: 0
---
header: 
  seq: 159511
  stamp: 
    secs: 1626109444
    nsecs: 997160746
  frame_id: ''
state: 
  voltage_input: 11.5
  temperature_pcb: 0.0
  current_motor: 9.88
  current_input: 0.17
  current_q: -9.88
  speed: -550.0
  duty_cycle: -0.02
  charge_drawn: 284.0
  charge_regen: 0.0
  energy_drawn: 0.0
  energy_regen: 0.0
  displacement: 4527.0
  distance_traveled: 22759.0
  fault_code: 0
---
header: 
  seq: 159512
  stamp: 
    secs: 1626109445
    nsecs:  17127354
  frame_id: ''
state: 
  voltage_input: 11.4
  temperature_pcb: 0.0
  current_motor: 9.26
  current_input: 0.18
  current_q: -9.15
  speed: -559.0
  duty_cycle: -0.034
  charge_drawn: 284.0
  charge_regen: 0.0
  energy_drawn: 0.0
  energy_regen: 0.0
  displacement: 4526.0
  distance_traveled: 22760.0
  fault_code: 0
---
header: 
  seq: 159513
  stamp: 
    secs: 1626109445
    nsecs:  39754008
  frame_id: ''
state: 
  voltage_input: 11.4
  temperature_pcb: 0.0
  current_motor: 10.61
  current_input: 0.19
  current_q: -10.46
  speed: -474.0
  duty_cycle: -0.025
  charge_drawn: 284.0
  charge_regen: 0.0
  energy_drawn: 0.0
  energy_regen: 0.0
  displacement: 4525.0
  distance_traveled: 22761.0
  fault_code: 0
---
header: 
  seq: 159514
  stamp: 
    secs: 1626109445
    nsecs:  57245376
  frame_id: ''
state: 
  voltage_input: 11.4
  temperature_pcb: 0.0
  current_motor: 8.8
  current_input: 0.26
  current_q: -8.76
  speed: -740.0
  duty_cycle: -0.047
  charge_drawn: 284.0
  charge_regen: 0.0
  energy_drawn: 0.0
  energy_regen: 0.0
  displacement: 4522.0
  distance_traveled: 22764.0
  fault_code: 0
---
header: 
  seq: 159515
  stamp: 
    secs: 1626109445
    nsecs:  76539835
  frame_id: ''
state: 
  voltage_input: 11.5
  temperature_pcb: 0.0
  current_motor: 11.99
  current_input: 0.34
  current_q: -11.95
  speed: -791.0
  duty_cycle: -0.018
  charge_drawn: 284.0
  charge_regen: 0.0
  energy_drawn: 0.0
  energy_regen: 0.0
  displacement: 4520.0
  distance_traveled: 22766.0
  fault_code: 0
---
header: 
  seq: 159516
  stamp: 
    secs: 1626109445
    nsecs:  96814387
  frame_id: ''
state: 
  voltage_input: 11.4
  temperature_pcb: 0.0
  current_motor: 9.83
  current_input: 0.15
  current_q: -9.8
  speed: -628.0
  duty_cycle: -0.02
  charge_drawn: 284.0
  charge_regen: 0.0
  energy_drawn: 0.0
  energy_regen: 0.0
  displacement: 4520.0
  distance_traveled: 22766.0
  fault_code: 0
---
header: 
  seq: 159517
  stamp: 
    secs: 1626109445
    nsecs: 117087638
  frame_id: ''
state: 
  voltage_input: 11.5
  temperature_pcb: 0.0
  current_motor: 10.38
  current_input: 0.21
  current_q: -9.93
  speed: -701.0
  duty_cycle: -0.02
  charge_drawn: 284.0
  charge_regen: 0.0
  energy_drawn: 0.0
  energy_regen: 0.0
  displacement: 4518.0
  distance_traveled: 22768.0
  fault_code: 0
---
header: 
  seq: 159518
  stamp: 
    secs: 1626109445
    nsecs: 137206238
