header: 
  seq: 72733
  stamp: 
    secs: 1626107709
    nsecs: 435868793
  frame_id: ''
state: 
  voltage_input: 11.5
  temperature_pcb: 0.0
  current_motor: 0.0
  current_input: 0.0
  current_q: 0.0
  speed: 0.0
  duty_cycle: 0.0
  charge_drawn: 100.0
  charge_regen: 0.0
  energy_drawn: 0.0
  energy_regen: 0.0
  displacement: 1515.0
  distance_traveled: 12299.0
  fault_code: 0
---
header: 
  seq: 72734
  stamp: 
    secs: 1626107709
    nsecs: 455866086
  frame_id: ''
state: 
  voltage_input: 11.4
  temperature_pcb: 0.0
  current_motor: 0.0
  current_input: 0.0
  current_q: 0.0
  speed: 0.0
  duty_cycle: 0.0
  charge_drawn: 100.0
  charge_regen: 0.0
  energy_drawn: 0.0
  energy_regen: 0.0
  displacement: 1515.0
  distance_traveled: 12299.0
  fault_code: 0
---
header: 
  seq: 72735
  stamp: 
    secs: 1626107709
    nsecs: 475951296
  frame_id: ''
state: 
  voltage_input: 11.5
  temperature_pcb: 0.0
  current_motor: 0.0
  current_input: 0.0
  current_q: 0.0
  speed: -1.0
  duty_cycle: 0.0
  charge_drawn: 100.0
  charge_regen: 0.0
  energy_drawn: 0.0
  energy_regen: 0.0
  displacement: 1515.0
  distance_traveled: 12299.0
  fault_code: 0
---
header: 
  seq: 72736
  stamp: 
    secs: 1626107709
    nsecs: 496136140
  frame_id: ''
state: 
  voltage_input: 11.5
  temperature_pcb: 0.0
  current_motor: 0.0
  current_input: 0.0
  current_q: 0.0
  speed: -2.0
  duty_cycle: 0.0
  charge_drawn: 100.0
  charge_regen: 0.0
  energy_drawn: 0.0
  energy_regen: 0.0
  displacement: 1515.0
  distance_traveled: 12299.0
  fault_code: 0
---
header: 
  seq: 72737
  stamp: 
    secs: 1626107709
    nsecs: 515875727
  frame_id: ''
state: 
  voltage_input: 11.5
  temperature_pcb: 0.0
  current_motor: 0.0
  current_input: 0.0
  current_q: 0.0
  speed: -1.0
  duty_cycle: 0.0
  charge_drawn: 100.0
  charge_regen: 0.0
  energy_drawn: 0.0
  energy_regen: 0.0
  displacement: 1515.0
  distance_traveled: 12299.0
  fault_code: 0
---
header: 
  seq: 72738
  stamp: 
    secs: 1626107709
    nsecs: 535863801
  frame_id: ''
state: 
  voltage_input: 11.5
  temperature_pcb: 0.0
  current_motor: 0.0
  current_input: 0.0
  current_q: 0.0
  speed: 0.0
  duty_cycle: 0.0
  charge_drawn: 100.0
  charge_regen: 0.0
  energy_drawn: 0.0
  energy_regen: 0.0
  displacement: 1515.0
  distance_traveled: 12299.0
  fault_code: 0
---
header: 
  seq: 72739
  stamp: 
    secs: 1626107709
    nsecs: 556313176
  frame_id: ''
state: 
  voltage_input: 11.6
  temperature_pcb: 0.0
  current_motor: 0.0
  current_input: 0.0
  current_q: 0.0
  speed: -1.0
  duty_cycle: 0.0
  charge_drawn: 100.0
  charge_regen: 0.0
  energy_drawn: 0.0
  energy_regen: 0.0
  displacement: 1515.0
  distance_traveled: 12299.0
  fault_code: 0
---
header: 
  seq: 72740
  stamp: 
    secs: 1626107709
    nsecs: 575831044
  frame_id: ''
state: 
  voltage_input: 11.5
  temperature_pcb: 0.0
  current_motor: 0.0
  current_input: 0.0
  current_q: 0.0
  speed: -1.0
  duty_cycle: 0.0
  charge_drawn: 100.0
  charge_regen: 0.0
  energy_drawn: 0.0
  energy_regen: 0.0
  displacement: 1515.0
  distance_traveled: 12299.0
  fault_code: 0
---
header: 
  seq: 72741
  stamp: 
    secs: 1626107709
    nsecs: 595884327
  frame_id: ''
state: 
  voltage_input: 11.5
  temperature_pcb: 0.0
  current_motor: 0.0
  current_input: 0.0
  current_q: 0.0
  speed: 0.0
  duty_cycle: 0.0
  charge_drawn: 100.0
  charge_regen: 0.0
  energy_drawn: 0.0
  energy_regen: 0.0
  displacement: 1515.0
  distance_traveled: 12299.0
  fault_code: 0
---
header: 
  seq: 72742
  stamp: 
    secs: 1626107709
    nsecs: 615887870
  frame_id: ''
state: 
  voltage_input: 11.5
  temperature_pcb: 0.0
  current_motor: 0.0
  current_input: 0.0
  current_q: 0.0
  speed: -1.0
  duty_cycle: 0.0
  charge_drawn: 100.0
  charge_regen: 0.0
  energy_drawn: 0.0
  energy_regen: 0.0
  displacement: 1515.0
  distance_traveled: 12299.0
  fault_code: 0
---
header: 
  seq: 72743
  stamp: 
    secs: 1626107709
    nsecs: 636128027
  frame_id: ''
state: 
  voltage_input: 11.6
  temperature_pcb: 0.0
  current_motor: 0.0
  current_input: 0.0
  current_q: 0.0
  speed: 0.0
  duty_cycle: 0.0
  charge_drawn: 100.0
  charge_regen: 0.0
  energy_drawn: 0.0
  energy_regen: 0.0
  displacement: 1515.0
  distance_traveled: 12299.0
  fault_code: 0
---
header: 
  seq: 72744
  stamp: 
    secs: 1626107709
    nsecs: 656096727
  frame_id: ''
state: 
  voltage_input: 11.5
  temperature_pcb: 0.0
  current_motor: 0.0
  current_input: 0.0
  current_q: 0.0
  speed: 0.0
  duty_cycle: 0.0
  charge_drawn: 100.0
  charge_regen: 0.0
  energy_drawn: 0.0
  energy_regen: 0.0
  displacement: 1515.0
  distance_traveled: 12299.0
  fault_code: 0
---
header: 
  seq: 72745
  stamp: 
    secs: 1626107709
    nsecs: 675835897
  frame_id: ''
state: 
  voltage_input: 11.5
  temperature_pcb: 0.0
  current_motor: 0.0
  current_input: 0.0
  current_q: 0.0
  speed: 0.0
  duty_cycle: 0.0
  charge_drawn: 100.0
  charge_regen: 0.0
  energy_drawn: 0.0
  energy_regen: 0.0
  displacement: 1515.0
  distance_traveled: 12299.0
  fault_code: 0
---
header: 
  seq: 72746
  stamp: 
    secs: 1626107709
    nsecs: 695970064
  frame_id: ''
state: 
  voltage_input: 11.5
  temperature_pcb: 0.0
  current_motor: 0.0
  current_input: 0.0
  current_q: 0.0
  speed: 0.0
  duty_cycle: 0.0
  charge_drawn: 100.0
  charge_regen: 0.0
  energy_drawn: 0.0
  energy_regen: 0.0
  displacement: 1515.0
  distance_traveled: 12299.0
  fault_code: 0
---
header: 
  seq: 72747
  stamp: 
    secs: 1626107709
    nsecs: 715955847
  frame_id: ''
state: 
  voltage_input: 11.4
  temperature_pcb: 0.0
  current_motor: 0.0
  current_input: 0.0
  current_q: 0.0
  speed: 0.0
  duty_cycle: 0.0
  charge_drawn: 100.0
  charge_regen: 0.0
  energy_drawn: 0.0
  energy_regen: 0.0
  displacement: 1515.0
  distance_traveled: 12299.0
  fault_code: 0
---
header: 
  seq: 72748
  stamp: 
    secs: 1626107709
    nsecs: 735826214
  frame_id: ''
state: 
  voltage_input: 11.5
  temperature_pcb: 0.0
  current_motor: 0.0
  current_input: 0.0
  current_q: 0.0
  speed: 0.0
  duty_cycle: 0.0
  charge_drawn: 100.0
  charge_regen: 0.0
  energy_drawn: 0.0
  energy_regen: 0.0
  displacement: 1515.0
  distance_traveled: 12299.0
  fault_code: 0
---
header: 
  seq: 72749
  stamp: 
    secs: 1626107709
    nsecs: 755867882
  frame_id: ''
state: 
  voltage_input: 11.5
  temperature_pcb: 0.0
  current_motor: 0.0
  current_input: 0.0
  current_q: 0.0
  speed: 0.0
  duty_cycle: 0.0
  charge_drawn: 100.0
  charge_regen: 0.0
  energy_drawn: 0.0
  energy_regen: 0.0
  displacement: 1515.0
  distance_traveled: 12299.0
  fault_code: 0
---
header: 
  seq: 72750
  stamp: 
    secs: 1626107709
    nsecs: 776108195
  frame_id: ''
state: 
  voltage_input: 11.5
  temperature_pcb: 0.0
  current_motor: 0.0
  current_input: 0.0
  current_q: 0.0
  speed: 0.0
  duty_cycle: 0.0
  charge_drawn: 100.0
  charge_regen: 0.0
  energy_drawn: 0.0
  energy_regen: 0.0
  displacement: 1515.0
  distance_traveled: 12299.0
  fault_code: 0
---
header: 
  seq: 72751
  stamp: 
    secs: 1626107709
    nsecs: 795840907
  frame_id: ''
state: 
  voltage_input: 11.5
  temperature_pcb: 0.0
  current_motor: 0.0
  current_input: 0.0
  current_q: 0.0
  speed: 0.0
  duty_cycle: 0.0
  charge_drawn: 100.0
  charge_regen: 0.0
  energy_drawn: 0.0
  energy_regen: 0.0
  displacement: 1515.0
  distance_traveled: 12299.0
  fault_code: 0
---
header: 
  seq: 72752
  stamp: 
    secs: 1626107709
    nsecs: 815862106
  frame_id: ''
state: 
  voltage_input: 11.5
  temperature_pcb: 0.0
  current_motor: 0.0
  current_input: 0.0
  current_q: 0.0
  speed: 1.0
  duty_cycle: 0.0
  charge_drawn: 100.0
  charge_regen: 0.0
  energy_drawn: 0.0
  energy_regen: 0.0
  displacement: 1515.0
  distance_traveled: 12299.0
  fault_code: 0
---
header: 
  seq: 72753
  stamp: 
    secs: 1626107709
    nsecs: 835928097
  frame_id: ''
state: 
  voltage_input: 11.5
  temperature_pcb: 0.0
  current_motor: 0.0
  current_input: 0.0
  current_q: 0.0
  speed: 1.0
  duty_cycle: 0.0
  charge_drawn: 100.0
  charge_regen: 0.0
  energy_drawn: 0.0
  energy_regen: 0.0
  displacement: 1515.0
  distance_traveled: 12299.0
  fault_code: 0
---
header: 
  seq: 72754
  stamp: 
    secs: 1626107709
    nsecs: 856224451
  frame_id: ''
state: 
  voltage_input: 11.5
  temperature_pcb: 0.0
  current_motor: 0.0
  current_input: 0.0
  current_q: 0.0
  speed: 0.0
  duty_cycle: 0.0
  charge_drawn: 100.0
  charge_regen: 0.0
  energy_drawn: 0.0
  energy_regen: 0.0
  displacement: 1515.0
  distance_traveled: 12299.0
  fault_code: 0
---
header: 
  seq: 72755
  stamp: 
    secs: 1626107709
    nsecs: 875969194
  frame_id: ''
state: 
  voltage_input: 11.5
  temperature_pcb: 0.0
  current_motor: 0.0
  current_input: 0.0
  current_q: 0.0
  speed: 0.0
  duty_cycle: 0.0
  charge_drawn: 100.0
  charge_regen: 0.0
  energy_drawn: 0.0
  energy_regen: 0.0
  displacement: 1515.0
  distance_traveled: 12299.0
  fault_code: 0
---
header: 
  seq: 72756
  stamp: 
    secs: 1626107709
    nsecs: 895824040
  frame_id: ''
state: 
  voltage_input: 11.5
  temperature_pcb: 0.0
  current_motor: 0.0
  current_input: 0.0
  current_q: 0.0
  speed: 0.0
  duty_cycle: 0.0
  charge_drawn: 100.0
  charge_regen: 0.0
  energy_drawn: 0.0
  energy_regen: 0.0
  displacement: 1515.0
  distance_traveled: 12299.0
  fault_code: 0
---
header: 
  seq: 72757
  stamp: 
    secs: 1626107709
    nsecs: 916088468
  frame_id: ''
state: 
  voltage_input: 11.5
  temperature_pcb: 0.0
  current_motor: 0.0
  current_input: 0.0
  current_q: 0.0
  speed: 1.0
  duty_cycle: 0.0
  charge_drawn: 100.0
  charge_regen: 0.0
  energy_drawn: 0.0
  energy_regen: 0.0
  displacement: 1515.0
  distance_traveled: 12299.0
  fault_code: 0
---
header: 
  seq: 72758
  stamp: 
    secs: 1626107709
    nsecs: 935849877
  frame_id: ''
state: 
  voltage_input: 11.5
  temperature_pcb: 0.0
  current_motor: 0.0
  current_input: 0.0
  current_q: 0.0
  speed: 0.0
  duty_cycle: 0.0
  charge_drawn: 100.0
  charge_regen: 0.0
  energy_drawn: 0.0
  energy_regen: 0.0
  displacement: 1515.0
  distance_traveled: 12299.0
  fault_code: 0
---
header: 
  seq: 72759
  stamp: 
    secs: 1626107709
    nsecs: 956225658
  frame_id: ''
state: 
  voltage_input: 11.4
  temperature_pcb: 0.0
  current_motor: 0.0
  current_input: 0.0
  current_q: 0.0
  speed: -2.0
  duty_cycle: 0.0
  charge_drawn: 100.0
  charge_regen: 0.0
  energy_drawn: 0.0
  energy_regen: 0.0
  displacement: 1515.0
  distance_traveled: 12299.0
  fault_code: 0
---
header: 
  seq: 72760
  stamp: 
    secs: 1626107709
    nsecs: 975987588
  frame_id: ''
state: 
  voltage_input: 11.5
  temperature_pcb: 0.0
  current_motor: 0.0
  current_input: 0.0
  current_q: 0.0
  speed: -1.0
  duty_cycle: 0.0
  charge_drawn: 100.0
  charge_regen: 0.0
  energy_drawn: 0.0
  energy_regen: 0.0
  displacement: 1515.0
  distance_traveled: 12299.0
  fault_code: 0
---
header: 
  seq: 72761
  stamp: 
    secs: 1626107709
    nsecs: 995889778
  frame_id: ''
state: 
  voltage_input: 11.5
  temperature_pcb: 0.0
  current_motor: 0.0
  current_input: 0.0
  current_q: 0.0
  speed: -1.0
  duty_cycle: 0.0
  charge_drawn: 100.0
  charge_regen: 0.0
  energy_drawn: 0.0
  energy_regen: 0.0
  displacement: 1515.0
  distance_traveled: 12299.0
  fault_code: 0
---
header: 
  seq: 72762
  stamp: 
    secs: 1626107710
    nsecs:  15875927
  frame_id: ''
state: 
  voltage_input: 11.5
  temperature_pcb: 0.0
  current_motor: 0.0
  current_input: 0.0
  current_q: 0.0
  speed: -1.0
  duty_cycle: 0.0
  charge_drawn: 100.0
  charge_regen: 0.0
  energy_drawn: 0.0
  energy_regen: 0.0
  displacement: 1515.0
  distance_traveled: 12299.0
  fault_code: 0
---
header: 
  seq: 72763
  stamp: 
    secs: 1626107710
    nsecs:  35838066
  frame_id: ''
state: 
  voltage_input: 11.5
  temperature_pcb: 0.0
  current_motor: 0.0
  current_input: 0.0
  current_q: 0.0
  speed: 0.0
  duty_cycle: 0.0
  charge_drawn: 100.0
  charge_regen: 0.0
  energy_drawn: 0.0
  energy_regen: 0.0
  displacement: 1515.0
  distance_traveled: 12299.0
  fault_code: 0
---
header: 
  seq: 72764
  stamp: 
    secs: 1626107710
    nsecs:  57570665
  frame_id: ''
state: 
  voltage_input: 11.5
  temperature_pcb: 0.0
  current_motor: 0.0
  current_input: 0.0
  current_q: 0.0
  speed: 0.0
  duty_cycle: 0.0
  charge_drawn: 100.0
  charge_regen: 0.0
  energy_drawn: 0.0
  energy_regen: 0.0
  displacement: 1515.0
  distance_traveled: 12299.0
  fault_code: 0
---
header: 
  seq: 72765
  stamp: 
    secs: 1626107710
    nsecs:  75975938
  frame_id: ''
state: 
  voltage_input: 11.5
  temperature_pcb: 0.0
  current_motor: 0.0
  current_input: 0.0
  current_q: 0.0
  speed: 0.0
  duty_cycle: 0.0
  charge_drawn: 100.0
  charge_regen: 0.0
  energy_drawn: 0.0
  energy_regen: 0.0
  displacement: 1515.0
  distance_traveled: 12299.0
  fault_code: 0
---
header: 
  seq: 72766
  stamp: 
    secs: 1626107710
    nsecs:  95891671
  frame_id: ''
state: 
  voltage_input: 11.6
  temperature_pcb: 0.0
  current_motor: 0.0
  current_input: 0.0
  current_q: 0.0
  speed: 0.0
  duty_cycle: 0.0
  charge_drawn: 100.0
  charge_regen: 0.0
  energy_drawn: 0.0
  energy_regen: 0.0
  displacement: 1515.0
  distance_traveled: 12299.0
  fault_code: 0
---
header: 
  seq: 72767
  stamp: 
    secs: 1626107710
    nsecs: 115835477
  frame_id: ''
state: 
  voltage_input: 11.4
  temperature_pcb: 0.0
  current_motor: 0.0
  current_input: 0.0
  current_q: 0.0
  speed: 0.0
  duty_cycle: 0.0
  charge_drawn: 100.0
  charge_regen: 0.0
  energy_drawn: 0.0
  energy_regen: 0.0
  displacement: 1515.0
  distance_traveled: 12299.0
  fault_code: 0
---
header: 
  seq: 72768
  stamp: 
    secs: 1626107710
    nsecs: 135915429
  frame_id: ''
state: 
  voltage_input: 11.5
  temperature_pcb: 0.0
  current_motor: 0.0
  current_input: 0.0
  current_q: 0.0
  speed: 0.0
  duty_cycle: 0.0
  charge_drawn: 100.0
  charge_regen: 0.0
  energy_drawn: 0.0
  energy_regen: 0.0
  displacement: 1515.0
  distance_traveled: 12299.0
  fault_code: 0
---
header: 
  seq: 72769
  stamp: 
    secs: 1626107710
    nsecs: 155823141
  frame_id: ''
state: 
  voltage_input: 11.5
  temperature_pcb: 0.0
  current_motor: 0.0
  current_input: 0.0
  current_q: 0.0
  speed: -1.0
  duty_cycle: 0.0
  charge_drawn: 100.0
  charge_regen: 0.0
  energy_drawn: 0.0
  energy_regen: 0.0
  displacement: 1515.0
  distance_traveled: 12299.0
  fault_code: 0
---
header: 
  seq: 72770
  stamp: 
    secs: 1626107710
    nsecs: 175907155
  frame_id: ''
state: 
  voltage_input: 11.4
  temperature_pcb: 0.0
  current_motor: 0.0
  current_input: 0.0
  current_q: 0.0
  speed: -2.0
  duty_cycle: 0.0
  charge_drawn: 100.0
  charge_regen: 0.0
  energy_drawn: 0.0
  energy_regen: 0.0
  displacement: 1515.0
  distance_traveled: 12299.0
  fault_code: 0
---
header: 
  seq: 72771
  stamp: 
    secs: 1626107710
    nsecs: 196052210
  frame_id: ''
state: 
  voltage_input: 11.4
  temperature_pcb: 0.0
  current_motor: 0.0
  current_input: 0.0
  current_q: 0.0
  speed: -3.0
  duty_cycle: 0.0
  charge_drawn: 100.0
  charge_regen: 0.0
  energy_drawn: 0.0
  energy_regen: 0.0
  displacement: 1515.0
  distance_traveled: 12299.0
  fault_code: 0
---
header: 
  seq: 72772
  stamp: 
    secs: 1626107710
    nsecs: 215840080
  frame_id: ''
state: 
  voltage_input: 11.5
  temperature_pcb: 0.0
  current_motor: 0.0
  current_input: 0.0
  current_q: 0.0
  speed: 0.0
  duty_cycle: 0.0
  charge_drawn: 100.0
  charge_regen: 0.0
  energy_drawn: 0.0
  energy_regen: 0.0
  displacement: 1515.0
  distance_traveled: 12299.0
  fault_code: 0
---
header: 
  seq: 72773
  stamp: 
    secs: 1626107710
    nsecs: 235827219
  frame_id: ''
state: 
  voltage_input: 11.5
  temperature_pcb: 0.0
  current_motor: 0.0
  current_input: 0.0
  current_q: 0.0
  speed: -1.0
  duty_cycle: 0.0
  charge_drawn: 100.0
  charge_regen: 0.0
  energy_drawn: 0.0
  energy_regen: 0.0
  displacement: 1515.0
  distance_traveled: 12299.0
  fault_code: 0
---
header: 
  seq: 72774
  stamp: 
    secs: 1626107710
    nsecs: 257043050
  frame_id: ''
state: 
  voltage_input: 11.5
  temperature_pcb: 0.0
  current_motor: 0.0
  current_input: 0.0
  current_q: 0.0
  speed: 0.0
  duty_cycle: 0.0
  charge_drawn: 100.0
  charge_regen: 0.0
  energy_drawn: 0.0
  energy_regen: 0.0
  displacement: 1515.0
  distance_traveled: 12299.0
  fault_code: 0
---
header: 
  seq: 72775
  stamp: 
    secs: 1626107710
    nsecs: 276679254
  frame_id: ''
state: 
  voltage_input: 11.5
  temperature_pcb: 0.0
  current_motor: 0.0
  current_input: 0.0
  current_q: 0.0
  speed: 0.0
  duty_cycle: 0.0
  charge_drawn: 100.0
  charge_regen: 0.0
  energy_drawn: 0.0
  energy_regen: 0.0
  displacement: 1515.0
  distance_traveled: 12299.0
  fault_code: 0
---
header: 
  seq: 72776
  stamp: 
    secs: 1626107710
    nsecs: 297378577
  frame_id: ''
state: 
  voltage_input: 11.5
  temperature_pcb: 0.0
  current_motor: 0.0
  current_input: 0.0
  current_q: 0.0
  speed: -2.0
  duty_cycle: 0.001
  charge_drawn: 100.0
  charge_regen: 0.0
  energy_drawn: 0.0
  energy_regen: 0.0
  displacement: 1515.0
  distance_traveled: 12299.0
  fault_code: 0
---
header: 
  seq: 72777
  stamp: 
    secs: 1626107710
    nsecs: 316883271
  frame_id: ''
state: 
  voltage_input: 11.5
  temperature_pcb: 0.0
  current_motor: 0.0
  current_input: 0.0
  current_q: 0.0
  speed: -2.0
  duty_cycle: 0.0
  charge_drawn: 100.0
  charge_regen: 0.0
  energy_drawn: 0.0
  energy_regen: 0.0
  displacement: 1515.0
  distance_traveled: 12299.0
  fault_code: 0
---
header: 
  seq: 72778
  stamp: 
    secs: 1626107710
    nsecs: 336205518
  frame_id: ''
state: 
  voltage_input: 11.5
  temperature_pcb: 0.0
  current_motor: 0.0
  current_input: 0.0
  current_q: 0.0
  speed: -3.0
  duty_cycle: 0.0
  charge_drawn: 100.0
  charge_regen: 0.0
  energy_drawn: 0.0
  energy_regen: 0.0
  displacement: 1515.0
  distance_traveled: 12299.0
  fault_code: 0
---
header: 
  seq: 72779
  stamp: 
    secs: 1626107710
    nsecs: 355862034
  frame_id: ''
state: 
  voltage_input: 11.5
  temperature_pcb: 0.0
  current_motor: 0.0
  current_input: 0.0
  current_q: 0.0
  speed: -1.0
  duty_cycle: 0.0
  charge_drawn: 100.0
  charge_regen: 0.0
  energy_drawn: 0.0
  energy_regen: 0.0
  displacement: 1515.0
  distance_traveled: 12299.0
  fault_code: 0
---
header: 
  seq: 72780
  stamp: 
    secs: 1626107710
    nsecs: 376261879
  frame_id: ''
state: 
  voltage_input: 11.5
  temperature_pcb: 0.0
  current_motor: 0.0
  current_input: 0.0
  current_q: 0.0
  speed: -1.0
  duty_cycle: 0.0
  charge_drawn: 100.0
  charge_regen: 0.0
  energy_drawn: 0.0
  energy_regen: 0.0
  displacement: 1515.0
  distance_traveled: 12299.0
  fault_code: 0
---
header: 
  seq: 72781
  stamp: 
    secs: 1626107710
    nsecs: 395996936
  frame_id: ''
state: 
  voltage_input: 11.5
  temperature_pcb: 0.0
  current_motor: 0.0
  current_input: 0.0
  current_q: 0.0
  speed: -1.0
  duty_cycle: 0.0
  charge_drawn: 100.0
  charge_regen: 0.0
  energy_drawn: 0.0
  energy_regen: 0.0
  displacement: 1515.0
  distance_traveled: 12299.0
  fault_code: 0
---
header: 
  seq: 72782
  stamp: 
    secs: 1626107710
    nsecs: 415973972
  frame_id: ''
state: 
  voltage_input: 11.5
  temperature_pcb: 0.0
  current_motor: 0.0
  current_input: 0.0
  current_q: 0.0
  speed: -1.0
  duty_cycle: 0.0
  charge_drawn: 100.0
  charge_regen: 0.0
  energy_drawn: 0.0
  energy_regen: 0.0
  displacement: 1515.0
  distance_traveled: 12299.0
  fault_code: 0
---
header: 
  seq: 72783
  stamp: 
    secs: 1626107710
    nsecs: 436074131
  frame_id: ''
state: 
  voltage_input: 11.5
  temperature_pcb: 0.0
  current_motor: 0.0
  current_input: 0.0
  current_q: 0.0
  speed: -2.0
  duty_cycle: 0.0
  charge_drawn: 100.0
  charge_regen: 0.0
  energy_drawn: 0.0
  energy_regen: 0.0
  displacement: 1515.0
  distance_traveled: 12299.0
  fault_code: 0
---
header: 
  seq: 72784
  stamp: 
    secs: 1626107710
    nsecs: 457442149
  frame_id: ''
state: 
  voltage_input: 11.5
  temperature_pcb: 0.0
  current_motor: 0.0
  current_input: 0.0
  current_q: 0.0
  speed: -1.0
  duty_cycle: 0.0
  charge_drawn: 100.0
  charge_regen: 0.0
  energy_drawn: 0.0
  energy_regen: 0.0
  displacement: 1515.0
  distance_traveled: 12299.0
  fault_code: 0
---
header: 
  seq: 72785
  stamp: 
    secs: 1626107710
    nsecs: 477078092
  frame_id: ''
state: 
  voltage_input: 11.5
  temperature_pcb: 0.0
  current_motor: 0.0
  current_input: 0.0
  current_q: 0.0
  speed: 0.0
  duty_cycle: 0.0
  charge_drawn: 100.0
  charge_regen: 0.0
  energy_drawn: 0.0
  energy_regen: 0.0
  displacement: 1515.0
  distance_traveled: 12299.0
  fault_code: 0
---
header: 
  seq: 72786
  stamp: 
    secs: 1626107710
    nsecs: 497206637
  frame_id: ''
state: 
  voltage_input: 11.5
  temperature_pcb: 0.0
  current_motor: 0.0
  current_input: 0.0
  current_q: 0.0
  speed: 0.0
  duty_cycle: 0.0
  charge_drawn: 100.0
  charge_regen: 0.0
  energy_drawn: 0.0
  energy_regen: 0.0
  displacement: 1515.0
  distance_traveled: 12299.0
  fault_code: 0
---
header: 
  seq: 72787
  stamp: 
    secs: 1626107710
    nsecs: 516862684
  frame_id: ''
state: 
  voltage_input: 11.5
  temperature_pcb: 0.0
  current_motor: 0.0
  current_input: 0.0
  current_q: 0.0
  speed: 0.0
  duty_cycle: 0.0
  charge_drawn: 100.0
  charge_regen: 0.0
  energy_drawn: 0.0
  energy_regen: 0.0
  displacement: 1515.0
  distance_traveled: 12299.0
  fault_code: 0
---
header: 
  seq: 72788
  stamp: 
    secs: 1626107710
    nsecs: 536858417
  frame_id: ''
state: 
  voltage_input: 11.5
  temperature_pcb: 0.0
  current_motor: 0.0
  current_input: 0.0
  current_q: 0.0
  speed: -1.0
  duty_cycle: 0.0
  charge_drawn: 100.0
  charge_regen: 0.0
  energy_drawn: 0.0
  energy_regen: 0.0
  displacement: 1515.0
  distance_traveled: 12299.0
  fault_code: 0
---
header: 
  seq: 72789
  stamp: 
    secs: 1626107710
    nsecs: 556109362
  frame_id: ''
state: 
  voltage_input: 11.5
  temperature_pcb: 0.0
  current_motor: 0.0
  current_input: 0.0
  current_q: 0.0
  speed: 0.0
  duty_cycle: 0.0
  charge_drawn: 100.0
  charge_regen: 0.0
  energy_drawn: 0.0
  energy_regen: 0.0
  displacement: 1515.0
  distance_traveled: 12299.0
  fault_code: 0
---
header: 
  seq: 72790
  stamp: 
    secs: 1626107710
    nsecs: 576343532
  frame_id: ''
state: 
  voltage_input: 11.5
  temperature_pcb: 0.0
  current_motor: 0.0
  current_input: 0.0
  current_q: 0.0
  speed: -2.0
  duty_cycle: 0.0
  charge_drawn: 100.0
  charge_regen: 0.0
  energy_drawn: 0.0
  energy_regen: 0.0
  displacement: 1515.0
  distance_traveled: 12299.0
  fault_code: 0
---
header: 
  seq: 72791
  stamp: 
    secs: 1626107710
    nsecs: 596528014
  frame_id: ''
state: 
  voltage_input: 11.5
  temperature_pcb: 0.0
  current_motor: 32.23
  current_input: 2.23
  current_q: 33.98
  speed: 35.0
  duty_cycle: 0.076
  charge_drawn: 100.0
  charge_regen: 0.0
  energy_drawn: 0.0
  energy_regen: 0.0
  displacement: 1515.0
  distance_traveled: 12299.0
  fault_code: 0
---
header: 
  seq: 72792
  stamp: 
    secs: 1626107710
    nsecs: 617564731
  frame_id: ''
state: 
  voltage_input: 11.5
  temperature_pcb: 0.0
  current_motor: 60.2
  current_input: 3.86
  current_q: 60.1
  speed: -16.0
  duty_cycle: 0.073
  charge_drawn: 100.0
  charge_regen: 0.0
  energy_drawn: 0.0
  energy_regen: 0.0
  displacement: 1515.0
  distance_traveled: 12299.0
  fault_code: 0
---
header: 
  seq: 72793
  stamp: 
    secs: 1626107710
    nsecs: 636962915
  frame_id: ''
state: 
  voltage_input: 11.5
  temperature_pcb: 0.0
  current_motor: 59.92
  current_input: 3.78
  current_q: 59.91
  speed: -58.0
  duty_cycle: 0.075
  charge_drawn: 100.0
  charge_regen: 0.0
  energy_drawn: 0.0
  energy_regen: 0.0
  displacement: 1514.0
  distance_traveled: 12300.0
  fault_code: 0
---
header: 
  seq: 72794
  stamp: 
    secs: 1626107710
    nsecs: 657104325
  frame_id: ''
state: 
  voltage_input: 11.5
  temperature_pcb: 0.0
  current_motor: 60.03
  current_input: 3.85
  current_q: 59.99
  speed: -78.0
  duty_cycle: 0.074
  charge_drawn: 100.0
  charge_regen: 0.0
  energy_drawn: 0.0
  energy_regen: 0.0
  displacement: 1514.0
  distance_traveled: 12300.0
  fault_code: 0
---
header: 
  seq: 72795
  stamp: 
    secs: 1626107710
    nsecs: 677020162
  frame_id: ''
state: 
  voltage_input: 11.5
  temperature_pcb: 0.0
  current_motor: 59.99
  current_input: 3.87
  current_q: 59.99
  speed: -85.0
  duty_cycle: 0.074
  charge_drawn: 101.0
  charge_regen: 0.0
  energy_drawn: 0.0
  energy_regen: 0.0
  displacement: 1514.0
  distance_traveled: 12300.0
  fault_code: 0
---
header: 
  seq: 72796
  stamp: 
    secs: 1626107710
    nsecs: 696040692
  frame_id: ''
state: 
  voltage_input: 11.5
  temperature_pcb: 0.0
  current_motor: 42.63
  current_input: 2.85
  current_q: 41.13
  speed: 137.0
  duty_cycle: 0.087
  charge_drawn: 101.0
  charge_regen: 0.0
  energy_drawn: 0.0
  energy_regen: 0.0
  displacement: 1515.0
  distance_traveled: 12301.0
  fault_code: 0
---
header: 
  seq: 72797
  stamp: 
    secs: 1626107710
    nsecs: 716464183
  frame_id: ''
state: 
  voltage_input: 11.5
  temperature_pcb: 0.0
  current_motor: 60.64
  current_input: 3.84
  current_q: 60.31
  speed: 162.0
  duty_cycle: 0.079
  charge_drawn: 101.0
  charge_regen: 0.0
  energy_drawn: 0.0
  energy_regen: 0.0
  displacement: 1516.0
  distance_traveled: 12302.0
  fault_code: 0
---
header: 
  seq: 72798
  stamp: 
    secs: 1626107710
    nsecs: 735855909
  frame_id: ''
state: 
  voltage_input: 11.4
  temperature_pcb: 0.0
  current_motor: 56.86
  current_input: 3.5
  current_q: 56.52
  speed: 235.0
  duty_cycle: 0.071
  charge_drawn: 101.0
  charge_regen: 0.0
  energy_drawn: 0.0
  energy_regen: 0.0
  displacement: 1517.0
  distance_traveled: 12303.0
  fault_code: 0
---
header: 
  seq: 72799
  stamp: 
    secs: 1626107710
    nsecs: 756347004
  frame_id: ''
state: 
  voltage_input: 11.5
  temperature_pcb: 0.0
  current_motor: 51.25
  current_input: 2.9
  current_q: 50.94
  speed: 333.0
  duty_cycle: 0.068
  charge_drawn: 101.0
  charge_regen: 0.0
  energy_drawn: 0.0
  energy_regen: 0.0
  displacement: 1518.0
  distance_traveled: 12304.0
  fault_code: 0
---
header: 
  seq: 72800
  stamp: 
    secs: 1626107710
    nsecs: 777431794
  frame_id: ''
state: 
  voltage_input: 11.4
  temperature_pcb: 0.0
  current_motor: 46.93
  current_input: 2.59
  current_q: 46.71
  speed: 437.0
  duty_cycle: 0.071
  charge_drawn: 102.0
  charge_regen: 0.0
  energy_drawn: 0.0
  energy_regen: 0.0
  displacement: 1519.0
  distance_traveled: 12305.0
  fault_code: 0
---
header: 
  seq: 72801
  stamp: 
    secs: 1626107710
    nsecs: 797741744
  frame_id: ''
state: 
  voltage_input: 11.5
  temperature_pcb: 0.0
  current_motor: 44.26
  current_input: 2.53
  current_q: 44.27
  speed: 548.0
  duty_cycle: 0.062
  charge_drawn: 102.0
  charge_regen: 0.0
  energy_drawn: 0.0
  energy_regen: 0.0
  displacement: 1521.0
  distance_traveled: 12307.0
  fault_code: 0
---
header: 
  seq: 72802
  stamp: 
    secs: 1626107710
    nsecs: 816648160
  frame_id: ''
state: 
  voltage_input: 11.6
  temperature_pcb: 0.0
  current_motor: 43.25
  current_input: 2.54
  current_q: 43.07
  speed: 635.0
  duty_cycle: 0.073
  charge_drawn: 102.0
  charge_regen: 0.0
  energy_drawn: 0.0
  energy_regen: 0.0
  displacement: 1523.0
  distance_traveled: 12309.0
  fault_code: 0
---
header: 
  seq: 72803
  stamp: 
    secs: 1626107710
    nsecs: 840050594
  frame_id: ''
state: 
  voltage_input: 11.5
  temperature_pcb: 0.0
  current_motor: 43.99
  current_input: 2.43
  current_q: 44.0
  speed: 701.0
  duty_cycle: 0.078
  charge_drawn: 102.0
  charge_regen: 0.0
  energy_drawn: 0.0
  energy_regen: 0.0
  displacement: 1525.0
  distance_traveled: 12311.0
  fault_code: 0
---
header: 
  seq: 72804
  stamp: 
    secs: 1626107710
    nsecs: 856724990
  frame_id: ''
state: 
  voltage_input: 11.5
  temperature_pcb: 0.0
  current_motor: 45.6
  current_input: 2.93
  current_q: 45.46
  speed: 754.0
  duty_cycle: 0.069
  charge_drawn: 102.0
  charge_regen: 0.0
  energy_drawn: 0.0
  energy_regen: 0.0
  displacement: 1527.0
  distance_traveled: 12313.0
  fault_code: 0
---
header: 
  seq: 72805
  stamp: 
    secs: 1626107710
    nsecs: 876746973
  frame_id: ''
state: 
  voltage_input: 11.6
  temperature_pcb: 0.0
  current_motor: 36.82
  current_input: 2.09
  current_q: 36.89
  speed: 813.0
  duty_cycle: 0.074
  charge_drawn: 102.0
  charge_regen: 0.0
  energy_drawn: 0.0
  energy_regen: 0.0
  displacement: 1528.0
  distance_traveled: 12314.0
  fault_code: 0
---
header: 
  seq: 72806
  stamp: 
    secs: 1626107710
    nsecs: 896841872
  frame_id: ''
state: 
  voltage_input: 11.4
  temperature_pcb: 0.0
  current_motor: 40.94
  current_input: 2.53
  current_q: 40.34
  speed: 914.0
  duty_cycle: 0.059
  charge_drawn: 102.0
  charge_regen: 0.0
  energy_drawn: 0.0
  energy_regen: 0.0
  displacement: 1531.0
  distance_traveled: 12317.0
  fault_code: 0
---
header: 
  seq: 72807
  stamp: 
    secs: 1626107710
    nsecs: 916571669
  frame_id: ''
state: 
  voltage_input: 11.5
  temperature_pcb: 0.0
  current_motor: 33.42
  current_input: 1.89
  current_q: 33.93
  speed: 968.0
  duty_cycle: 0.076
  charge_drawn: 103.0
  charge_regen: 0.0
  energy_drawn: 0.0
  energy_regen: 0.0
  displacement: 1533.0
  distance_traveled: 12319.0
  fault_code: 0
---
header: 
  seq: 72808
  stamp: 
    secs: 1626107710
    nsecs: 936459642
  frame_id: ''
state: 
  voltage_input: 11.5
  temperature_pcb: 0.0
  current_motor: 33.17
  current_input: 1.91
  current_q: 32.39
  speed: 1098.0
  duty_cycle: 0.059
  charge_drawn: 103.0
  charge_regen: 0.0
  energy_drawn: 0.0
  energy_regen: 0.0
  displacement: 1536.0
  distance_traveled: 12322.0
  fault_code: 0
---
header: 
  seq: 72809
  stamp: 
    secs: 1626107710
    nsecs: 956608864
  frame_id: ''
state: 
  voltage_input: 11.5
  temperature_pcb: 0.0
  current_motor: 27.66
  current_input: 1.47
  current_q: 27.84
  speed: 1185.0
  duty_cycle: 0.064
  charge_drawn: 103.0
  charge_regen: 0.0
  energy_drawn: 0.0
  energy_regen: 0.0
  displacement: 1539.0
  distance_traveled: 12325.0
  fault_code: 0
---
header: 
  seq: 72810
  stamp: 
    secs: 1626107710
    nsecs: 977024803
  frame_id: ''
state: 
  voltage_input: 11.5
  temperature_pcb: 0.0
  current_motor: 26.55
  current_input: 1.41
  current_q: 26.19
  speed: 1303.0
  duty_cycle: 0.061
  charge_drawn: 103.0
  charge_regen: 0.0
  energy_drawn: 0.0
  energy_regen: 0.0
  displacement: 1542.0
  distance_traveled: 12328.0
  fault_code: 0
---
header: 
  seq: 72811
  stamp: 
    secs: 1626107710
    nsecs: 996532101
  frame_id: ''
state: 
  voltage_input: 11.5
  temperature_pcb: 0.0
  current_motor: 22.85
  current_input: 1.15
  current_q: 22.77
  speed: 1398.0
  duty_cycle: 0.055
  charge_drawn: 103.0
  charge_regen: 0.0
  energy_drawn: 0.0
  energy_regen: 0.0
  displacement: 1546.0
  distance_traveled: 12332.0
  fault_code: 0
---
header: 
  seq: 72812
  stamp: 
    secs: 1626107711
    nsecs:  16892209
  frame_id: ''
state: 
  voltage_input: 11.5
  temperature_pcb: 0.0
  current_motor: 22.47
  current_input: 1.14
  current_q: 22.25
  speed: 1492.0
  duty_cycle: 0.058
  charge_drawn: 103.0
  charge_regen: 0.0
  energy_drawn: 0.0
  energy_regen: 0.0
  displacement: 1549.0
  distance_traveled: 12335.0
  fault_code: 0
---
header: 
  seq: 72813
  stamp: 
    secs: 1626107711
    nsecs:  37318358
  frame_id: ''
state: 
  voltage_input: 11.5
  temperature_pcb: 0.0
  current_motor: 20.6
  current_input: 1.03
  current_q: 20.7
  speed: 1567.0
  duty_cycle: 0.06
  charge_drawn: 103.0
  charge_regen: 0.0
  energy_drawn: 0.0
  energy_regen: 0.0
  displacement: 1553.0
  distance_traveled: 12339.0
  fault_code: 0
---
header: 
  seq: 72814
  stamp: 
    secs: 1626107711
    nsecs:  57886122
  frame_id: ''
state: 
  voltage_input: 11.5
  temperature_pcb: 0.0
  current_motor: 21.13
  current_input: 1.08
  current_q: 20.99
  speed: 1644.0
  duty_cycle: 0.058
  charge_drawn: 103.0
  charge_regen: 0.0
  energy_drawn: 0.0
  energy_regen: 0.0
  displacement: 1557.0
  distance_traveled: 12343.0
  fault_code: 0
---
header: 
  seq: 72815
  stamp: 
    secs: 1626107711
    nsecs:  76998372
  frame_id: ''
state: 
  voltage_input: 11.4
  temperature_pcb: 0.0
  current_motor: 20.19
  current_input: 1.0
  current_q: 20.01
  speed: 1696.0
  duty_cycle: 0.061
  charge_drawn: 103.0
  charge_regen: 0.0
  energy_drawn: 0.0
  energy_regen: 0.0
  displacement: 1560.0
  distance_traveled: 12346.0
  fault_code: 0
---
header: 
  seq: 72816
  stamp: 
    secs: 1626107711
    nsecs:  97425615
  frame_id: ''
state: 
  voltage_input: 11.4
  temperature_pcb: 0.0
  current_motor: 19.09
  current_input: 0.94
  current_q: 18.83
  speed: 1760.0
  duty_cycle: 0.051
  charge_drawn: 103.0
  charge_regen: 0.0
  energy_drawn: 0.0
  energy_regen: 0.0
  displacement: 1564.0
  distance_traveled: 12350.0
  fault_code: 0
---
header: 
  seq: 72817
  stamp: 
    secs: 1626107711
    nsecs: 117103279
  frame_id: ''
state: 
  voltage_input: 11.5
  temperature_pcb: 0.0
  current_motor: 18.16
  current_input: 0.9
  current_q: 18.23
  speed: 1807.0
  duty_cycle: 0.056
  charge_drawn: 103.0
  charge_regen: 0.0
  energy_drawn: 0.0
  energy_regen: 0.0
  displacement: 1568.0
  distance_traveled: 12354.0
  fault_code: 0
---
header: 
  seq: 72818
  stamp: 
    secs: 1626107711
    nsecs: 137494950
  frame_id: ''
state: 
  voltage_input: 11.5
  temperature_pcb: 0.0
  current_motor: 17.74
  current_input: 0.87
  current_q: 17.63
  speed: 1854.0
  duty_cycle: 0.057
  charge_drawn: 103.0
  charge_regen: 0.0
  energy_drawn: 0.0
  energy_regen: 0.0
  displacement: 1572.0
  distance_traveled: 12358.0
  fault_code: 0
---
header: 
  seq: 72819
  stamp: 
    secs: 1626107711
    nsecs: 157537195
  frame_id: ''
state: 
  voltage_input: 11.4
  temperature_pcb: 0.0
  current_motor: 16.42
  current_input: 0.79
  current_q: 16.12
  speed: 1909.0
  duty_cycle: 0.053
  charge_drawn: 103.0
  charge_regen: 0.0
  energy_drawn: 0.0
  energy_regen: 0.0
  displacement: 1576.0
  distance_traveled: 12362.0
  fault_code: 0
---
header: 
  seq: 72820
  stamp: 
    secs: 1626107711
    nsecs: 177217671
  frame_id: ''
state: 
  voltage_input: 11.6
  temperature_pcb: 0.0
  current_motor: 14.79
  current_input: 0.71
  current_q: 14.75
  speed: 1952.0
  duty_cycle: 0.056
  charge_drawn: 103.0
  charge_regen: 0.0
  energy_drawn: 0.0
  energy_regen: 0.0
  displacement: 1580.0
  distance_traveled: 12366.0
  fault_code: 0
---
header: 
  seq: 72821
  stamp: 
    secs: 1626107711
    nsecs: 197244239
  frame_id: ''
state: 
  voltage_input: 11.5
  temperature_pcb: 0.0
  current_motor: 14.62
  current_input: 0.71
  current_q: 14.54
  speed: 2000.0
  duty_cycle: 0.061
  charge_drawn: 103.0
  charge_regen: 0.0
  energy_drawn: 0.0
  energy_regen: 0.0
  displacement: 1584.0
  distance_traveled: 12370.0
  fault_code: 0
---
header: 
  seq: 72822
  stamp: 
    secs: 1626107711
    nsecs: 216829976
  frame_id: ''
state: 
  voltage_input: 11.5
  temperature_pcb: 0.0
  current_motor: 12.63
  current_input: 0.59
  current_q: 12.42
  speed: 2049.0
  duty_cycle: 0.046
  charge_drawn: 103.0
  charge_regen: 0.0
  energy_drawn: 0.0
  energy_regen: 0.0
  displacement: 1589.0
  distance_traveled: 12375.0
  fault_code: 0
---
header: 
  seq: 72823
  stamp: 
    secs: 1626107711
    nsecs: 236647431
  frame_id: ''
state: 
  voltage_input: 11.5
  temperature_pcb: 0.0
  current_motor: 13.05
  current_input: 0.64
  current_q: 13.19
  speed: 2073.0
  duty_cycle: 0.06
  charge_drawn: 103.0
  charge_regen: 0.0
  energy_drawn: 0.0
  energy_regen: 0.0
  displacement: 1593.0
  distance_traveled: 12379.0
  fault_code: 0
---
header: 
  seq: 72824
  stamp: 
    secs: 1626107711
    nsecs: 257222851
  frame_id: ''
state: 
  voltage_input: 11.5
  temperature_pcb: 0.0
  current_motor: 11.46
  current_input: 0.53
  current_q: 11.15
  speed: 2133.0
  duty_cycle: 0.048
  charge_drawn: 104.0
  charge_regen: 0.0
  energy_drawn: 0.0
  energy_regen: 0.0
  displacement: 1598.0
  distance_traveled: 12384.0
  fault_code: 0
---
header: 
  seq: 72825
  stamp: 
    secs: 1626107711
    nsecs: 276619110
  frame_id: ''
state: 
  voltage_input: 11.5
  temperature_pcb: 0.0
  current_motor: 10.63
  current_input: 0.49
  current_q: 10.63
  speed: 2156.0
  duty_cycle: 0.057
  charge_drawn: 104.0
  charge_regen: 0.0
  energy_drawn: 0.0
  energy_regen: 0.0
  displacement: 1602.0
  distance_traveled: 12388.0
  fault_code: 0
---
header: 
  seq: 72826
  stamp: 
    secs: 1626107711
    nsecs: 297093436
  frame_id: ''
state: 
  voltage_input: 11.5
  temperature_pcb: 0.0
  current_motor: 10.48
  current_input: 0.48
  current_q: 10.25
  speed: 2204.0
  duty_cycle: 0.045
  charge_drawn: 104.0
  charge_regen: 0.0
  energy_drawn: 0.0
  energy_regen: 0.0
  displacement: 1607.0
  distance_traveled: 12393.0
  fault_code: 0
---
header: 
  seq: 72827
  stamp: 
    secs: 1626107711
    nsecs: 316856621
  frame_id: ''
state: 
  voltage_input: 11.4
  temperature_pcb: 0.0
  current_motor: 10.03
  current_input: 0.5
  current_q: 10.45
  speed: 2198.0
  duty_cycle: 0.069
  charge_drawn: 104.0
  charge_regen: 0.0
  energy_drawn: 0.0
  energy_regen: 0.0
  displacement: 1611.0
  distance_traveled: 12397.0
  fault_code: 0
---
header: 
  seq: 72828
  stamp: 
    secs: 1626107711
    nsecs: 337393343
  frame_id: ''
state: 
  voltage_input: 11.5
  temperature_pcb: 0.0
  current_motor: 12.78
  current_input: 0.69
  current_q: 12.0
  speed: 2264.0
  duty_cycle: 0.032
  charge_drawn: 104.0
  charge_regen: 0.0
  energy_drawn: 0.0
  energy_regen: 0.0
  displacement: 1616.0
  distance_traveled: 12402.0
  fault_code: 0
---
header: 
  seq: 72829
  stamp: 
    secs: 1626107711
    nsecs: 357210120
  frame_id: ''
state: 
  voltage_input: 11.5
  temperature_pcb: 0.0
  current_motor: 10.05
  current_input: 0.6
  current_q: 10.7
  speed: 2230.0
  duty_cycle: 0.075
  charge_drawn: 104.0
  charge_regen: 0.0
  energy_drawn: 0.0
  energy_regen: 0.0
  displacement: 1620.0
  distance_traveled: 12406.0
  fault_code: 0
---
header: 
  seq: 72830
  stamp: 
    secs: 1626107711
    nsecs: 376602942
  frame_id: ''
state: 
  voltage_input: 11.5
  temperature_pcb: 0.0
  current_motor: 10.76
  current_input: 0.54
  current_q: 9.82
  speed: 2291.0
  duty_cycle: 0.026
  charge_drawn: 104.0
  charge_regen: 0.0
  energy_drawn: 0.0
  energy_regen: 0.0
  displacement: 1625.0
  distance_traveled: 12411.0
  fault_code: 0
---
header: 
  seq: 72831
  stamp: 
    secs: 1626107711
    nsecs: 398698354
  frame_id: ''
state: 
  voltage_input: 11.5
  temperature_pcb: 0.0
  current_motor: 10.87
  current_input: 0.66
  current_q: 11.68
  speed: 2253.0
  duty_cycle: 0.073
  charge_drawn: 104.0
  charge_regen: 0.0
  energy_drawn: 0.0
  energy_regen: 0.0
  displacement: 1629.0
  distance_traveled: 12415.0
  fault_code: 0
---
header: 
  seq: 72832
  stamp: 
    secs: 1626107711
    nsecs: 417132065
  frame_id: ''
state: 
  voltage_input: 11.5
  temperature_pcb: 0.0
  current_motor: 11.26
  current_input: 0.58
  current_q: 10.24
  speed: 2303.0
  duty_cycle: 0.027
  charge_drawn: 104.0
  charge_regen: 0.0
  energy_drawn: 0.0
  energy_regen: 0.0
  displacement: 1634.0
  distance_traveled: 12420.0
  fault_code: 0
---
header: 
  seq: 72833
  stamp: 
    secs: 1626107711
    nsecs: 436864677
  frame_id: ''
state: 
  voltage_input: 11.5
  temperature_pcb: 0.0
  current_motor: 10.87
  current_input: 0.67
  current_q: 11.75
  speed: 2260.0
  duty_cycle: 0.071
  charge_drawn: 104.0
  charge_regen: 0.0
  energy_drawn: 0.0
  energy_regen: 0.0
  displacement: 1639.0
  distance_traveled: 12425.0
  fault_code: 0
---
header: 
  seq: 72834
  stamp: 
    secs: 1626107711
    nsecs: 457854834
  frame_id: ''
state: 
  voltage_input: 11.5
  temperature_pcb: 0.0
  current_motor: 9.09
  current_input: 0.48
  current_q: 8.27
  speed: 2289.0
  duty_cycle: 0.051
  charge_drawn: 104.0
  charge_regen: 0.0
  energy_drawn: 0.0
  energy_regen: 0.0
  displacement: 1644.0
  distance_traveled: 12430.0
  fault_code: 0
---
header: 
  seq: 72835
  stamp: 
    secs: 1626107711
    nsecs: 476758335
  frame_id: ''
state: 
  voltage_input: 11.6
  temperature_pcb: 0.0
  current_motor: 11.69
  current_input: 0.65
  current_q: 11.59
  speed: 2319.0
  duty_cycle: 0.052
  charge_drawn: 104.0
  charge_regen: 0.0
  energy_drawn: 0.0
  energy_regen: 0.0
  displacement: 1648.0
  distance_traveled: 12434.0
  fault_code: 0
---
header: 
  seq: 72836
  stamp: 
    secs: 1626107711
    nsecs: 496931621
  frame_id: ''
state: 
  voltage_input: 11.5
  temperature_pcb: 0.0
  current_motor: 6.61
  current_input: 0.37
  current_q: 6.89
  speed: 2315.0
  duty_cycle: 0.058
  charge_drawn: 104.0
  charge_regen: 0.0
  energy_drawn: 0.0
  energy_regen: 0.0
  displacement: 1653.0
  distance_traveled: 12439.0
  fault_code: 0
---
header: 
  seq: 72837
  stamp: 
    secs: 1626107711
    nsecs: 516763972
  frame_id: ''
state: 
  voltage_input: 11.5
  temperature_pcb: 0.0
  current_motor: 10.48
  current_input: 0.55
  current_q: 10.02
  speed: 2365.0
  duty_cycle: 0.042
  charge_drawn: 104.0
  charge_regen: 0.0
  energy_drawn: 0.0
  energy_regen: 0.0
  displacement: 1658.0
  distance_traveled: 12444.0
  fault_code: 0
---
header: 
  seq: 72838
  stamp: 
    secs: 1626107711
    nsecs: 536770228
  frame_id: ''
state: 
  voltage_input: 11.6
  temperature_pcb: 0.0
  current_motor: 7.72
  current_input: 0.45
  current_q: 8.14
  speed: 2340.0
  duty_cycle: 0.068
  charge_drawn: 104.0
  charge_regen: 0.0
  energy_drawn: 0.0
  energy_regen: 0.0
  displacement: 1662.0
  distance_traveled: 12448.0
  fault_code: 0
---
header: 
  seq: 72839
  stamp: 
    secs: 1626107711
    nsecs: 557088826
  frame_id: ''
state: 
  voltage_input: 11.5
  temperature_pcb: 0.0
  current_motor: 9.99
  current_input: 0.51
  current_q: 9.15
  speed: 2385.0
  duty_cycle: 0.025
  charge_drawn: 104.0
  charge_regen: 0.0
  energy_drawn: 0.0
  energy_regen: 0.0
  displacement: 1667.0
  distance_traveled: 12453.0
  fault_code: 0
---
header: 
  seq: 72840
  stamp: 
    secs: 1626107711
    nsecs: 576876333
  frame_id: ''
state: 
  voltage_input: 11.5
  temperature_pcb: 0.0
  current_motor: 9.6
  current_input: 0.57
  current_q: 10.06
  speed: 2360.0
  duty_cycle: 0.061
  charge_drawn: 104.0
  charge_regen: 0.0
  energy_drawn: 0.0
  energy_regen: 0.0
  displacement: 1672.0
  distance_traveled: 12458.0
  fault_code: 0
---
header: 
  seq: 72841
  stamp: 
    secs: 1626107711
    nsecs: 596828422
  frame_id: ''
state: 
  voltage_input: 11.5
  temperature_pcb: 0.0
  current_motor: 6.43
  current_input: 0.33
  current_q: 6.08
  speed: 2372.0
  duty_cycle: 0.054
  charge_drawn: 104.0
  charge_regen: 0.0
  energy_drawn: 0.0
  energy_regen: 0.0
  displacement: 1677.0
  distance_traveled: 12463.0
  fault_code: 0
---
header: 
  seq: 72842
  stamp: 
    secs: 1626107711
    nsecs: 617967016
  frame_id: ''
state: 
  voltage_input: 11.5
  temperature_pcb: 0.0
  current_motor: 9.93
  current_input: 0.52
  current_q: 9.61
  speed: 2410.0
  duty_cycle: 0.032
  charge_drawn: 104.0
  charge_regen: 0.0
  energy_drawn: 0.0
  energy_regen: 0.0
  displacement: 1682.0
  distance_traveled: 12468.0
  fault_code: 0
---
header: 
  seq: 72843
  stamp: 
    secs: 1626107711
    nsecs: 637594212
  frame_id: ''
state: 
  voltage_input: 11.4
  temperature_pcb: 0.0
  current_motor: 8.55
  current_input: 0.52
  current_q: 9.27
  speed: 2371.0
  duty_cycle: 0.07
  charge_drawn: 104.0
  charge_regen: 0.0
  energy_drawn: 0.0
  energy_regen: 0.0
  displacement: 1686.0
  distance_traveled: 12472.0
  fault_code: 0
---
header: 
  seq: 72844
  stamp: 
    secs: 1626107711
    nsecs: 656920002
  frame_id: ''
state: 
  voltage_input: 11.5
  temperature_pcb: 0.0
  current_motor: 24.17
  current_input: 1.24
  current_q: -4.76
  speed: 1651.0
  duty_cycle: 0.044
  charge_drawn: 104.0
  charge_regen: 0.0
  energy_drawn: 0.0
  energy_regen: 0.0
  displacement: 1686.0
  distance_traveled: 12476.0
  fault_code: 0
---
header: 
  seq: 72845
  stamp: 
    secs: 1626107711
    nsecs: 676817144
  frame_id: ''
state: 
  voltage_input: 11.4
  temperature_pcb: 0.0
  current_motor: 38.96
  current_input: 1.84
  current_q: -38.42
  speed: 1367.0
  duty_cycle: -0.062
  charge_drawn: 104.0
  charge_regen: 0.0
  energy_drawn: 0.0
  energy_regen: 0.0
  displacement: 1687.0
  distance_traveled: 12479.0
  fault_code: 0
---
header: 
  seq: 72846
  stamp: 
    secs: 1626107711
    nsecs: 696890275
  frame_id: ''
state: 
  voltage_input: 11.5
  temperature_pcb: 0.0
  current_motor: 60.63
  current_input: 3.11
  current_q: -60.76
  speed: 1320.0
  duty_cycle: -0.05
  charge_drawn: 104.0
  charge_regen: 0.0
  energy_drawn: 0.0
  energy_regen: 0.0
  displacement: 1689.0
  distance_traveled: 12481.0
  fault_code: 0
---
header: 
  seq: 72847
  stamp: 
    secs: 1626107711
    nsecs: 716771479
  frame_id: ''
state: 
  voltage_input: 11.5
  temperature_pcb: 0.0
  current_motor: 58.76
  current_input: 2.98
  current_q: -58.76
  speed: 1232.0
  duty_cycle: -0.071
  charge_drawn: 105.0
  charge_regen: 0.0
  energy_drawn: 0.0
  energy_regen: 0.0
  displacement: 1691.0
  distance_traveled: 12483.0
  fault_code: 0
---
header: 
  seq: 72848
  stamp: 
    secs: 1626107711
    nsecs: 737358513
  frame_id: ''
state: 
  voltage_input: 11.4
  temperature_pcb: 0.0
  current_motor: 60.54
  current_input: 3.31
  current_q: -60.54
  speed: 1125.0
  duty_cycle: -0.064
  charge_drawn: 105.0
  charge_regen: 0.0
  energy_drawn: 0.0
  energy_regen: 0.0
  displacement: 1693.0
  distance_traveled: 12485.0
  fault_code: 0
---
header: 
  seq: 72849
  stamp: 
    secs: 1626107711
    nsecs: 756685033
  frame_id: ''
state: 
  voltage_input: 11.5
  temperature_pcb: 0.0
  current_motor: 57.75
  current_input: 3.51
  current_q: -57.73
  speed: 890.0
  duty_cycle: -0.073
  charge_drawn: 105.0
  charge_regen: 0.0
  energy_drawn: 0.0
  energy_regen: 0.0
  displacement: 1693.0
  distance_traveled: 12485.0
  fault_code: 0
---
header: 
  seq: 72850
  stamp: 
    secs: 1626107711
    nsecs: 776707435
  frame_id: ''
state: 
  voltage_input: 11.6
  temperature_pcb: 0.0
  current_motor: 59.65
  current_input: 3.58
  current_q: -59.45
  speed: 754.0
  duty_cycle: -0.074
  charge_drawn: 105.0
  charge_regen: 0.0
  energy_drawn: 0.0
  energy_regen: 0.0
  displacement: 1694.0
  distance_traveled: 12486.0
  fault_code: 0
---
header: 
  seq: 72851
  stamp: 
    secs: 1626107711
    nsecs: 796971658
  frame_id: ''
state: 
  voltage_input: 11.5
  temperature_pcb: 0.0
  current_motor: 56.02
  current_input: 3.48
  current_q: -56.12
  speed: 557.0
  duty_cycle: -0.073
  charge_drawn: 105.0
  charge_regen: 0.0
  energy_drawn: 0.0
  energy_regen: 0.0
  displacement: 1694.0
  distance_traveled: 12486.0
  fault_code: 0
---
header: 
  seq: 72852
  stamp: 
    secs: 1626107711
    nsecs: 816690572
  frame_id: ''
state: 
  voltage_input: 11.5
  temperature_pcb: 0.0
  current_motor: 59.81
  current_input: 3.87
  current_q: -59.86
  speed: 438.0
  duty_cycle: -0.074
  charge_drawn: 106.0
  charge_regen: 0.0
  energy_drawn: 0.0
  energy_regen: 0.0
  displacement: 1694.0
  distance_traveled: 12486.0
  fault_code: 0
---
header: 
  seq: 72853
  stamp: 
    secs: 1626107711
    nsecs: 836830525
  frame_id: ''
state: 
  voltage_input: 11.5
  temperature_pcb: 0.0
  current_motor: 42.04
  current_input: 2.63
  current_q: -40.93
  speed: 133.0
  duty_cycle: -0.072
  charge_drawn: 106.0
  charge_regen: 0.0
  energy_drawn: 0.0
  energy_regen: 0.0
  displacement: 1693.0
  distance_traveled: 12489.0
  fault_code: 0
---
header: 
  seq: 72854
  stamp: 
    secs: 1626107711
    nsecs: 856666261
  frame_id: ''
state: 
  voltage_input: 11.4
  temperature_pcb: 0.0
  current_motor: 58.52
  current_input: 4.28
  current_q: -58.02
  speed: 38.0
  duty_cycle: -0.058
  charge_drawn: 106.0
  charge_regen: 0.0
  energy_drawn: 0.0
  energy_regen: 0.0
  displacement: 1692.0
  distance_traveled: 12490.0
  fault_code: 0
---
header: 
  seq: 72855
  stamp: 
    secs: 1626107711
    nsecs: 877469908
  frame_id: ''
state: 
  voltage_input: 11.5
  temperature_pcb: 0.0
  current_motor: 51.2
  current_input: 3.06
  current_q: -51.04
  speed: -84.0
  duty_cycle: -0.061
  charge_drawn: 106.0
  charge_regen: 0.0
  energy_drawn: 0.0
  energy_regen: 0.0
  displacement: 1692.0
  distance_traveled: 12490.0
  fault_code: 0
---
header: 
  seq: 72856
  stamp: 
    secs: 1626107711
    nsecs: 896434086
  frame_id: ''
state: 
  voltage_input: 11.5
  temperature_pcb: 0.0
  current_motor: 47.4
  current_input: 2.6
  current_q: -47.14
  speed: -208.0
  duty_cycle: -0.056
  charge_drawn: 106.0
  charge_regen: 0.0
  energy_drawn: 0.0
  energy_regen: 0.0
  displacement: 1690.0
  distance_traveled: 12492.0
  fault_code: 0
---
header: 
  seq: 72857
  stamp: 
    secs: 1626107711
    nsecs: 916666070
  frame_id: ''
state: 
  voltage_input: 11.5
  temperature_pcb: 0.0
  current_motor: 43.56
  current_input: 2.25
  current_q: -43.32
  speed: -335.0
  duty_cycle: -0.057
  charge_drawn: 106.0
  charge_regen: 0.0
  energy_drawn: 0.0
  energy_regen: 0.0
  displacement: 1689.0
  distance_traveled: 12493.0
  fault_code: 0
---
header: 
  seq: 72858
  stamp: 
    secs: 1626107711
    nsecs: 936793211
  frame_id: ''
state: 
  voltage_input: 11.5
  temperature_pcb: 0.0
  current_motor: 40.81
  current_input: 2.04
  current_q: -40.89
  speed: -460.0
  duty_cycle: -0.063
  charge_drawn: 107.0
  charge_regen: 0.0
  energy_drawn: 0.0
  energy_regen: 0.0
  displacement: 1687.0
  distance_traveled: 12495.0
  fault_code: 0
---
header: 
  seq: 72859
  stamp: 
    secs: 1626107711
    nsecs: 956939883
  frame_id: ''
state: 
  voltage_input: 11.5
  temperature_pcb: 0.0
  current_motor: 40.47
  current_input: 1.96
  current_q: -40.15
  speed: -556.0
  duty_cycle: -0.072
  charge_drawn: 107.0
  charge_regen: 0.0
  energy_drawn: 0.0
  energy_regen: 0.0
  displacement: 1686.0
  distance_traveled: 12496.0
  fault_code: 0
---
header: 
  seq: 72860
  stamp: 
    secs: 1626107711
    nsecs: 976772806
  frame_id: ''
state: 
  voltage_input: 11.5
  temperature_pcb: 0.0
  current_motor: 41.78
  current_input: 2.03
  current_q: -41.65
  speed: -634.0
  duty_cycle: -0.062
  charge_drawn: 107.0
  charge_regen: 0.0
  energy_drawn: 0.0
  energy_regen: 0.0
  displacement: 1684.0
  distance_traveled: 12498.0
  fault_code: 0
---
header: 
  seq: 72861
  stamp: 
    secs: 1626107711
    nsecs: 997027446
  frame_id: ''
state: 
  voltage_input: 11.5
  temperature_pcb: 0.0
  current_motor: 22.08
  current_input: 1.21
  current_q: -13.33
  speed: -979.0
  duty_cycle: -0.005
  charge_drawn: 107.0
  charge_regen: 0.0
  energy_drawn: 0.0
  energy_regen: 0.0
  displacement: 1680.0
  distance_traveled: 12502.0
  fault_code: 0
---
header: 
  seq: 72862
  stamp: 
    secs: 1626107712
    nsecs:  17168599
  frame_id: ''
state: 
  voltage_input: 11.4
  temperature_pcb: 0.0
  current_motor: 25.86
  current_input: 1.68
  current_q: -27.69
  speed: -1015.0
  duty_cycle: -0.089
  charge_drawn: 107.0
  charge_regen: 0.0
  energy_drawn: 0.0
  energy_regen: 0.0
  displacement: 1678.0
  distance_traveled: 12504.0
  fault_code: 0
---
header: 
  seq: 72863
  stamp: 
    secs: 1626107712
    nsecs:  36839494
  frame_id: ''
state: 
  voltage_input: 11.4
  temperature_pcb: 0.0
  current_motor: 28.68
  current_input: 1.62
  current_q: -27.46
  speed: -1144.0
  duty_cycle: -0.048
  charge_drawn: 107.0
  charge_regen: 0.0
  energy_drawn: 0.0
  energy_regen: 0.0
  displacement: 1675.0
  distance_traveled: 12507.0
  fault_code: 0
---
header: 
  seq: 72864
  stamp: 
    secs: 1626107712
    nsecs:  57169240
  frame_id: ''
state: 
  voltage_input: 11.6
  temperature_pcb: 0.0
  current_motor: 29.19
  current_input: 1.6
  current_q: -29.77
  speed: -1170.0
  duty_cycle: -0.068
  charge_drawn: 107.0
  charge_regen: 0.0
  energy_drawn: 0.0
  energy_regen: 0.0
  displacement: 1672.0
  distance_traveled: 12510.0
  fault_code: 0
---
header: 
  seq: 72865
  stamp: 
    secs: 1626107712
    nsecs:  76672011
  frame_id: ''
state: 
  voltage_input: 11.5
  temperature_pcb: 0.0
  current_motor: 28.03
  current_input: 1.45
  current_q: -27.48
  speed: -1249.0
  duty_cycle: -0.049
  charge_drawn: 107.0
  charge_regen: 0.0
  energy_drawn: 0.0
  energy_regen: 0.0
  displacement: 1669.0
  distance_traveled: 12513.0
  fault_code: 0
---
header: 
  seq: 72866
  stamp: 
    secs: 1626107712
    nsecs:  96798008
  frame_id: ''
state: 
  voltage_input: 11.5
  temperature_pcb: 0.0
  current_motor: 26.47
  current_input: 1.39
  current_q: -26.75
  speed: -1297.0
  duty_cycle: -0.065
  charge_drawn: 107.0
  charge_regen: 0.0
  energy_drawn: 0.0
  energy_regen: 0.0
  displacement: 1666.0
  distance_traveled: 12516.0
  fault_code: 0
---
header: 
  seq: 72867
  stamp: 
    secs: 1626107712
    nsecs: 117323742
  frame_id: ''
state: 
  voltage_input: 11.5
  temperature_pcb: 0.0
  current_motor: 23.2
  current_input: 1.13
  current_q: -22.62
  speed: -1385.0
  duty_cycle: -0.048
  charge_drawn: 107.0
  charge_regen: 0.0
  energy_drawn: 0.0
  energy_regen: 0.0
  displacement: 1663.0
  distance_traveled: 12519.0
  fault_code: 0
---
header: 
  seq: 72868
  stamp: 
    secs: 1626107712
    nsecs: 136498598
  frame_id: ''
state: 
  voltage_input: 11.5
  temperature_pcb: 0.0
  current_motor: 22.05
  current_input: 1.1
  current_q: -22.19
  speed: -1443.0
  duty_cycle: -0.061
  charge_drawn: 107.0
  charge_regen: 0.0
  energy_drawn: 0.0
  energy_regen: 0.0
  displacement: 1660.0
  distance_traveled: 12522.0
  fault_code: 0
---
header: 
  seq: 72869
  stamp: 
    secs: 1626107712
    nsecs: 157185634
  frame_id: ''
state: 
  voltage_input: 11.6
  temperature_pcb: 0.0
  current_motor: 20.22
  current_input: 0.97
  current_q: -20.0
  speed: -1520.0
  duty_cycle: -0.051
  charge_drawn: 107.0
  charge_regen: 0.0
  energy_drawn: 0.0
  energy_regen: 0.0
  displacement: 1657.0
  distance_traveled: 12525.0
  fault_code: 0
---
header: 
  seq: 72870
  stamp: 
    secs: 1626107712
    nsecs: 177712046
  frame_id: ''
state: 
  voltage_input: 11.6
  temperature_pcb: 0.0
  current_motor: 19.6
  current_input: 0.95
  current_q: -19.56
  speed: -1576.0
  duty_cycle: -0.059
  charge_drawn: 107.0
  charge_regen: 0.0
  energy_drawn: 0.0
  energy_regen: 0.0
  displacement: 1653.0
  distance_traveled: 12529.0
  fault_code: 0
---
header: 
  seq: 72871
  stamp: 
    secs: 1626107712
    nsecs: 196682319
  frame_id: ''
state: 
  voltage_input: 11.5
  temperature_pcb: 0.0
  current_motor: 17.9
  current_input: 0.84
  current_q: -17.72
  speed: -1641.0
  duty_cycle: -0.053
  charge_drawn: 108.0
  charge_regen: 0.0
  energy_drawn: 0.0
  energy_regen: 0.0
  displacement: 1649.0
  distance_traveled: 12533.0
  fault_code: 0
---
header: 
  seq: 72872
  stamp: 
    secs: 1626107712
    nsecs: 217038159
  frame_id: ''
state: 
  voltage_input: 11.5
  temperature_pcb: 0.0
  current_motor: 16.16
  current_input: 0.75
  current_q: -15.99
  speed: -1708.0
  duty_cycle: -0.053
  charge_drawn: 108.0
  charge_regen: 0.0
  energy_drawn: 0.0
  energy_regen: 0.0
  displacement: 1646.0
  distance_traveled: 12536.0
  fault_code: 0
---
header: 
  seq: 72873
  stamp: 
    secs: 1626107712
    nsecs: 237178062
  frame_id: ''
state: 
  voltage_input: 11.5
  temperature_pcb: 0.0
  current_motor: 15.12
  current_input: 0.69
  current_q: -15.01
  speed: -1761.0
  duty_cycle: -0.055
  charge_drawn: 108.0
  charge_regen: 0.0
  energy_drawn: 0.0
  energy_regen: 0.0
  displacement: 1642.0
  distance_traveled: 12540.0
  fault_code: 0
---
header: 
  seq: 72874
  stamp: 
    secs: 1626107712
    nsecs: 256975935
  frame_id: ''
state: 
  voltage_input: 11.5
  temperature_pcb: 0.0
  current_motor: 14.51
  current_input: 0.66
  current_q: -14.45
  speed: -1808.0
  duty_cycle: -0.058
  charge_drawn: 108.0
  charge_regen: 0.0
  energy_drawn: 0.0
  energy_regen: 0.0
  displacement: 1638.0
  distance_traveled: 12544.0
  fault_code: 0
---
header: 
  seq: 72875
  stamp: 
    secs: 1626107712
    nsecs: 278171250
  frame_id: ''
state: 
  voltage_input: 11.5
  temperature_pcb: 0.0
  current_motor: 14.11
  current_input: 0.64
  current_q: -13.9
  speed: -1860.0
  duty_cycle: -0.055
  charge_drawn: 108.0
  charge_regen: 0.0
  energy_drawn: 0.0
  energy_regen: 0.0
  displacement: 1634.0
  distance_traveled: 12548.0
  fault_code: 0
---
header: 
  seq: 72876
  stamp: 
    secs: 1626107712
    nsecs: 297529386
  frame_id: ''
state: 
  voltage_input: 11.5
  temperature_pcb: 0.0
  current_motor: 13.6
  current_input: 0.62
  current_q: -13.52
  speed: -1897.0
  duty_cycle: -0.057
  charge_drawn: 108.0
  charge_regen: 0.0
  energy_drawn: 0.0
  energy_regen: 0.0
  displacement: 1630.0
  distance_traveled: 12552.0
  fault_code: 0
---
header: 
  seq: 72877
  stamp: 
    secs: 1626107712
    nsecs: 316640232
  frame_id: ''
state: 
  voltage_input: 11.5
  temperature_pcb: 0.0
  current_motor: 13.3
  current_input: 0.6
  current_q: -13.24
  speed: -1927.0
  duty_cycle: -0.057
  charge_drawn: 108.0
  charge_regen: 0.0
  energy_drawn: 0.0
  energy_regen: 0.0
  displacement: 1626.0
  distance_traveled: 12556.0
  fault_code: 0
---
header: 
  seq: 72878
  stamp: 
    secs: 1626107712
    nsecs: 336685865
  frame_id: ''
state: 
  voltage_input: 11.5
  temperature_pcb: 0.0
  current_motor: 13.98
  current_input: 0.64
  current_q: -13.81
  speed: -1955.0
  duty_cycle: -0.055
  charge_drawn: 108.0
  charge_regen: 0.0
  energy_drawn: 0.0
  energy_regen: 0.0
  displacement: 1622.0
  distance_traveled: 12560.0
  fault_code: 0
---
header: 
  seq: 72879
  stamp: 
    secs: 1626107712
    nsecs: 357346963
  frame_id: ''
state: 
  voltage_input: 11.4
  temperature_pcb: 0.0
  current_motor: 12.8
  current_input: 0.59
  current_q: -12.79
  speed: -1983.0
  duty_cycle: -0.052
  charge_drawn: 108.0
  charge_regen: 0.0
  energy_drawn: 0.0
  energy_regen: 0.0
  displacement: 1618.0
  distance_traveled: 12564.0
  fault_code: 0
---
header: 
  seq: 72880
  stamp: 
    secs: 1626107712
    nsecs: 379557898
  frame_id: ''
state: 
  voltage_input: 11.5
  temperature_pcb: 0.0
  current_motor: 13.22
  current_input: 0.61
  current_q: -13.23
  speed: -1999.0
  duty_cycle: -0.054
  charge_drawn: 108.0
  charge_regen: 0.0
  energy_drawn: 0.0
  energy_regen: 0.0
  displacement: 1613.0
  distance_traveled: 12569.0
  fault_code: 0
---
header: 
  seq: 72881
  stamp: 
    secs: 1626107712
    nsecs: 397162293
  frame_id: ''
state: 
  voltage_input: 11.6
  temperature_pcb: 0.0
  current_motor: 12.44
  current_input: 0.56
  current_q: -12.25
  speed: -2027.0
  duty_cycle: -0.049
  charge_drawn: 108.0
  charge_regen: 0.0
  energy_drawn: 0.0
  energy_regen: 0.0
  displacement: 1609.0
  distance_traveled: 12573.0
  fault_code: 0
---
header: 
  seq: 72882
  stamp: 
    secs: 1626107712
    nsecs: 416646053
  frame_id: ''
state: 
  voltage_input: 11.4
  temperature_pcb: 0.0
  current_motor: 12.15
  current_input: 0.55
  current_q: -11.99
  speed: -2041.0
  duty_cycle: -0.048
  charge_drawn: 108.0
  charge_regen: 0.0
  energy_drawn: 0.0
  energy_regen: 0.0
  displacement: 1605.0
  distance_traveled: 12577.0
  fault_code: 0
---
header: 
  seq: 72883
  stamp: 
    secs: 1626107712
    nsecs: 436894810
  frame_id: ''
state: 
  voltage_input: 11.4
  temperature_pcb: 0.0
  current_motor: 11.36
  current_input: 0.51
  current_q: -11.2
  speed: -2066.0
  duty_cycle: -0.054
  charge_drawn: 108.0
  charge_regen: 0.0
  energy_drawn: 0.0
  energy_regen: 0.0
  displacement: 1601.0
  distance_traveled: 12581.0
  fault_code: 0
---
header: 
  seq: 72884
  stamp: 
    secs: 1626107712
    nsecs: 457480388
  frame_id: ''
state: 
  voltage_input: 11.5
  temperature_pcb: 0.0
  current_motor: 9.79
  current_input: 0.43
  current_q: -9.7
  speed: -2101.0
  duty_cycle: -0.047
  charge_drawn: 108.0
  charge_regen: 0.0
  energy_drawn: 0.0
  energy_regen: 0.0
  displacement: 1596.0
  distance_traveled: 12586.0
  fault_code: 0
---
header: 
  seq: 72885
  stamp: 
    secs: 1626107712
    nsecs: 476506182
  frame_id: ''
state: 
  voltage_input: 11.5
  temperature_pcb: 0.0
  current_motor: 10.61
  current_input: 0.49
  current_q: -10.72
  speed: -2109.0
  duty_cycle: -0.053
  charge_drawn: 108.0
  charge_regen: 0.0
  energy_drawn: 0.0
  energy_regen: 0.0
