header: 
  seq: 8579
  stamp: 
    secs: 1625860605
    nsecs: 263348270
  frame_id: ''
state: 
  voltage_input: 11.7
  temperature_pcb: 0.0
  current_motor: 0.0
  current_input: 0.0
  current_q: 0.0
  speed: 0.0
  duty_cycle: 0.0
  charge_drawn: 0.0
  charge_regen: 0.0
  energy_drawn: 0.0
  energy_regen: 0.0
  displacement: -3.0
  distance_traveled: 37.0
  fault_code: 0
---
header: 
  seq: 8580
  stamp: 
    secs: 1625860605
    nsecs: 283098423
  frame_id: ''
state: 
  voltage_input: 11.7
  temperature_pcb: 0.0
  current_motor: 0.0
  current_input: 0.0
  current_q: 0.0
  speed: -1.0
  duty_cycle: 0.0
  charge_drawn: 0.0
  charge_regen: 0.0
  energy_drawn: 0.0
  energy_regen: 0.0
  displacement: -3.0
  distance_traveled: 37.0
  fault_code: 0
---
header: 
  seq: 8581
  stamp: 
    secs: 1625860605
    nsecs: 303061755
  frame_id: ''
state: 
  voltage_input: 11.6
  temperature_pcb: 0.0
  current_motor: 0.0
  current_input: 0.0
  current_q: 0.0
  speed: -2.0
  duty_cycle: 0.0
  charge_drawn: 0.0
  charge_regen: 0.0
  energy_drawn: 0.0
  energy_regen: 0.0
  displacement: -3.0
  distance_traveled: 37.0
  fault_code: 0
---
header: 
  seq: 8582
  stamp: 
    secs: 1625860605
    nsecs: 323465405
  frame_id: ''
state: 
  voltage_input: 11.6
  temperature_pcb: 0.0
  current_motor: 0.0
  current_input: 0.0
  current_q: 0.0
  speed: -1.0
  duty_cycle: 0.0
  charge_drawn: 0.0
  charge_regen: 0.0
  energy_drawn: 0.0
  energy_regen: 0.0
  displacement: -3.0
  distance_traveled: 37.0
  fault_code: 0
---
header: 
  seq: 8583
  stamp: 
    secs: 1625860605
    nsecs: 343871554
  frame_id: ''
state: 
  voltage_input: 11.6
  temperature_pcb: 0.0
  current_motor: 0.0
  current_input: 0.0
  current_q: 0.0
  speed: 1.0
  duty_cycle: 0.0
  charge_drawn: 0.0
  charge_regen: 0.0
  energy_drawn: 0.0
  energy_regen: 0.0
  displacement: -3.0
  distance_traveled: 37.0
  fault_code: 0
---
header: 
  seq: 8584
  stamp: 
    secs: 1625860605
    nsecs: 363064774
  frame_id: ''
state: 
  voltage_input: 11.7
  temperature_pcb: 0.0
  current_motor: 0.0
  current_input: 0.0
  current_q: 0.0
  speed: 1.0
  duty_cycle: 0.0
  charge_drawn: 0.0
  charge_regen: 0.0
  energy_drawn: 0.0
  energy_regen: 0.0
  displacement: -3.0
  distance_traveled: 37.0
  fault_code: 0
---
header: 
  seq: 8585
  stamp: 
    secs: 1625860605
    nsecs: 383055815
  frame_id: ''
state: 
  voltage_input: 11.7
  temperature_pcb: 0.0
  current_motor: 0.0
  current_input: 0.0
  current_q: 0.0
  speed: 0.0
  duty_cycle: 0.0
  charge_drawn: 0.0
  charge_regen: 0.0
  energy_drawn: 0.0
  energy_regen: 0.0
  displacement: -3.0
  distance_traveled: 37.0
  fault_code: 0
---
header: 
  seq: 8586
  stamp: 
    secs: 1625860605
    nsecs: 403085971
  frame_id: ''
state: 
  voltage_input: 11.6
  temperature_pcb: 0.0
  current_motor: 0.0
  current_input: 0.0
  current_q: 0.0
  speed: 0.0
  duty_cycle: 0.0
  charge_drawn: 0.0
  charge_regen: 0.0
  energy_drawn: 0.0
  energy_regen: 0.0
  displacement: -3.0
  distance_traveled: 37.0
  fault_code: 0
---
header: 
  seq: 8587
  stamp: 
    secs: 1625860605
    nsecs: 423086127
  frame_id: ''
state: 
  voltage_input: 11.6
  temperature_pcb: 0.0
  current_motor: 0.0
  current_input: 0.0
  current_q: 0.0
  speed: 2.0
  duty_cycle: 0.0
  charge_drawn: 0.0
  charge_regen: 0.0
  energy_drawn: 0.0
  energy_regen: 0.0
  displacement: -3.0
  distance_traveled: 37.0
  fault_code: 0
---
header: 
  seq: 8588
  stamp: 
    secs: 1625860605
    nsecs: 443068417
  frame_id: ''
state: 
  voltage_input: 11.7
  temperature_pcb: 0.0
  current_motor: 0.0
  current_input: 0.0
  current_q: 0.0
  speed: 1.0
  duty_cycle: 0.0
  charge_drawn: 0.0
  charge_regen: 0.0
  energy_drawn: 0.0
  energy_regen: 0.0
  displacement: -3.0
  distance_traveled: 37.0
  fault_code: 0
---
header: 
  seq: 8589
  stamp: 
    secs: 1625860605
    nsecs: 463039718
  frame_id: ''
state: 
  voltage_input: 11.7
  temperature_pcb: 0.0
  current_motor: 0.0
  current_input: 0.0
  current_q: 0.0
  speed: 0.0
  duty_cycle: 0.0
  charge_drawn: 0.0
  charge_regen: 0.0
  energy_drawn: 0.0
  energy_regen: 0.0
  displacement: -3.0
  distance_traveled: 37.0
  fault_code: 0
---
header: 
  seq: 8590
  stamp: 
    secs: 1625860605
    nsecs: 483499306
  frame_id: ''
state: 
  voltage_input: 11.6
  temperature_pcb: 0.0
  current_motor: 0.0
  current_input: 0.0
  current_q: 0.0
  speed: 0.0
  duty_cycle: 0.0
  charge_drawn: 0.0
  charge_regen: 0.0
  energy_drawn: 0.0
  energy_regen: 0.0
  displacement: -3.0
  distance_traveled: 37.0
  fault_code: 0
---
header: 
  seq: 8591
  stamp: 
    secs: 1625860605
    nsecs: 503037165
  frame_id: ''
state: 
  voltage_input: 11.6
  temperature_pcb: 0.0
  current_motor: 0.0
  current_input: 0.0
  current_q: 0.0
  speed: 0.0
  duty_cycle: 0.0
  charge_drawn: 0.0
  charge_regen: 0.0
  energy_drawn: 0.0
  energy_regen: 0.0
  displacement: -3.0
  distance_traveled: 37.0
  fault_code: 0
---
header: 
  seq: 8592
  stamp: 
    secs: 1625860605
    nsecs: 525109582
  frame_id: ''
state: 
  voltage_input: 11.6
  temperature_pcb: 0.0
  current_motor: 0.0
  current_input: 0.0
  current_q: 0.0
  speed: 0.0
  duty_cycle: 0.0
  charge_drawn: 0.0
  charge_regen: 0.0
  energy_drawn: 0.0
  energy_regen: 0.0
  displacement: -3.0
  distance_traveled: 37.0
  fault_code: 0
---
header: 
  seq: 8593
  stamp: 
    secs: 1625860605
    nsecs: 543329094
  frame_id: ''
state: 
  voltage_input: 11.6
  temperature_pcb: 0.0
  current_motor: 0.0
  current_input: 0.0
  current_q: 0.0
  speed: 0.0
  duty_cycle: 0.0
  charge_drawn: 0.0
  charge_regen: 0.0
  energy_drawn: 0.0
  energy_regen: 0.0
  displacement: -3.0
  distance_traveled: 37.0
  fault_code: 0
---
header: 
  seq: 8594
  stamp: 
    secs: 1625860605
    nsecs: 563080445
  frame_id: ''
state: 
  voltage_input: 11.6
  temperature_pcb: 0.0
  current_motor: 0.0
  current_input: 0.0
  current_q: 0.0
  speed: 0.0
  duty_cycle: 0.0
  charge_drawn: 0.0
  charge_regen: 0.0
  energy_drawn: 0.0
  energy_regen: 0.0
  displacement: -3.0
  distance_traveled: 37.0
  fault_code: 0
---
header: 
  seq: 8595
  stamp: 
    secs: 1625860605
    nsecs: 583013464
  frame_id: ''
state: 
  voltage_input: 11.6
  temperature_pcb: 0.0
  current_motor: 0.0
  current_input: 0.0
  current_q: 0.0
  speed: 0.0
  duty_cycle: 0.0
  charge_drawn: 0.0
  charge_regen: 0.0
  energy_drawn: 0.0
  energy_regen: 0.0
  displacement: -3.0
  distance_traveled: 37.0
  fault_code: 0
---
header: 
  seq: 8596
  stamp: 
    secs: 1625860605
    nsecs: 603385030
  frame_id: ''
state: 
  voltage_input: 11.6
  temperature_pcb: 0.0
  current_motor: 0.0
  current_input: 0.0
  current_q: 0.0
  speed: 0.0
  duty_cycle: 0.0
  charge_drawn: 0.0
  charge_regen: 0.0
  energy_drawn: 0.0
  energy_regen: 0.0
  displacement: -3.0
  distance_traveled: 37.0
  fault_code: 0
---
header: 
  seq: 8597
  stamp: 
    secs: 1625860605
    nsecs: 623641855
  frame_id: ''
state: 
  voltage_input: 11.6
  temperature_pcb: 0.0
  current_motor: 0.0
  current_input: 0.0
  current_q: 0.0
  speed: 0.0
  duty_cycle: 0.0
  charge_drawn: 0.0
  charge_regen: 0.0
  energy_drawn: 0.0
  energy_regen: 0.0
  displacement: -3.0
  distance_traveled: 37.0
  fault_code: 0
---
header: 
  seq: 8598
  stamp: 
    secs: 1625860605
    nsecs: 643099192
  frame_id: ''
state: 
  voltage_input: 11.7
  temperature_pcb: 0.0
  current_motor: 0.0
  current_input: 0.0
  current_q: 0.0
  speed: 0.0
  duty_cycle: 0.0
  charge_drawn: 0.0
  charge_regen: 0.0
  energy_drawn: 0.0
  energy_regen: 0.0
  displacement: -3.0
  distance_traveled: 37.0
  fault_code: 0
---
header: 
  seq: 8599
  stamp: 
    secs: 1625860605
    nsecs: 663049295
  frame_id: ''
state: 
  voltage_input: 11.7
  temperature_pcb: 0.0
  current_motor: 0.0
  current_input: 0.0
  current_q: 0.0
  speed: 0.0
  duty_cycle: 0.0
  charge_drawn: 0.0
  charge_regen: 0.0
  energy_drawn: 0.0
  energy_regen: 0.0
  displacement: -3.0
  distance_traveled: 37.0
  fault_code: 0
---
header: 
  seq: 8600
  stamp: 
    secs: 1625860605
    nsecs: 683060284
  frame_id: ''
state: 
  voltage_input: 11.6
  temperature_pcb: 0.0
  current_motor: 0.0
  current_input: 0.0
  current_q: 0.0
  speed: 0.0
  duty_cycle: 0.0
  charge_drawn: 0.0
  charge_regen: 0.0
  energy_drawn: 0.0
  energy_regen: 0.0
  displacement: -3.0
  distance_traveled: 37.0
  fault_code: 0
---
header: 
  seq: 8601
  stamp: 
    secs: 1625860605
    nsecs: 703334974
  frame_id: ''
state: 
  voltage_input: 11.6
  temperature_pcb: 0.0
  current_motor: 0.0
  current_input: 0.0
  current_q: 0.0
  speed: 0.0
  duty_cycle: 0.0
  charge_drawn: 0.0
  charge_regen: 0.0
  energy_drawn: 0.0
  energy_regen: 0.0
  displacement: -3.0
  distance_traveled: 37.0
  fault_code: 0
---
header: 
  seq: 8602
  stamp: 
    secs: 1625860605
    nsecs: 723722008
  frame_id: ''
state: 
  voltage_input: 11.6
  temperature_pcb: 0.0
  current_motor: 0.0
  current_input: 0.0
  current_q: 0.0
  speed: 0.0
  duty_cycle: 0.0
  charge_drawn: 0.0
  charge_regen: 0.0
  energy_drawn: 0.0
  energy_regen: 0.0
  displacement: -3.0
  distance_traveled: 37.0
  fault_code: 0
---
header: 
  seq: 8603
  stamp: 
    secs: 1625860605
    nsecs: 743459505
  frame_id: ''
state: 
  voltage_input: 11.7
  temperature_pcb: 0.0
  current_motor: 0.0
  current_input: 0.0
  current_q: 0.0
  speed: 0.0
  duty_cycle: 0.0
  charge_drawn: 0.0
  charge_regen: 0.0
  energy_drawn: 0.0
  energy_regen: 0.0
  displacement: -3.0
  distance_traveled: 37.0
  fault_code: 0
---
header: 
  seq: 8604
  stamp: 
    secs: 1625860605
    nsecs: 765229262
  frame_id: ''
state: 
  voltage_input: 11.6
  temperature_pcb: 0.0
  current_motor: 0.0
  current_input: 0.0
  current_q: 0.0
  speed: 0.0
  duty_cycle: 0.0
  charge_drawn: 0.0
  charge_regen: 0.0
  energy_drawn: 0.0
  energy_regen: 0.0
  displacement: -3.0
  distance_traveled: 37.0
  fault_code: 0
---
header: 
  seq: 8605
  stamp: 
    secs: 1625860605
    nsecs: 785146240
  frame_id: ''
state: 
  voltage_input: 11.6
  temperature_pcb: 0.0
  current_motor: 0.0
  current_input: 0.0
  current_q: 0.0
  speed: 0.0
  duty_cycle: 0.0
  charge_drawn: 0.0
  charge_regen: 0.0
  energy_drawn: 0.0
  energy_regen: 0.0
  displacement: -3.0
  distance_traveled: 37.0
  fault_code: 0
---
header: 
  seq: 8606
  stamp: 
    secs: 1625860605
    nsecs: 803200594
  frame_id: ''
state: 
  voltage_input: 11.6
  temperature_pcb: 0.0
  current_motor: 0.0
  current_input: 0.0
  current_q: 0.0
  speed: 0.0
  duty_cycle: 0.0
  charge_drawn: 0.0
  charge_regen: 0.0
  energy_drawn: 0.0
  energy_regen: 0.0
  displacement: -3.0
  distance_traveled: 37.0
  fault_code: 0
---
header: 
  seq: 8607
  stamp: 
    secs: 1625860605
    nsecs: 823080644
  frame_id: ''
state: 
  voltage_input: 11.6
  temperature_pcb: 0.0
  current_motor: 0.0
  current_input: 0.0
  current_q: 0.0
  speed: 0.0
  duty_cycle: 0.0
  charge_drawn: 0.0
  charge_regen: 0.0
  energy_drawn: 0.0
  energy_regen: 0.0
  displacement: -3.0
  distance_traveled: 37.0
  fault_code: 0
---
header: 
  seq: 8608
  stamp: 
    secs: 1625860605
    nsecs: 843411949
  frame_id: ''
state: 
  voltage_input: 11.6
  temperature_pcb: 0.0
  current_motor: 0.0
  current_input: 0.0
  current_q: 0.0
  speed: 1.0
  duty_cycle: 0.0
  charge_drawn: 0.0
  charge_regen: 0.0
  energy_drawn: 0.0
  energy_regen: 0.0
  displacement: -3.0
  distance_traveled: 37.0
  fault_code: 0
---
header: 
  seq: 8609
  stamp: 
    secs: 1625860605
    nsecs: 866946048
  frame_id: ''
state: 
  voltage_input: 11.6
  temperature_pcb: 0.0
  current_motor: 0.0
  current_input: 0.0
  current_q: 0.0
  speed: 1.0
  duty_cycle: -0.001
  charge_drawn: 0.0
  charge_regen: 0.0
  energy_drawn: 0.0
  energy_regen: 0.0
  displacement: -3.0
  distance_traveled: 37.0
  fault_code: 0
---
header: 
  seq: 8610
  stamp: 
    secs: 1625860605
    nsecs: 883145330
  frame_id: ''
state: 
  voltage_input: 11.7
  temperature_pcb: 0.0
  current_motor: 0.0
  current_input: 0.0
  current_q: 0.0
  speed: 1.0
  duty_cycle: 0.0
  charge_drawn: 0.0
  charge_regen: 0.0
  energy_drawn: 0.0
  energy_regen: 0.0
  displacement: -3.0
  distance_traveled: 37.0
  fault_code: 0
---
header: 
  seq: 8611
  stamp: 
    secs: 1625860605
    nsecs: 903036579
  frame_id: ''
state: 
  voltage_input: 11.7
  temperature_pcb: 0.0
  current_motor: 0.0
  current_input: 0.0
  current_q: 0.0
  speed: 0.0
  duty_cycle: 0.0
  charge_drawn: 0.0
  charge_regen: 0.0
  energy_drawn: 0.0
  energy_regen: 0.0
  displacement: -3.0
  distance_traveled: 37.0
  fault_code: 0
---
header: 
  seq: 8612
  stamp: 
    secs: 1625860605
    nsecs: 923339029
  frame_id: ''
state: 
  voltage_input: 11.6
  temperature_pcb: 0.0
  current_motor: 0.0
  current_input: 0.0
  current_q: 0.0
  speed: 0.0
  duty_cycle: 0.0
  charge_drawn: 0.0
  charge_regen: 0.0
  energy_drawn: 0.0
  energy_regen: 0.0
  displacement: -3.0
  distance_traveled: 37.0
  fault_code: 0
---
header: 
  seq: 8613
  stamp: 
    secs: 1625860605
    nsecs: 943427935
  frame_id: ''
state: 
  voltage_input: 11.7
  temperature_pcb: 0.0
  current_motor: 0.0
  current_input: 0.0
  current_q: 0.0
  speed: -1.0
  duty_cycle: 0.0
  charge_drawn: 0.0
  charge_regen: 0.0
  energy_drawn: 0.0
  energy_regen: 0.0
  displacement: -3.0
  distance_traveled: 37.0
  fault_code: 0
---
header: 
  seq: 8614
  stamp: 
    secs: 1625860605
    nsecs: 963119546
  frame_id: ''
state: 
  voltage_input: 11.6
  temperature_pcb: 0.0
  current_motor: 0.0
  current_input: 0.0
  current_q: 0.0
  speed: -1.0
  duty_cycle: 0.0
  charge_drawn: 0.0
  charge_regen: 0.0
  energy_drawn: 0.0
  energy_regen: 0.0
  displacement: -3.0
  distance_traveled: 37.0
  fault_code: 0
---
header: 
  seq: 8615
  stamp: 
    secs: 1625860605
    nsecs: 983120379
  frame_id: ''
state: 
  voltage_input: 11.6
  temperature_pcb: 0.0
  current_motor: 0.0
  current_input: 0.0
  current_q: 0.0
  speed: 0.0
  duty_cycle: 0.0
  charge_drawn: 0.0
  charge_regen: 0.0
  energy_drawn: 0.0
  energy_regen: 0.0
  displacement: -3.0
  distance_traveled: 37.0
  fault_code: 0
---
header: 
  seq: 8616
  stamp: 
    secs: 1625860606
    nsecs:   2993918
  frame_id: ''
state: 
  voltage_input: 11.6
  temperature_pcb: 0.0
  current_motor: 0.0
  current_input: 0.0
  current_q: 0.0
  speed: 0.0
  duty_cycle: 0.0
  charge_drawn: 0.0
  charge_regen: 0.0
  energy_drawn: 0.0
  energy_regen: 0.0
  displacement: -3.0
  distance_traveled: 37.0
  fault_code: 0
---
header: 
  seq: 8617
  stamp: 
    secs: 1625860606
    nsecs:  23014125
  frame_id: ''
state: 
  voltage_input: 11.6
  temperature_pcb: 0.0
  current_motor: 0.0
  current_input: 0.0
  current_q: 0.0
  speed: 0.0
  duty_cycle: 0.0
  charge_drawn: 0.0
  charge_regen: 0.0
  energy_drawn: 0.0
  energy_regen: 0.0
  displacement: -3.0
  distance_traveled: 37.0
  fault_code: 0
---
header: 
  seq: 8618
  stamp: 
    secs: 1625860606
    nsecs:  43070322
  frame_id: ''
state: 
  voltage_input: 11.6
  temperature_pcb: 0.0
  current_motor: 0.0
  current_input: 0.0
  current_q: 0.0
  speed: 0.0
  duty_cycle: 0.0
  charge_drawn: 0.0
  charge_regen: 0.0
  energy_drawn: 0.0
  energy_regen: 0.0
  displacement: -3.0
  distance_traveled: 37.0
  fault_code: 0
---
header: 
  seq: 8619
  stamp: 
    secs: 1625860606
    nsecs:  63345219
  frame_id: ''
state: 
  voltage_input: 11.6
  temperature_pcb: 0.0
  current_motor: 0.0
  current_input: 0.0
  current_q: 0.0
  speed: -1.0
  duty_cycle: 0.0
  charge_drawn: 0.0
  charge_regen: 0.0
  energy_drawn: 0.0
  energy_regen: 0.0
  displacement: -3.0
  distance_traveled: 37.0
  fault_code: 0
---
header: 
  seq: 8620
  stamp: 
    secs: 1625860606
    nsecs:  84800910
  frame_id: ''
state: 
  voltage_input: 11.6
  temperature_pcb: 0.0
  current_motor: 0.0
  current_input: 0.0
  current_q: 0.0
  speed: -1.0
  duty_cycle: 0.0
  charge_drawn: 0.0
  charge_regen: 0.0
  energy_drawn: 0.0
  energy_regen: 0.0
  displacement: -3.0
  distance_traveled: 37.0
  fault_code: 0
---
header: 
  seq: 8621
  stamp: 
    secs: 1625860606
    nsecs: 105889566
  frame_id: ''
state: 
  voltage_input: 11.6
  temperature_pcb: 0.0
  current_motor: 0.0
  current_input: 0.0
  current_q: 0.0
  speed: 0.0
  duty_cycle: 0.0
  charge_drawn: 0.0
  charge_regen: 0.0
  energy_drawn: 0.0
  energy_regen: 0.0
  displacement: -3.0
  distance_traveled: 37.0
  fault_code: 0
---
header: 
  seq: 8622
  stamp: 
    secs: 1625860606
    nsecs: 123372403
  frame_id: ''
state: 
  voltage_input: 11.6
  temperature_pcb: 0.0
  current_motor: 0.0
  current_input: 0.0
  current_q: 0.0
  speed: -1.0
  duty_cycle: 0.0
  charge_drawn: 0.0
  charge_regen: 0.0
  energy_drawn: 0.0
  energy_regen: 0.0
  displacement: -3.0
  distance_traveled: 37.0
  fault_code: 0
---
header: 
  seq: 8623
  stamp: 
    secs: 1625860606
    nsecs: 143602143
  frame_id: ''
state: 
  voltage_input: 11.7
  temperature_pcb: 0.0
  current_motor: 0.0
  current_input: 0.0
  current_q: 0.0
  speed: 0.0
  duty_cycle: 0.0
  charge_drawn: 0.0
  charge_regen: 0.0
  energy_drawn: 0.0
  energy_regen: 0.0
  displacement: -3.0
  distance_traveled: 37.0
  fault_code: 0
---
header: 
  seq: 8624
  stamp: 
    secs: 1625860606
    nsecs: 163009635
  frame_id: ''
state: 
  voltage_input: 11.7
  temperature_pcb: 0.0
  current_motor: 0.0
  current_input: 0.0
  current_q: 0.0
  speed: -1.0
  duty_cycle: 0.0
  charge_drawn: 0.0
  charge_regen: 0.0
  energy_drawn: 0.0
  energy_regen: 0.0
  displacement: -3.0
  distance_traveled: 37.0
  fault_code: 0
---
header: 
  seq: 8625
  stamp: 
    secs: 1625860606
    nsecs: 183092708
  frame_id: ''
state: 
  voltage_input: 11.7
  temperature_pcb: 0.0
  current_motor: 0.0
  current_input: 0.0
  current_q: 0.0
  speed: -2.0
  duty_cycle: -0.001
  charge_drawn: 0.0
  charge_regen: 0.0
  energy_drawn: 0.0
  energy_regen: 0.0
  displacement: -3.0
  distance_traveled: 37.0
  fault_code: 0
---
header: 
  seq: 8626
  stamp: 
    secs: 1625860606
    nsecs: 203490575
  frame_id: ''
state: 
  voltage_input: 11.6
  temperature_pcb: 0.0
  current_motor: 0.0
  current_input: 0.0
  current_q: 0.0
  speed: -2.0
  duty_cycle: 0.0
  charge_drawn: 0.0
  charge_regen: 0.0
  energy_drawn: 0.0
  energy_regen: 0.0
  displacement: -3.0
  distance_traveled: 37.0
  fault_code: 0
---
header: 
  seq: 8627
  stamp: 
    secs: 1625860606
    nsecs: 223547917
  frame_id: ''
state: 
  voltage_input: 11.7
  temperature_pcb: 0.0
  current_motor: 0.0
  current_input: 0.0
  current_q: 0.0
  speed: -1.0
  duty_cycle: 0.0
  charge_drawn: 0.0
  charge_regen: 0.0
  energy_drawn: 0.0
  energy_regen: 0.0
  displacement: -3.0
  distance_traveled: 37.0
  fault_code: 0
---
header: 
  seq: 8628
  stamp: 
    secs: 1625860606
    nsecs: 243341976
  frame_id: ''
state: 
  voltage_input: 11.6
  temperature_pcb: 0.0
  current_motor: 0.0
  current_input: 0.0
  current_q: 0.0
  speed: -1.0
  duty_cycle: 0.0
  charge_drawn: 0.0
  charge_regen: 0.0
  energy_drawn: 0.0
  energy_regen: 0.0
  displacement: -3.0
  distance_traveled: 37.0
  fault_code: 0
---
header: 
  seq: 8629
  stamp: 
    secs: 1625860606
    nsecs: 265004388
  frame_id: ''
state: 
  voltage_input: 11.7
  temperature_pcb: 0.0
  current_motor: 0.0
  current_input: 0.0
  current_q: 0.0
  speed: -1.0
  duty_cycle: 0.0
  charge_drawn: 0.0
  charge_regen: 0.0
  energy_drawn: 0.0
  energy_regen: 0.0
  displacement: -3.0
  distance_traveled: 37.0
  fault_code: 0
---
header: 
  seq: 8630
  stamp: 
    secs: 1625860606
    nsecs: 284040991
  frame_id: ''
state: 
  voltage_input: 11.6
  temperature_pcb: 0.0
  current_motor: 0.0
  current_input: 0.0
  current_q: 0.0
  speed: -1.0
  duty_cycle: 0.0
  charge_drawn: 0.0
  charge_regen: 0.0
  energy_drawn: 0.0
  energy_regen: 0.0
  displacement: -3.0
  distance_traveled: 37.0
  fault_code: 0
---
header: 
  seq: 8631
  stamp: 
    secs: 1625860606
    nsecs: 303304732
  frame_id: ''
state: 
  voltage_input: 11.6
  temperature_pcb: 0.0
  current_motor: 0.0
  current_input: 0.0
  current_q: 0.0
  speed: 0.0
  duty_cycle: 0.0
  charge_drawn: 0.0
  charge_regen: 0.0
  energy_drawn: 0.0
  energy_regen: 0.0
  displacement: -3.0
  distance_traveled: 37.0
  fault_code: 0
---
header: 
  seq: 8632
  stamp: 
    secs: 1625860606
    nsecs: 323699474
  frame_id: ''
state: 
  voltage_input: 11.6
  temperature_pcb: 0.0
  current_motor: 0.0
  current_input: 0.0
  current_q: 0.0
  speed: 0.0
  duty_cycle: 0.0
  charge_drawn: 0.0
  charge_regen: 0.0
  energy_drawn: 0.0
  energy_regen: 0.0
  displacement: -3.0
  distance_traveled: 37.0
  fault_code: 0
---
header: 
  seq: 8633
  stamp: 
    secs: 1625860606
    nsecs: 343545564
  frame_id: ''
state: 
  voltage_input: 11.6
  temperature_pcb: 0.0
  current_motor: 0.0
  current_input: 0.0
  current_q: 0.0
  speed: -1.0
  duty_cycle: 0.0
  charge_drawn: 0.0
  charge_regen: 0.0
  energy_drawn: 0.0
  energy_regen: 0.0
  displacement: -3.0
  distance_traveled: 37.0
  fault_code: 0
---
header: 
  seq: 8634
  stamp: 
    secs: 1625860606
    nsecs: 363889160
  frame_id: ''
state: 
  voltage_input: 11.6
  temperature_pcb: 0.0
  current_motor: 0.0
  current_input: 0.0
  current_q: 0.0
  speed: -1.0
  duty_cycle: 0.0
  charge_drawn: 0.0
  charge_regen: 0.0
  energy_drawn: 0.0
  energy_regen: 0.0
  displacement: -3.0
  distance_traveled: 37.0
  fault_code: 0
---
header: 
  seq: 8635
  stamp: 
    secs: 1625860606
    nsecs: 383325924
  frame_id: ''
state: 
  voltage_input: 11.6
  temperature_pcb: 0.0
  current_motor: 0.0
  current_input: 0.0
  current_q: 0.0
  speed: -1.0
  duty_cycle: 0.0
  charge_drawn: 0.0
  charge_regen: 0.0
  energy_drawn: 0.0
  energy_regen: 0.0
  displacement: -3.0
  distance_traveled: 37.0
  fault_code: 0
---
header: 
  seq: 8636
  stamp: 
    secs: 1625860606
    nsecs: 403918480
  frame_id: ''
state: 
  voltage_input: 11.6
  temperature_pcb: 0.0
  current_motor: 0.0
  current_input: 0.0
  current_q: 0.0
  speed: -1.0
  duty_cycle: 0.0
  charge_drawn: 0.0
  charge_regen: 0.0
  energy_drawn: 0.0
  energy_regen: 0.0
  displacement: -3.0
  distance_traveled: 37.0
  fault_code: 0
---
header: 
  seq: 8637
  stamp: 
    secs: 1625860606
    nsecs: 423301337
  frame_id: ''
state: 
  voltage_input: 11.6
  temperature_pcb: 0.0
  current_motor: 0.0
  current_input: 0.0
  current_q: 0.0
  speed: -1.0
  duty_cycle: 0.0
  charge_drawn: 0.0
  charge_regen: 0.0
  energy_drawn: 0.0
  energy_regen: 0.0
  displacement: -3.0
  distance_traveled: 37.0
  fault_code: 0
---
header: 
  seq: 8638
  stamp: 
    secs: 1625860606
    nsecs: 444144052
  frame_id: ''
state: 
  voltage_input: 11.7
  temperature_pcb: 0.0
  current_motor: 0.0
  current_input: 0.0
  current_q: 0.0
  speed: -2.0
  duty_cycle: 0.0
  charge_drawn: 0.0
  charge_regen: 0.0
  energy_drawn: 0.0
  energy_regen: 0.0
  displacement: -3.0
  distance_traveled: 37.0
  fault_code: 0
---
header: 
  seq: 8639
  stamp: 
    secs: 1625860606
    nsecs: 464715932
  frame_id: ''
state: 
  voltage_input: 11.7
  temperature_pcb: 0.0
  current_motor: 0.0
  current_input: 0.0
  current_q: 0.0
  speed: -3.0
  duty_cycle: 0.0
  charge_drawn: 0.0
  charge_regen: 0.0
  energy_drawn: 0.0
  energy_regen: 0.0
  displacement: -3.0
  distance_traveled: 37.0
  fault_code: 0
---
header: 
  seq: 8640
  stamp: 
    secs: 1625860606
    nsecs: 483864515
  frame_id: ''
state: 
  voltage_input: 11.6
  temperature_pcb: 0.0
  current_motor: 0.0
  current_input: 0.0
  current_q: 0.0
  speed: -4.0
  duty_cycle: 0.0
  charge_drawn: 0.0
  charge_regen: 0.0
  energy_drawn: 0.0
  energy_regen: 0.0
  displacement: -3.0
  distance_traveled: 37.0
  fault_code: 0
---
header: 
  seq: 8641
  stamp: 
    secs: 1625860606
    nsecs: 504024932
  frame_id: ''
state: 
  voltage_input: 11.6
  temperature_pcb: 0.0
  current_motor: 0.0
  current_input: 0.0
  current_q: 0.02
  speed: -1.0
  duty_cycle: 0.019
  charge_drawn: 0.0
  charge_regen: 0.0
  energy_drawn: 0.0
  energy_regen: 0.0
  displacement: -3.0
  distance_traveled: 37.0
  fault_code: 0
---
header: 
  seq: 8642
  stamp: 
    secs: 1625860606
    nsecs: 524150036
  frame_id: ''
state: 
  voltage_input: 11.6
  temperature_pcb: 0.0
  current_motor: 54.43
  current_input: 3.44
  current_q: 56.55
  speed: -44.0
  duty_cycle: 0.073
  charge_drawn: 0.0
  charge_regen: 0.0
  energy_drawn: 0.0
  energy_regen: 0.0
  displacement: -4.0
  distance_traveled: 38.0
  fault_code: 0
---
header: 
  seq: 8643
  stamp: 
    secs: 1625860606
    nsecs: 544130867
  frame_id: ''
state: 
  voltage_input: 11.6
  temperature_pcb: 0.0
  current_motor: 59.96
  current_input: 3.78
  current_q: 59.92
  speed: -71.0
  duty_cycle: 0.073
  charge_drawn: 0.0
  charge_regen: 0.0
  energy_drawn: 0.0
  energy_regen: 0.0
  displacement: -4.0
  distance_traveled: 38.0
  fault_code: 0
---
header: 
  seq: 8644
  stamp: 
    secs: 1625860606
    nsecs: 564778060
  frame_id: ''
state: 
  voltage_input: 11.6
  temperature_pcb: 0.0
  current_motor: 59.99
  current_input: 3.82
  current_q: 59.98
  speed: -85.0
  duty_cycle: 0.073
  charge_drawn: 0.0
  charge_regen: 0.0
  energy_drawn: 0.0
  energy_regen: 0.0
  displacement: -4.0
  distance_traveled: 38.0
  fault_code: 0
---
header: 
  seq: 8645
  stamp: 
    secs: 1625860606
    nsecs: 583993467
  frame_id: ''
state: 
  voltage_input: 11.7
  temperature_pcb: 0.0
  current_motor: 60.06
  current_input: 3.79
  current_q: 60.05
  speed: -108.0
  duty_cycle: 0.072
  charge_drawn: 0.0
  charge_regen: 0.0
  energy_drawn: 0.0
  energy_regen: 0.0
  displacement: -5.0
  distance_traveled: 39.0
  fault_code: 0
---
header: 
  seq: 8646
  stamp: 
    secs: 1625860606
    nsecs: 604238103
  frame_id: ''
state: 
  voltage_input: 11.6
  temperature_pcb: 0.0
  current_motor: 59.91
  current_input: 3.8
  current_q: 59.91
  speed: -104.0
  duty_cycle: 0.074
  charge_drawn: 0.0
  charge_regen: 0.0
  energy_drawn: 0.0
  energy_regen: 0.0
  displacement: -5.0
  distance_traveled: 39.0
  fault_code: 0
---
header: 
  seq: 8647
  stamp: 
    secs: 1625860606
    nsecs: 625332071
  frame_id: ''
state: 
  voltage_input: 11.6
  temperature_pcb: 0.0
  current_motor: 50.25
  current_input: 3.31
  current_q: 49.58
  speed: 132.0
  duty_cycle: 0.084
  charge_drawn: 1.0
  charge_regen: 0.0
  energy_drawn: 0.0
  energy_regen: 0.0
  displacement: -3.0
  distance_traveled: 41.0
  fault_code: 0
---
header: 
  seq: 8648
  stamp: 
    secs: 1625860606
    nsecs: 644006171
  frame_id: ''
state: 
  voltage_input: 11.5
  temperature_pcb: 0.0
  current_motor: 60.89
  current_input: 3.87
  current_q: 60.72
  speed: 178.0
  duty_cycle: 0.072
  charge_drawn: 1.0
  charge_regen: 0.0
  energy_drawn: 0.0
  energy_regen: 0.0
  displacement: -2.0
  distance_traveled: 42.0
  fault_code: 0
---
header: 
  seq: 8649
  stamp: 
    secs: 1625860606
    nsecs: 664239713
  frame_id: ''
state: 
  voltage_input: 11.6
  temperature_pcb: 0.0
  current_motor: 59.87
  current_input: 3.83
  current_q: 59.81
  speed: 276.0
  duty_cycle: 0.077
  charge_drawn: 1.0
  charge_regen: 0.0
  energy_drawn: 0.0
  energy_regen: 0.0
  displacement: -1.0
  distance_traveled: 43.0
  fault_code: 0
---
header: 
  seq: 8650
  stamp: 
    secs: 1625860606
    nsecs: 685527642
  frame_id: ''
state: 
  voltage_input: 11.6
  temperature_pcb: 0.0
  current_motor: 59.4
  current_input: 3.97
  current_q: 59.28
  speed: 414.0
  duty_cycle: 0.092
  charge_drawn: 1.0
  charge_regen: 0.0
  energy_drawn: 0.0
  energy_regen: 0.0
  displacement: 0.0
  distance_traveled: 44.0
  fault_code: 0
---
header: 
  seq: 8651
  stamp: 
    secs: 1625860606
    nsecs: 704055229
  frame_id: ''
state: 
  voltage_input: 11.6
  temperature_pcb: 0.0
  current_motor: 60.91
  current_input: 4.18
  current_q: 60.86
  speed: 558.0
  duty_cycle: 0.08
  charge_drawn: 2.0
  charge_regen: 0.0
  energy_drawn: 0.0
  energy_regen: 0.0
  displacement: 2.0
  distance_traveled: 46.0
  fault_code: 0
---
header: 
  seq: 8652
  stamp: 
    secs: 1625860606
    nsecs: 723818558
  frame_id: ''
state: 
  voltage_input: 11.6
  temperature_pcb: 0.0
  current_motor: 60.4
  current_input: 4.41
  current_q: 60.36
  speed: 715.0
  duty_cycle: 0.076
  charge_drawn: 2.0
  charge_regen: 0.0
  energy_drawn: 0.0
  energy_regen: 0.0
  displacement: 5.0
  distance_traveled: 49.0
  fault_code: 0
---
header: 
  seq: 8653
  stamp: 
    secs: 1625860606
    nsecs: 743917047
  frame_id: ''
state: 
  voltage_input: 11.7
  temperature_pcb: 0.0
  current_motor: 59.79
  current_input: 4.65
  current_q: 59.65
  speed: 827.0
  duty_cycle: 0.083
  charge_drawn: 2.0
  charge_regen: 0.0
  energy_drawn: 0.0
  energy_regen: 0.0
  displacement: 7.0
  distance_traveled: 51.0
  fault_code: 0
---
header: 
  seq: 8654
  stamp: 
    secs: 1625860606
    nsecs: 764546375
  frame_id: ''
state: 
  voltage_input: 11.6
  temperature_pcb: 0.0
  current_motor: 58.34
  current_input: 4.53
  current_q: 58.27
  speed: 975.0
  duty_cycle: 0.087
  charge_drawn: 2.0
  charge_regen: 0.0
  energy_drawn: 0.0
  energy_regen: 0.0
  displacement: 10.0
  distance_traveled: 54.0
  fault_code: 0
---
header: 
  seq: 8655
  stamp: 
    secs: 1625860606
    nsecs: 784632208
  frame_id: ''
state: 
  voltage_input: 11.6
  temperature_pcb: 0.0
  current_motor: 59.35
  current_input: 4.95
  current_q: 59.49
  speed: 1116.0
  duty_cycle: 0.097
  charge_drawn: 3.0
  charge_regen: 0.0
  energy_drawn: 0.0
  energy_regen: 0.0
  displacement: 13.0
  distance_traveled: 57.0
  fault_code: 0
---
header: 
  seq: 8656
  stamp: 
    secs: 1625860606
    nsecs: 803666727
  frame_id: ''
state: 
  voltage_input: 11.6
  temperature_pcb: 0.0
  current_motor: 59.95
  current_input: 5.11
  current_q: 59.75
  speed: 1275.0
  duty_cycle: 0.103
  charge_drawn: 3.0
  charge_regen: 0.0
  energy_drawn: 0.0
  energy_regen: 0.0
  displacement: 16.0
  distance_traveled: 60.0
  fault_code: 0
---
header: 
  seq: 8657
  stamp: 
    secs: 1625860606
    nsecs: 823983760
  frame_id: ''
state: 
  voltage_input: 11.7
  temperature_pcb: 0.0
  current_motor: 59.85
  current_input: 5.42
  current_q: 59.81
  speed: 1491.0
  duty_cycle: 0.109
  charge_drawn: 3.0
  charge_regen: 0.0
  energy_drawn: 0.0
  energy_regen: 0.0
  displacement: 20.0
  distance_traveled: 64.0
  fault_code: 0
---
header: 
  seq: 8658
  stamp: 
    secs: 1625860606
    nsecs: 844181782
  frame_id: ''
state: 
  voltage_input: 11.6
  temperature_pcb: 0.0
  current_motor: 60.13
  current_input: 5.66
  current_q: 60.01
  speed: 1718.0
  duty_cycle: 0.112
  charge_drawn: 3.0
  charge_regen: 0.0
  energy_drawn: 0.0
  energy_regen: 0.0
  displacement: 25.0
  distance_traveled: 69.0
  fault_code: 0
---
header: 
  seq: 8659
  stamp: 
    secs: 1625860606
    nsecs: 863816776
  frame_id: ''
state: 
  voltage_input: 11.7
  temperature_pcb: 0.0
  current_motor: 59.58
  current_input: 5.78
  current_q: 59.48
  speed: 1953.0
  duty_cycle: 0.116
  charge_drawn: 4.0
  charge_regen: 0.0
  energy_drawn: 0.0
  energy_regen: 0.0
  displacement: 30.0
  distance_traveled: 74.0
  fault_code: 0
---
header: 
  seq: 8660
  stamp: 
    secs: 1625860606
    nsecs: 884109695
  frame_id: ''
state: 
  voltage_input: 11.6
  temperature_pcb: 0.0
  current_motor: 57.08
  current_input: 5.58
  current_q: 56.91
  speed: 2191.0
  duty_cycle: 0.113
  charge_drawn: 4.0
  charge_regen: 0.0
  energy_drawn: 0.0
  energy_regen: 0.0
  displacement: 36.0
  distance_traveled: 80.0
  fault_code: 0
---
header: 
  seq: 8661
  stamp: 
    secs: 1625860606
    nsecs: 904888868
  frame_id: ''
state: 
  voltage_input: 11.6
  temperature_pcb: 0.0
  current_motor: 54.06
  current_input: 5.28
  current_q: 53.82
  speed: 2430.0
  duty_cycle: 0.117
  charge_drawn: 4.0
  charge_regen: 0.0
  energy_drawn: 0.0
  energy_regen: 0.0
  displacement: 42.0
  distance_traveled: 86.0
  fault_code: 0
---
header: 
  seq: 8662
  stamp: 
    secs: 1625860606
    nsecs: 924269589
  frame_id: ''
state: 
  voltage_input: 11.6
  temperature_pcb: 0.0
  current_motor: 50.85
  current_input: 4.93
  current_q: 50.83
  speed: 2645.0
  duty_cycle: 0.109
  charge_drawn: 5.0
  charge_regen: 0.0
  energy_drawn: 0.0
  energy_regen: 0.0
  displacement: 49.0
  distance_traveled: 93.0
  fault_code: 0
---
header: 
  seq: 8663
  stamp: 
    secs: 1625860606
    nsecs: 944533705
  frame_id: ''
state: 
  voltage_input: 11.7
  temperature_pcb: 0.0
  current_motor: 46.69
  current_input: 4.44
  current_q: 46.53
  speed: 2852.0
  duty_cycle: 0.108
  charge_drawn: 5.0
  charge_regen: 0.0
  energy_drawn: 0.0
  energy_regen: 0.0
  displacement: 56.0
  distance_traveled: 100.0
  fault_code: 0
---
header: 
  seq: 8664
  stamp: 
    secs: 1625860606
    nsecs: 964021042
  frame_id: ''
state: 
  voltage_input: 11.6
  temperature_pcb: 0.0
  current_motor: 42.7
  current_input: 3.95
  current_q: 42.42
  speed: 3039.0
  duty_cycle: 0.103
  charge_drawn: 5.0
  charge_regen: 0.0
  energy_drawn: 0.0
  energy_regen: 0.0
  displacement: 63.0
  distance_traveled: 107.0
  fault_code: 0
---
header: 
  seq: 8665
  stamp: 
    secs: 1625860606
    nsecs: 984609536
  frame_id: ''
state: 
  voltage_input: 11.7
  temperature_pcb: 0.0
  current_motor: 37.89
  current_input: 3.42
  current_q: 37.48
  speed: 3240.0
  duty_cycle: 0.105
  charge_drawn: 5.0
  charge_regen: 0.0
  energy_drawn: 0.0
  energy_regen: 0.0
  displacement: 70.0
  distance_traveled: 114.0
  fault_code: 0
---
header: 
  seq: 8666
  stamp: 
    secs: 1625860607
    nsecs:   4198644
  frame_id: ''
state: 
  voltage_input: 11.6
  temperature_pcb: 0.0
  current_motor: 34.86
  current_input: 3.11
  current_q: 34.66
  speed: 3405.0
  duty_cycle: 0.103
  charge_drawn: 6.0
  charge_regen: 0.0
  energy_drawn: 0.0
  energy_regen: 0.0
  displacement: 78.0
  distance_traveled: 122.0
  fault_code: 0
---
header: 
  seq: 8667
  stamp: 
    secs: 1625860607
    nsecs:  24141037
  frame_id: ''
state: 
  voltage_input: 11.6
  temperature_pcb: 0.0
  current_motor: 31.43
  current_input: 2.79
  current_q: 31.22
  speed: 3587.0
  duty_cycle: 0.105
  charge_drawn: 6.0
  charge_regen: 0.0
  energy_drawn: 0.0
  energy_regen: 0.0
  displacement: 86.0
  distance_traveled: 130.0
  fault_code: 0
---
header: 
  seq: 8668
  stamp: 
    secs: 1625860607
    nsecs:  45173233
  frame_id: ''
state: 
  voltage_input: 11.6
  temperature_pcb: 0.0
  current_motor: 27.31
  current_input: 2.34
  current_q: 27.03
  speed: 3756.0
  duty_cycle: 0.099
  charge_drawn: 6.0
  charge_regen: 0.0
  energy_drawn: 0.0
  energy_regen: 0.0
  displacement: 95.0
  distance_traveled: 139.0
  fault_code: 0
---
header: 
  seq: 8669
  stamp: 
    secs: 1625860607
    nsecs:  64490150
  frame_id: ''
state: 
  voltage_input: 11.6
  temperature_pcb: 0.0
  current_motor: 25.18
  current_input: 2.2
  current_q: 25.3
  speed: 3901.0
  duty_cycle: 0.105
  charge_drawn: 6.0
  charge_regen: 0.0
  energy_drawn: 0.0
  energy_regen: 0.0
  displacement: 104.0
  distance_traveled: 148.0
  fault_code: 0
---
header: 
  seq: 8670
  stamp: 
    secs: 1625860607
    nsecs:  84633014
  frame_id: ''
state: 
  voltage_input: 11.6
  temperature_pcb: 0.0
  current_motor: 23.01
  current_input: 1.92
  current_q: 22.48
  speed: 4039.0
  duty_cycle: 0.093
  charge_drawn: 6.0
  charge_regen: 0.0
  energy_drawn: 0.0
  energy_regen: 0.0
  displacement: 112.0
  distance_traveled: 156.0
  fault_code: 0
---
header: 
  seq: 8671
  stamp: 
    secs: 1625860607
    nsecs: 104170403
  frame_id: ''
state: 
  voltage_input: 11.7
  temperature_pcb: 0.0
  current_motor: 24.47
  current_input: 2.19
  current_q: 25.03
  speed: 4113.0
  duty_cycle: 0.108
  charge_drawn: 6.0
  charge_regen: 0.0
  energy_drawn: 0.0
  energy_regen: 0.0
  displacement: 121.0
  distance_traveled: 165.0
  fault_code: 0
---
header: 
  seq: 8672
  stamp: 
    secs: 1625860607
    nsecs: 124747906
  frame_id: ''
state: 
  voltage_input: 11.6
  temperature_pcb: 0.0
  current_motor: 21.8
  current_input: 1.82
  current_q: 20.9
  speed: 4240.0
  duty_cycle: 0.086
  charge_drawn: 6.0
  charge_regen: 0.0
  energy_drawn: 0.0
  energy_regen: 0.0
  displacement: 130.0
  distance_traveled: 174.0
  fault_code: 0
---
header: 
  seq: 8673
  stamp: 
    secs: 1625860607
    nsecs: 146099116
  frame_id: ''
state: 
  voltage_input: 11.7
  temperature_pcb: 0.0
  current_motor: 22.28
  current_input: 2.13
  current_q: 22.92
  speed: 4300.0
  duty_cycle: 0.125
  charge_drawn: 6.0
  charge_regen: 0.0
  energy_drawn: 0.0
  energy_regen: 0.0
  displacement: 140.0
  distance_traveled: 184.0
  fault_code: 0
---
header: 
  seq: 8674
  stamp: 
    secs: 1625860607
    nsecs: 163980966
  frame_id: ''
state: 
  voltage_input: 11.7
  temperature_pcb: 0.0
  current_motor: 14.59
  current_input: 1.41
  current_q: 13.1
  speed: 4422.0
  duty_cycle: 0.06
  charge_drawn: 7.0
  charge_regen: 0.0
  energy_drawn: 0.0
  energy_regen: 0.0
  displacement: 148.0
  distance_traveled: 192.0
  fault_code: 0
---
header: 
  seq: 8675
  stamp: 
    secs: 1625860607
    nsecs: 184220081
  frame_id: ''
state: 
  voltage_input: 11.6
  temperature_pcb: 0.0
  current_motor: 18.43
  current_input: 1.82
  current_q: 18.91
  speed: 4508.0
  duty_cycle: 0.091
  charge_drawn: 7.0
  charge_regen: 0.0
  energy_drawn: 0.0
  energy_regen: 0.0
  displacement: 158.0
  distance_traveled: 202.0
  fault_code: 0
---
header: 
  seq: 8676
  stamp: 
    secs: 1625860607
    nsecs: 204707636
  frame_id: ''
state: 
  voltage_input: 11.6
  temperature_pcb: 0.0
  current_motor: 12.42
  current_input: 1.21
  current_q: 13.06
  speed: 4551.0
  duty_cycle: 0.12
  charge_drawn: 7.0
  charge_regen: 0.0
  energy_drawn: 0.0
  energy_regen: 0.0
  displacement: 168.0
  distance_traveled: 212.0
  fault_code: 0
---
header: 
  seq: 8677
  stamp: 
    secs: 1625860607
    nsecs: 223199076
  frame_id: ''
state: 
  voltage_input: 11.6
  temperature_pcb: 0.0
  current_motor: 16.33
  current_input: 1.45
  current_q: 14.43
  speed: 4668.0
  duty_cycle: 0.054
  charge_drawn: 7.0
  charge_regen: 0.0
  energy_drawn: 0.0
  energy_regen: 0.0
  displacement: 177.0
  distance_traveled: 221.0
  fault_code: 0
---
header: 
  seq: 8678
  stamp: 
    secs: 1625860607
    nsecs: 244520337
  frame_id: ''
state: 
  voltage_input: 11.6
  temperature_pcb: 0.0
  current_motor: 17.71
  current_input: 1.72
  current_q: 18.2
  speed: 4685.0
  duty_cycle: 0.097
  charge_drawn: 7.0
  charge_regen: 0.0
  energy_drawn: 0.0
  energy_regen: 0.0
  displacement: 187.0
  distance_traveled: 231.0
  fault_code: 0
---
header: 
  seq: 8679
  stamp: 
    secs: 1625860607
    nsecs: 264224499
  frame_id: ''
state: 
  voltage_input: 11.7
  temperature_pcb: 0.0
  current_motor: 13.07
  current_input: 1.27
  current_q: 13.37
  speed: 4686.0
  duty_cycle: 0.117
  charge_drawn: 7.0
  charge_regen: 0.0
  energy_drawn: 0.0
  energy_regen: 0.0
  displacement: 196.0
  distance_traveled: 240.0
  fault_code: 0
---
header: 
  seq: 8680
  stamp: 
    secs: 1625860607
    nsecs: 284046994
  frame_id: ''
state: 
  voltage_input: 11.6
  temperature_pcb: 0.0
  current_motor: 17.27
  current_input: 1.57
  current_q: 15.74
  speed: 4779.0
  duty_cycle: 0.057
  charge_drawn: 7.0
  charge_regen: 0.0
  energy_drawn: 0.0
  energy_regen: 0.0
  displacement: 206.0
  distance_traveled: 250.0
  fault_code: 0
---
header: 
  seq: 8681
  stamp: 
    secs: 1625860607
    nsecs: 303999648
  frame_id: ''
state: 
  voltage_input: 11.6
  temperature_pcb: 0.0
  current_motor: 16.08
  current_input: 1.51
  current_q: 16.38
  speed: 4796.0
  duty_cycle: 0.091
  charge_drawn: 7.0
  charge_regen: 0.0
  energy_drawn: 0.0
  energy_regen: 0.0
  displacement: 216.0
  distance_traveled: 260.0
  fault_code: 0
---
header: 
  seq: 8682
  stamp: 
    secs: 1625860607
    nsecs: 324566526
  frame_id: ''
state: 
  voltage_input: 11.6
  temperature_pcb: 0.0
  current_motor: 11.34
  current_input: 1.05
  current_q: 11.45
  speed: 4798.0
  duty_cycle: 0.118
  charge_drawn: 7.0
  charge_regen: 0.0
  energy_drawn: 0.0
  energy_regen: 0.0
  displacement: 225.0
  distance_traveled: 269.0
  fault_code: 0
---
header: 
  seq: 8683
  stamp: 
    secs: 1625860607
    nsecs: 344216624
  frame_id: ''
state: 
  voltage_input: 11.7
  temperature_pcb: 0.0
  current_motor: 11.85
  current_input: 1.09
  current_q: 11.48
  speed: 4836.0
  duty_cycle: 0.101
  charge_drawn: 7.0
  charge_regen: 0.0
  energy_drawn: 0.0
  energy_regen: 0.0
  displacement: 236.0
  distance_traveled: 280.0
  fault_code: 0
---
header: 
  seq: 8684
  stamp: 
    secs: 1625860607
    nsecs: 363919535
  frame_id: ''
state: 
  voltage_input: 11.7
  temperature_pcb: 0.0
  current_motor: 13.81
  current_input: 1.29
  current_q: 12.68
  speed: 4893.0
  duty_cycle: 0.066
  charge_drawn: 7.0
  charge_regen: 0.0
  energy_drawn: 0.0
  energy_regen: 0.0
  displacement: 246.0
  distance_traveled: 290.0
  fault_code: 0
---
header: 
  seq: 8685
  stamp: 
    secs: 1625860607
    nsecs: 384737614
  frame_id: ''
state: 
  voltage_input: 11.7
  temperature_pcb: 0.0
  current_motor: 14.81
  current_input: 1.4
  current_q: 14.53
  speed: 4932.0
  duty_cycle: 0.063
  charge_drawn: 7.0
  charge_regen: 0.0
  energy_drawn: 0.0
  energy_regen: 0.0
  displacement: 256.0
  distance_traveled: 300.0
  fault_code: 0
---
header: 
  seq: 8686
  stamp: 
    secs: 1625860607
    nsecs: 404665163
  frame_id: ''
state: 
  voltage_input: 11.7
  temperature_pcb: 0.0
  current_motor: 11.79
  current_input: 1.26
  current_q: 12.39
  speed: 4912.0
  duty_cycle: 0.111
  charge_drawn: 7.0
  charge_regen: 0.0
  energy_drawn: 0.0
  energy_regen: 0.0
  displacement: 266.0
  distance_traveled: 310.0
  fault_code: 0
---
header: 
  seq: 8687
  stamp: 
    secs: 1625860607
    nsecs: 424134114
  frame_id: ''
state: 
  voltage_input: 11.7
  temperature_pcb: 0.0
  current_motor: 8.19
  current_input: 0.74
  current_q: 7.81
  speed: 4927.0
  duty_cycle: 0.11
  charge_drawn: 7.0
  charge_regen: 0.0
  energy_drawn: 0.0
  energy_regen: 0.0
  displacement: 275.0
  distance_traveled: 319.0
  fault_code: 0
---
header: 
  seq: 8688
  stamp: 
    secs: 1625860607
    nsecs: 445073912
  frame_id: ''
state: 
  voltage_input: 11.6
  temperature_pcb: 0.0
  current_motor: 10.25
  current_input: 0.89
  current_q: 9.64
  speed: 4963.0
  duty_cycle: 0.093
  charge_drawn: 8.0
  charge_regen: 0.0
  energy_drawn: 0.0
  energy_regen: 0.0
  displacement: 286.0
  distance_traveled: 330.0
  fault_code: 0
---
header: 
  seq: 8689
  stamp: 
    secs: 1625860607
    nsecs: 465110421
  frame_id: ''
state: 
  voltage_input: 11.6
  temperature_pcb: 0.0
  current_motor: 13.0
  current_input: 1.14
  current_q: 12.52
  speed: 5018.0
  duty_cycle: 0.066
  charge_drawn: 8.0
  charge_regen: 0.0
  energy_drawn: 0.0
  energy_regen: 0.0
  displacement: 296.0
  distance_traveled: 340.0
  fault_code: 0
---
header: 
  seq: 8690
  stamp: 
    secs: 1625860607
    nsecs: 484209003
  frame_id: ''
state: 
  voltage_input: 11.6
  temperature_pcb: 0.0
  current_motor: 10.61
  current_input: 1.06
  current_q: 11.44
  speed: 4972.0
  duty_cycle: 0.115
  charge_drawn: 8.0
  charge_regen: 0.0
  energy_drawn: 0.0
  energy_regen: 0.0
  displacement: 305.0
  distance_traveled: 349.0
  fault_code: 0
---
header: 
  seq: 8691
  stamp: 
    secs: 1625860607
    nsecs: 504177698
  frame_id: ''
state: 
  voltage_input: 11.6
  temperature_pcb: 0.0
  current_motor: 11.19
  current_input: 0.93
  current_q: 9.89
  speed: 5005.0
  duty_cycle: 0.075
  charge_drawn: 8.0
  charge_regen: 0.0
  energy_drawn: 0.0
  energy_regen: 0.0
  displacement: 316.0
  distance_traveled: 360.0
  fault_code: 0
---
header: 
  seq: 8692
  stamp: 
    secs: 1625860607
    nsecs: 524264155
  frame_id: ''
state: 
  voltage_input: 11.7
  temperature_pcb: 0.0
  current_motor: 14.06
  current_input: 1.3
  current_q: 14.03
  speed: 5033.0
  duty_cycle: 0.071
  charge_drawn: 8.0
  charge_regen: 0.0
  energy_drawn: 0.0
  energy_regen: 0.0
  displacement: 326.0
  distance_traveled: 370.0
  fault_code: 0
---
header: 
  seq: 8693
  stamp: 
    secs: 1625860607
    nsecs: 543596125
  frame_id: ''
state: 
  voltage_input: 11.7
  temperature_pcb: 0.0
  current_motor: 11.92
  current_input: 1.15
  current_q: 12.35
  speed: 4998.0
  duty_cycle: 0.107
  charge_drawn: 8.0
  charge_regen: 0.0
  energy_drawn: 0.0
  energy_regen: 0.0
  displacement: 336.0
  distance_traveled: 380.0
  fault_code: 0
---
header: 
  seq: 8694
  stamp: 
    secs: 1625860607
    nsecs: 564147274
  frame_id: ''
state: 
  voltage_input: 11.7
  temperature_pcb: 0.0
  current_motor: 9.53
  current_input: 0.8
  current_q: 8.96
  speed: 5006.0
  duty_cycle: 0.087
  charge_drawn: 8.0
  charge_regen: 0.0
  energy_drawn: 0.0
  energy_regen: 0.0
  displacement: 346.0
  distance_traveled: 390.0
  fault_code: 0
---
header: 
  seq: 8695
  stamp: 
    secs: 1625860607
    nsecs: 584552953
  frame_id: ''
state: 
  voltage_input: 11.6
  temperature_pcb: 0.0
  current_motor: 13.71
  current_input: 1.22
  current_q: 13.3
  speed: 5041.0
  duty_cycle: 0.077
  charge_drawn: 8.0
  charge_regen: 0.0
  energy_drawn: 0.0
  energy_regen: 0.0
  displacement: 356.0
  distance_traveled: 400.0
  fault_code: 0
---
header: 
  seq: 8696
  stamp: 
    secs: 1625860607
    nsecs: 603450022
  frame_id: ''
state: 
  voltage_input: 11.6
  temperature_pcb: 0.0
  current_motor: 10.33
  current_input: 0.99
  current_q: 10.73
  speed: 5020.0
  duty_cycle: 0.102
  charge_drawn: 8.0
  charge_regen: 0.0
  energy_drawn: 0.0
  energy_regen: 0.0
  displacement: 366.0
  distance_traveled: 410.0
  fault_code: 0
---
header: 
  seq: 8697
  stamp: 
    secs: 1625860607
    nsecs: 624824513
  frame_id: ''
state: 
  voltage_input: 11.6
  temperature_pcb: 0.0
  current_motor: 9.08
  current_input: 0.79
  current_q: 8.75
  speed: 5021.0
  duty_cycle: 0.106
  charge_drawn: 8.0
  charge_regen: 0.0
  energy_drawn: 0.0
  energy_regen: 0.0
  displacement: 376.0
  distance_traveled: 420.0
  fault_code: 0
---
header: 
  seq: 8698
  stamp: 
    secs: 1625860607
    nsecs: 645655613
  frame_id: ''
state: 
  voltage_input: 11.6
  temperature_pcb: 0.0
  current_motor: 10.32
  current_input: 0.88
  current_q: 9.74
  speed: 5025.0
  duty_cycle: 0.1
  charge_drawn: 8.0
  charge_regen: 0.0
  energy_drawn: 0.0
  energy_regen: 0.0
  displacement: 387.0
  distance_traveled: 431.0
  fault_code: 0
---
header: 
  seq: 8699
  stamp: 
    secs: 1625860607
    nsecs: 664303565
  frame_id: ''
state: 
  voltage_input: 11.6
  temperature_pcb: 0.0
  current_motor: 13.0
  current_input: 1.15
  current_q: 12.25
  speed: 5065.0
  duty_cycle: 0.065
  charge_drawn: 8.0
  charge_regen: 0.0
  energy_drawn: 0.0
  energy_regen: 0.0
  displacement: 397.0
  distance_traveled: 441.0
  fault_code: 0
---
header: 
  seq: 8700
  stamp: 
    secs: 1625860607
    nsecs: 684498096
  frame_id: ''
state: 
  voltage_input: 11.6
  temperature_pcb: 0.0
  current_motor: 11.06
  current_input: 1.02
  current_q: 10.97
  speed: 5080.0
  duty_cycle: 0.07
  charge_drawn: 8.0
  charge_regen: 0.0
  energy_drawn: 0.0
  energy_regen: 0.0
  displacement: 407.0
  distance_traveled: 451.0
  fault_code: 0
---
header: 
  seq: 8701
  stamp: 
    secs: 1625860607
    nsecs: 703671262
  frame_id: ''
state: 
  voltage_input: 11.6
  temperature_pcb: 0.0
  current_motor: 9.53
  current_input: 0.96
  current_q: 9.73
  speed: 5066.0
  duty_cycle: 0.098
  charge_drawn: 8.0
  charge_regen: 0.0
  energy_drawn: 0.0
  energy_regen: 0.0
  displacement: 417.0
  distance_traveled: 461.0
  fault_code: 0
---
header: 
  seq: 8702
  stamp: 
    secs: 1625860607
    nsecs: 724162411
  frame_id: ''
state: 
  voltage_input: 11.6
  temperature_pcb: 0.0
  current_motor: 8.64
  current_input: 0.84
  current_q: 8.7
  speed: 5060.0
  duty_cycle: 0.106
  charge_drawn: 8.0
  charge_regen: 0.0
  energy_drawn: 0.0
  energy_regen: 0.0
  displacement: 427.0
  distance_traveled: 471.0
  fault_code: 0
---
header: 
  seq: 8703
  stamp: 
    secs: 1625860607
    nsecs: 743662976
  frame_id: ''
state: 
  voltage_input: 11.6
  temperature_pcb: 0.0
  current_motor: 8.98
  current_input: 0.78
  current_q: 8.37
  speed: 5049.0
  duty_cycle: 0.105
  charge_drawn: 8.0
  charge_regen: 0.0
  energy_drawn: 0.0
  energy_regen: 0.0
  displacement: 437.0
  distance_traveled: 481.0
  fault_code: 0
---
header: 
  seq: 8704
  stamp: 
    secs: 1625860607
    nsecs: 764301418
  frame_id: ''
state: 
  voltage_input: 11.7
  temperature_pcb: 0.0
  current_motor: 11.28
  current_input: 0.97
  current_q: 10.34
  speed: 5080.0
  duty_cycle: 0.065
  charge_drawn: 8.0
  charge_regen: 0.0
  energy_drawn: 0.0
  energy_regen: 0.0
  displacement: 447.0
  distance_traveled: 491.0
  fault_code: 0
---
header: 
  seq: 8705
  stamp: 
    secs: 1625860607
    nsecs: 783855056
  frame_id: ''
state: 
  voltage_input: 11.6
  temperature_pcb: 0.0
  current_motor: 12.83
  current_input: 1.18
  current_q: 12.86
  speed: 5080.0
  duty_cycle: 0.076
  charge_drawn: 8.0
  charge_regen: 0.0
  energy_drawn: 0.0
  energy_regen: 0.0
  displacement: 457.0
  distance_traveled: 501.0
  fault_code: 0
---
header: 
  seq: 8706
  stamp: 
    secs: 1625860607
    nsecs: 803976045
  frame_id: ''
state: 
  voltage_input: 11.7
  temperature_pcb: 0.0
  current_motor: 11.83
  current_input: 1.12
  current_q: 12.06
  speed: 5041.0
  duty_cycle: 0.104
  charge_drawn: 9.0
  charge_regen: 0.0
  energy_drawn: 0.0
  energy_regen: 0.0
  displacement: 467.0
  distance_traveled: 511.0
  fault_code: 0
---
header: 
  seq: 8707
  stamp: 
    secs: 1625860607
    nsecs: 823901667
  frame_id: ''
state: 
  voltage_input: 11.6
  temperature_pcb: 0.0
  current_motor: 9.29
  current_input: 0.79
  current_q: 8.83
  speed: 5032.0
  duty_cycle: 0.096
  charge_drawn: 9.0
  charge_regen: 0.0
  energy_drawn: 0.0
  energy_regen: 0.0
  displacement: 477.0
  distance_traveled: 521.0
  fault_code: 0
---
header: 
  seq: 8708
  stamp: 
    secs: 1625860607
    nsecs: 843990103
  frame_id: ''
state: 
  voltage_input: 11.7
  temperature_pcb: 0.0
  current_motor: 14.22
  current_input: 1.3
  current_q: 14.17
  speed: 5051.0
  duty_cycle: 0.092
  charge_drawn: 9.0
  charge_regen: 0.0
  energy_drawn: 0.0
  energy_regen: 0.0
  displacement: 488.0
  distance_traveled: 532.0
  fault_code: 0
---
header: 
  seq: 8709
  stamp: 
    secs: 1625860607
    nsecs: 863889682
  frame_id: ''
state: 
  voltage_input: 11.6
  temperature_pcb: 0.0
  current_motor: 10.2
  current_input: 0.93
  current_q: 10.1
  speed: 5027.0
  duty_cycle: 0.112
  charge_drawn: 9.0
  charge_regen: 0.0
  energy_drawn: 0.0
  energy_regen: 0.0
  displacement: 497.0
  distance_traveled: 541.0
  fault_code: 0
---
header: 
  seq: 8710
  stamp: 
    secs: 1625860607
    nsecs: 884263590
  frame_id: ''
state: 
  voltage_input: 11.7
  temperature_pcb: 0.0
  current_motor: 9.74
  current_input: 0.88
  current_q: 9.53
  speed: 5026.0
  duty_cycle: 0.115
  charge_drawn: 9.0
  charge_regen: 0.0
  energy_drawn: 0.0
  energy_regen: 0.0
  displacement: 507.0
  distance_traveled: 551.0
  fault_code: 0
---
header: 
  seq: 8711
  stamp: 
    secs: 1625860607
    nsecs: 904901042
  frame_id: ''
state: 
  voltage_input: 11.6
  temperature_pcb: 0.0
  current_motor: 10.41
  current_input: 0.9
  current_q: 9.62
  speed: 5029.0
  duty_cycle: 0.103
  charge_drawn: 9.0
  charge_regen: 0.0
  energy_drawn: 0.0
  energy_regen: 0.0
  displacement: 517.0
  distance_traveled: 561.0
  fault_code: 0
---
header: 
  seq: 8712
  stamp: 
    secs: 1625860607
    nsecs: 924075406
  frame_id: ''
state: 
  voltage_input: 11.6
  temperature_pcb: 0.0
  current_motor: 10.87
  current_input: 1.04
  current_q: 10.36
  speed: 5044.0
  duty_cycle: 0.076
  charge_drawn: 9.0
  charge_regen: 0.0
  energy_drawn: 0.0
  energy_regen: 0.0
  displacement: 528.0
  distance_traveled: 572.0
  fault_code: 0
---
header: 
  seq: 8713
  stamp: 
    secs: 1625860607
    nsecs: 945399324
  frame_id: ''
state: 
  voltage_input: 11.7
  temperature_pcb: 0.0
  current_motor: 10.6
  current_input: 0.97
  current_q: 10.07
  speed: 5072.0
  duty_cycle: 0.063
  charge_drawn: 9.0
  charge_regen: 0.0
  energy_drawn: 0.0
  energy_regen: 0.0
  displacement: 538.0
  distance_traveled: 582.0
  fault_code: 0
---
header: 
  seq: 8714
  stamp: 
    secs: 1625860607
    nsecs: 964300977
  frame_id: ''
state: 
  voltage_input: 11.6
  temperature_pcb: 0.0
  current_motor: 10.72
  current_input: 0.97
  current_q: 10.39
  speed: 5094.0
  duty_cycle: 0.059
  charge_drawn: 9.0
  charge_regen: 0.0
  energy_drawn: 0.0
  energy_regen: 0.0
  displacement: 549.0
  distance_traveled: 593.0
  fault_code: 0
---
header: 
  seq: 8715
  stamp: 
    secs: 1625860607
    nsecs: 983823521
  frame_id: ''
state: 
  voltage_input: 11.6
  temperature_pcb: 0.0
  current_motor: 10.86
  current_input: 1.01
  current_q: 10.79
  speed: 5083.0
  duty_cycle: 0.087
  charge_drawn: 9.0
  charge_regen: 0.0
  energy_drawn: 0.0
  energy_regen: 0.0
  displacement: 558.0
  distance_traveled: 602.0
  fault_code: 0
---
header: 
  seq: 8716
  stamp: 
    secs: 1625860608
    nsecs:   4688944
  frame_id: ''
state: 
  voltage_input: 11.7
  temperature_pcb: 0.0
  current_motor: 10.17
  current_input: 0.96
  current_q: 10.54
  speed: 5058.0
  duty_cycle: 0.106
  charge_drawn: 9.0
  charge_regen: 0.0
  energy_drawn: 0.0
  energy_regen: 0.0
  displacement: 569.0
  distance_traveled: 613.0
  fault_code: 0
---
header: 
  seq: 8717
  stamp: 
    secs: 1625860608
    nsecs:  23850339
  frame_id: ''
state: 
  voltage_input: 11.6
  temperature_pcb: 0.0
  current_motor: 9.72
  current_input: 0.85
  current_q: 9.17
  speed: 5040.0
  duty_cycle: 0.108
  charge_drawn: 9.0
  charge_regen: 0.0
  energy_drawn: 0.0
  energy_regen: 0.0
  displacement: 578.0
  distance_traveled: 622.0
  fault_code: 0
---
header: 
  seq: 8718
  stamp: 
    secs: 1625860608
    nsecs:  45612489
  frame_id: ''
state: 
  voltage_input: 11.6
  temperature_pcb: 0.0
  current_motor: 11.77
  current_input: 1.08
  current_q: 11.23
  speed: 5030.0
  duty_cycle: 0.098
  charge_drawn: 9.0
  charge_regen: 0.0
  energy_drawn: 0.0
  energy_regen: 0.0
  displacement: 589.0
  distance_traveled: 633.0
  fault_code: 0
---
header: 
  seq: 8719
  stamp: 
    secs: 1625860608
    nsecs:  63578090
  frame_id: ''
state: 
  voltage_input: 11.6
  temperature_pcb: 0.0
  current_motor: 13.47
  current_input: 1.24
  current_q: 12.4
  speed: 5068.0
  duty_cycle: 0.06
  charge_drawn: 9.0
  charge_regen: 0.0
  energy_drawn: 0.0
  energy_regen: 0.0
  displacement: 599.0
  distance_traveled: 643.0
  fault_code: 0
---
header: 
  seq: 8720
  stamp: 
    secs: 1625860608
    nsecs:  84073977
  frame_id: ''
state: 
  voltage_input: 11.6
  temperature_pcb: 0.0
  current_motor: 12.85
  current_input: 1.26
  current_q: 13.09
  speed: 5069.0
  duty_cycle: 0.07
  charge_drawn: 9.0
  charge_regen: 0.0
  energy_drawn: 0.0
  energy_regen: 0.0
  displacement: 609.0
  distance_traveled: 653.0
  fault_code: 0
---
header: 
  seq: 8721
  stamp: 
    secs: 1625860608
    nsecs: 103819752
  frame_id: ''
state: 
  voltage_input: 11.6
  temperature_pcb: 0.0
  current_motor: 10.17
  current_input: 1.0
  current_q: 10.68
  speed: 5030.0
  duty_cycle: 0.113
  charge_drawn: 9.0
  charge_regen: 0.0
  energy_drawn: 0.0
  energy_regen: 0.0
  displacement: 619.0
  distance_traveled: 663.0
  fault_code: 0
---
header: 
  seq: 8722
  stamp: 
    secs: 1625860608
    nsecs: 124649080
  frame_id: ''
state: 
  voltage_input: 11.7
  temperature_pcb: 0.0
  current_motor: 9.42
  current_input: 0.82
  current_q: 8.98
  speed: 5033.0
  duty_cycle: 0.105
  charge_drawn: 9.0
  charge_regen: 0.0
  energy_drawn: 0.0
  energy_regen: 0.0
  displacement: 629.0
  distance_traveled: 673.0
  fault_code: 0
---
header: 
  seq: 8723
  stamp: 
    secs: 1625860608
    nsecs: 145755130
  frame_id: ''
state: 
  voltage_input: 11.6
  temperature_pcb: 0.0
  current_motor: 10.38
  current_input: 0.87
  current_q: 9.5
  speed: 5068.0
  duty_cycle: 0.071
  charge_drawn: 9.0
  charge_regen: 0.0
  energy_drawn: 0.0
  energy_regen: 0.0
  displacement: 639.0
  distance_traveled: 683.0
  fault_code: 0
---
header: 
  seq: 8724
  stamp: 
    secs: 1625860608
    nsecs: 163455676
  frame_id: ''
state: 
  voltage_input: 11.6
  temperature_pcb: 0.0
  current_motor: 12.17
  current_input: 1.15
  current_q: 12.63
  speed: 5057.0
  duty_cycle: 0.097
  charge_drawn: 10.0
  charge_regen: 0.0
  energy_drawn: 0.0
  energy_regen: 0.0
  displacement: 649.0
  distance_traveled: 693.0
  fault_code: 0
---
header: 
  seq: 8725
  stamp: 
    secs: 1625860608
    nsecs: 184076825
  frame_id: ''
state: 
  voltage_input: 11.7
  temperature_pcb: 0.0
  current_motor: 9.09
  current_input: 0.8
  current_q: 8.93
  speed: 5056.0
  duty_cycle: 0.11
  charge_drawn: 10.0
  charge_regen: 0.0
  energy_drawn: 0.0
  energy_regen: 0.0
  displacement: 659.0
  distance_traveled: 703.0
  fault_code: 0
---
header: 
  seq: 8726
  stamp: 
    secs: 1625860608
    nsecs: 204139739
  frame_id: ''
state: 
  voltage_input: 11.6
  temperature_pcb: 0.0
  current_motor: 8.35
  current_input: 0.73
  current_q: 8.0
  speed: 5063.0
  duty_cycle: 0.112
  charge_drawn: 10.0
  charge_regen: 0.0
  energy_drawn: 0.0
  energy_regen: 0.0
  displacement: 670.0
  distance_traveled: 714.0
  fault_code: 0
---
header: 
  seq: 8727
  stamp: 
    secs: 1625860608
    nsecs: 224016766
  frame_id: ''
state: 
  voltage_input: 11.6
  temperature_pcb: 0.0
  current_motor: 7.85
  current_input: 0.75
  current_q: 7.51
  speed: 5073.0
  duty_cycle: 0.109
  charge_drawn: 10.0
  charge_regen: 0.0
  energy_drawn: 0.0
  energy_regen: 0.0
  displacement: 680.0
  distance_traveled: 724.0
  fault_code: 0
---
header: 
  seq: 8728
  stamp: 
    secs: 1625860608
    nsecs: 244565466
  frame_id: ''
state: 
  voltage_input: 11.6
  temperature_pcb: 0.0
  current_motor: 7.82
  current_input: 0.7
  current_q: 7.04
  speed: 5084.0
  duty_cycle: 0.111
  charge_drawn: 10.0
  charge_regen: 0.0
  energy_drawn: 0.0
  energy_regen: 0.0
  displacement: 690.0
  distance_traveled: 734.0
  fault_code: 0
---
header: 
  seq: 8729
  stamp: 
    secs: 1625860608
    nsecs: 264696350
  frame_id: ''
state: 
  voltage_input: 11.6
  temperature_pcb: 0.0
  current_motor: 8.15
  current_input: 0.76
  current_q: 7.35
  speed: 5115.0
  duty_cycle: 0.086
  charge_drawn: 10.0
  charge_regen: 0.0
  energy_drawn: 0.0
  energy_regen: 0.0
  displacement: 700.0
  distance_traveled: 744.0
  fault_code: 0
---
header: 
  seq: 8730
  stamp: 
    secs: 1625860608
    nsecs: 284620825
  frame_id: ''
state: 
  voltage_input: 11.6
  temperature_pcb: 0.0
  current_motor: 10.11
  current_input: 0.86
  current_q: 9.59
  speed: 5145.0
  duty_cycle: 0.063
  charge_drawn: 10.0
  charge_regen: 0.0
  energy_drawn: 0.0
  energy_regen: 0.0
  displacement: 711.0
  distance_traveled: 755.0
  fault_code: 0
---
header: 
  seq: 8731
  stamp: 
    secs: 1625860608
    nsecs: 303963471
  frame_id: ''
state: 
  voltage_input: 11.6
  temperature_pcb: 0.0
  current_motor: 10.48
  current_input: 0.96
  current_q: 10.63
  speed: 5129.0
  duty_cycle: 0.087
  charge_drawn: 10.0
  charge_regen: 0.0
  energy_drawn: 0.0
  energy_regen: 0.0
  displacement: 721.0
  distance_traveled: 765.0
  fault_code: 0
---
header: 
  seq: 8732
  stamp: 
    secs: 1625860608
    nsecs: 323997426
  frame_id: ''
state: 
  voltage_input: 11.6
  temperature_pcb: 0.0
  current_motor: 9.85
  current_input: 0.91
  current_q: 9.93
  speed: 5095.0
  duty_cycle: 0.105
  charge_drawn: 10.0
  charge_regen: 0.0
  energy_drawn: 0.0
  energy_regen: 0.0
  displacement: 731.0
  distance_traveled: 775.0
  fault_code: 0
---
header: 
  seq: 8733
  stamp: 
    secs: 1625860608
    nsecs: 344586231
  frame_id: ''
state: 
  voltage_input: 11.6
  temperature_pcb: 0.0
  current_motor: 8.45
  current_input: 0.72
  current_q: 8.03
  speed: 5085.0
  duty_cycle: 0.108
  charge_drawn: 10.0
  charge_regen: 0.0
  energy_drawn: 0.0
  energy_regen: 0.0
  displacement: 741.0
  distance_traveled: 785.0
  fault_code: 0
---
header: 
  seq: 8734
  stamp: 
    secs: 1625860608
    nsecs: 363991326
  frame_id: ''
state: 
  voltage_input: 11.6
  temperature_pcb: 0.0
  current_motor: 8.92
  current_input: 0.82
  current_q: 8.6
  speed: 5089.0
  duty_cycle: 0.109
  charge_drawn: 10.0
  charge_regen: 0.0
  energy_drawn: 0.0
  energy_regen: 0.0
  displacement: 751.0
  distance_traveled: 795.0
  fault_code: 0
---
header: 
